~VERSION INFORMATION
VERS .     2.0     : CWLS LOG ASCII STANDARD - VERSION 2.0
WRAP .     NO      : ONE LINE PER 1 DEPTH STEPS
~WELL INFORMATION
#MNEM.UNIT       DATA                  DESCRIPTION OF MNEMONIC
#---- ----       ----                  -----------------------
STRT .ft            0.100                  :START DEPTH
STOP .ft          250.000                  :STOP DEPTH
STEP .ft            0.050                  :STEP
NULL .          -999.2500                  :NULL VALUE
COMP .     Eaton Pumps Sales & Humility    :COMPANY
WELL .                                     :WELL
FLD  .                                     :FIELD
LOC  .                                     :LOCATION
PROV .                                     :COUNTRY
SRVC .                                     :SERVICE COMPANY
DATE .     02 Nov 16                       :LOG DATE
UWI  .                                     :UNIQUE WELL ID
~OTHER INFORMATION SECTION
#-------------------------
North ref is Magnetic
Mean deviation: 0.56 to N307.40
End deviation components .....
     North: 1.494
     East : -1.954
     Down : 249.825
Azimuth of end: N307.39
Distance start-end: 2.460ft
Comment1: T
Comment2: B
Comment3: p
Comment4: d
Comment5: g
Comment6: 3rd party winch coax
Comment7: RE,RS,JH
~CURVE INFORMATION
#MNEM.UNIT      API CODES       CURVE DESCRIPTION
#---- ----      ---------       -----------------
DEPT .ft                          : 1 DEPTH
DEVN .ft                          : 2 DEVIATION COMPONENT NORTH
DEVE .ft                          : 3 DEVIATION COMPONENT EAST
DEVD .ft                          : 4 DEVIATION COMPONENT DOWN
AZIM .deg                         : 5 DEVIATION AZIMUTH
DEV  .deg                         : 6 DEVIATION FROM VERTICAL DOWN
~A DEPT         DEVN        DEVE        DEVD      AZIM       DEV
# ...
  164.800       1.319      -1.042     164.685    324.46      0.36
  164.850       1.319      -1.043     164.735    286.29      0.32
  164.900       1.319      -1.043     164.785    264.57      0.61
  164.950       1.319      -1.043     164.835     76.93      0.08
  165.000       1.319      -1.043     164.885    308.31      0.33
  165.050       1.320      -1.044     164.935    308.51      0.87
  165.100       1.321      -1.044     164.985    344.08      1.16
  165.150       1.321      -1.045     165.035    263.20      1.22
  165.200       1.320      -1.046     165.085    236.49      0.67
  165.250       1.321      -1.046     165.135    301.68      0.47
  165.300       1.321      -1.046     165.185    291.47      0.52
  165.350       1.320      -1.047     165.235    208.99      0.31
  165.400       1.320      -1.047     165.285    244.34      0.77
  165.450       1.320      -1.047     165.335    324.66      0.20
  165.500       1.321      -1.048     165.385    334.14      0.57
  165.550       1.321      -1.048     165.435    313.06      0.36
  165.600       1.321      -1.048     165.485    222.05      0.29
  165.650       1.321      -1.048     165.535      6.97      0.35
  165.700       1.321      -1.048     165.585    246.87      0.24
  165.750       1.322      -1.048     165.635     16.98      1.53
  165.800       1.322      -1.048     165.685    166.31      0.92
  165.850       1.322      -1.048     165.735    302.36      1.02
  165.900       1.322      -1.049     165.785    250.02      0.51
  165.950       1.322      -1.049     165.835      9.60      0.50
  166.000       1.322      -1.049     165.885    304.66      0.41
  166.050       1.323      -1.049     165.935     51.41      0.33
  166.100       1.323      -1.049     165.985    290.42      0.85
  166.150       1.323      -1.050     166.035    301.31      0.79
  166.200       1.324      -1.051     166.085    290.36      1.13
  166.250       1.324      -1.051     166.135    266.80      0.63
  166.300       1.324      -1.052     166.185    276.09      0.98
  166.350       1.324      -1.052     166.235    108.33      0.35
  166.400       1.324      -1.052     166.285    311.86      0.25
  166.450       1.323      -1.052     166.335    178.57      0.51
  166.500       1.323      -1.052     166.385    301.85      0.44
  166.550       1.324      -1.053     166.435    296.68      0.78
  166.600       1.323      -1.053     166.485    209.12      0.43
  166.650       1.323      -1.053     166.535    278.27      0.24
  166.700       1.324      -1.054     166.585    324.24      0.11
  166.750       1.324      -1.054     166.635    262.77      0.32
  166.800       1.323      -1.054     166.685    102.27      0.13
  166.850       1.324      -1.054     166.735    347.86      0.46
  166.900       1.324      -1.054     166.785    228.70      0.12
  166.950       1.324      -1.054     166.835    267.04      0.31
  167.000       1.324      -1.055     166.885    291.59      0.49
  167.050       1.324      -1.055     166.935    310.43      0.74
  167.100       1.324      -1.056     166.985    265.53      0.92
  167.150       1.325      -1.056     167.035    314.29      0.38
  167.200       1.324      -1.056     167.085    197.54      0.17
  167.250       1.324      -1.056     167.135     43.34      0.12
  167.300       1.325      -1.056     167.185    292.94      0.54
  167.350       1.325      -1.057     167.235    295.53      0.76
  167.400       1.325      -1.057     167.285    351.82      0.41
  167.450       1.326      -1.058     167.335    306.53      1.41
  167.500       1.326      -1.059     167.385    308.56      0.85
  167.550       1.326      -1.058     167.435    102.46      0.64
  167.600       1.327      -1.059     167.485    301.64      0.64
  167.650       1.327      -1.058     167.535     57.11      0.23
  167.700       1.327      -1.059     167.585    333.66      0.45
  167.750       1.327      -1.059     167.635    259.42      0.58
  167.800       1.327      -1.060     167.685    314.88      0.74
  167.850       1.328      -1.060     167.735    307.29      1.03
  167.900       1.328      -1.061     167.785    230.77      0.43
  167.950       1.328      -1.061     167.835    303.50      0.63
  168.000       1.329      -1.062     167.885    311.30      0.74
  168.050       1.329      -1.062     167.935    338.67      0.30
  168.100       1.329      -1.062     167.985    272.93      0.34
  168.150       1.329      -1.063     168.035    271.67      1.02
  168.200       1.329      -1.063     168.085    259.49      0.58
  168.250       1.329      -1.063     168.135    211.77      0.24
  168.300       1.328      -1.065     168.185    262.71      1.30
  168.350       1.329      -1.065     168.235    315.70      0.50
  168.400       1.329      -1.066     168.285    260.38      0.90
  168.450       1.329      -1.066     168.335    358.18      0.20
  168.500       1.329      -1.066     168.385    328.13      0.66
  168.550       1.329      -1.066     168.435    259.09      0.46
  168.600       1.329      -1.067     168.485    263.88      0.99
  168.650       1.329      -1.067     168.535    298.04      0.22
  168.700       1.329      -1.067     168.585     41.95      0.43
  168.750       1.330      -1.068     168.635    308.06      0.88
  168.800       1.330      -1.068     168.685     10.70      0.27
  168.850       1.331      -1.068     168.735    319.28      1.25
  168.900       1.331      -1.069     168.785    249.34      1.13
  168.950       1.331      -1.070     168.835    287.23      0.26
  169.000       1.330      -1.070     168.885    200.29      0.25
  169.050       1.330      -1.070     168.935    267.92      0.90
  169.100       1.330      -1.071     168.985    260.28      0.96
  169.150       1.330      -1.072     169.035    214.35      1.02
  169.200       1.329      -1.072     169.085    228.07      0.60
  169.250       1.329      -1.073     169.135    230.48      0.69
  169.300       1.330      -1.073     169.185    344.52      1.28
  169.350       1.330      -1.073     169.235    329.86      0.17
  169.400       1.330      -1.073     169.285    353.10      0.40
  169.450       1.331      -1.074     169.335    322.28      1.24
  169.500       1.331      -1.074     169.385    162.12      0.25
  169.550       1.331      -1.073     169.435    145.03      0.28
  169.600       1.331      -1.074     169.485    308.62      0.69
  169.650       1.332      -1.074     169.535    337.85      0.83
  169.700       1.332      -1.074     169.585    308.39      0.31
  169.750       1.333      -1.075     169.635    308.28      1.38
  169.800       1.332      -1.076     169.685    200.61      0.59
  169.850       1.333      -1.076     169.735    312.37      0.52
  169.900       1.333      -1.077     169.785    305.62      1.01
  169.950       1.333      -1.077     169.835    307.82      0.54
  170.000       1.334      -1.077     169.885    330.08      0.45
  170.050       1.334      -1.078     169.935    266.44      0.72
  170.100       1.334      -1.078     169.985    112.97      0.18
  170.150       1.334      -1.078     170.035    322.78      0.64
  170.200       1.334      -1.078     170.085    287.93      0.18
  170.250       1.334      -1.078     170.135    317.06      0.19
  170.300       1.334      -1.079     170.185    267.07      0.99
  170.350       1.334      -1.079     170.235    207.95      0.71
  170.400       1.334      -1.080     170.285    307.71      0.71
  170.450       1.334      -1.080     170.335    290.19      0.36
  170.500       1.335      -1.081     170.385    292.18      1.44
  170.550       1.335      -1.082     170.435    247.85      0.31
  170.600       1.335      -1.083     170.485    294.94      1.30
  170.650       1.335      -1.083     170.535    164.83      0.52
  170.700       1.335      -1.083     170.585    322.03      0.48
  170.750       1.335      -1.083     170.635    206.70      0.43
  170.800       1.335      -1.083     170.685     32.56      0.31
  170.850       1.335      -1.083     170.735    278.46      0.29
