~VERSION INFORMATION
VERS .     2.0     : CWLS LOG ASCII STANDARD - VERSION 2.0
WRAP .     NO      : ONE LINE PER 1 DEPTH STEPS
~WELL INFORMATION
#MNEM.UNIT       DATA                  DESCRIPTION OF MNEMONIC
#---- ----       ----                  -----------------------
STRT .ft            0.100                  :START DEPTH
STOP .ft          250.000                  :STOP DEPTH
STEP .ft            0.050                  :STEP
NULL .          -999.2500                  :NULL VALUE
COMP .     Eaton Pumps Sales & Humility    :COMPANY
WELL .                                     :WELL
FLD  .                                     :FIELD
LOC  .                                     :LOCATION
PROV .                                     :COUNTRY
SRVC .                                     :SERVICE COMPANY
DATE .     02 Nov 16                       :LOG DATE
UWI  .                                     :UNIQUE WELL ID
~OTHER INFORMATION SECTION
#-------------------------
North ref is Magnetic
Mean deviation: 0.56 to N307.40
End deviation components .....
     North: 1.494
     East : -1.954
     Down : 249.825
Azimuth of end: N307.39
Distance start-end: 2.460ft
Comment1: T
Comment2: B
Comment3: p
Comment4: d
Comment5: g
Comment6: 3rd party winch coax
Comment7: RE,RS,JH
~CURVE INFORMATION
#MNEM.UNIT      API CODES       CURVE DESCRIPTION
#---- ----      ---------       -----------------
DEPT .ft                          : 1 DEPTH
DEVN .ft                          : 2 DEVIATION COMPONENT NORTH
DEVE .ft                          : 3 DEVIATION COMPONENT EAST
DEVD .ft                          : 4 DEVIATION COMPONENT DOWN
AZIM .deg                         : 5 DEVIATION AZIMUTH
DEV  .deg                         : 6 DEVIATION FROM VERTICAL DOWN
~A DEPT         DEVN        DEVE        DEVD      AZIM       DEV
# ...
  244.100       1.484      -1.895     243.975    261.50      0.65
  244.150       1.485      -1.895     244.025    296.93      0.83
  244.200       1.485      -1.896     244.075    338.69      0.95
  244.250       1.486      -1.896     244.125    333.80      0.91
  244.300       1.486      -1.897     244.175    243.10      0.90
  244.350       1.485      -1.897     244.225    225.00      1.18
  244.400       1.486      -1.897     244.275    356.81      0.59
  244.450       1.485      -1.898     244.325    245.11      0.99
  244.500       1.486      -1.899     244.375    314.25      0.61
  244.550       1.485      -1.899     244.425    250.73      0.73
  244.600       1.485      -1.900     244.475    218.22      0.77
  244.650       1.485      -1.900     244.525    318.60      0.73
  244.700       1.486      -1.901     244.575    301.76      1.15
  244.750       1.486      -1.901     244.625    242.73      0.51
  244.800       1.485      -1.901     244.675    232.07      0.38
  244.850       1.485      -1.902     244.725    224.30      1.05
  244.900       1.485      -1.903     244.775    297.53      1.04
  244.950       1.485      -1.903     244.825    321.94      0.47
  245.000       1.485      -1.903     244.875    161.12      0.50
  245.050       1.485      -1.903     244.925    233.96      0.14
  245.100       1.485      -1.904     244.975    285.56      0.76
  245.150       1.485      -1.905     245.025    284.01      1.05
  245.200       1.487      -1.905     245.075    328.37      1.71
  245.250       1.487      -1.906     245.125    317.39      0.79
  245.300       1.487      -1.906     245.175    283.82      0.45
  245.350       1.487      -1.907     245.225    283.27      0.82
  245.400       1.488      -1.907     245.275    298.28      0.56
  245.450       1.487      -1.908     245.325    252.18      1.08
  245.500       1.488      -1.908     245.375     11.63      0.47
  245.550       1.487      -1.909     245.425    242.37      0.91
  245.600       1.486      -1.910     245.475    221.27      1.48
  245.650       1.487      -1.910     245.525    317.64      0.46
  245.700       1.487      -1.911     245.575    300.50      1.40
  245.750       1.487      -1.911     245.625     66.17      0.15
  245.800       1.487      -1.912     245.675    265.05      0.56
  245.850       1.487      -1.912     245.725    226.06      0.91
  245.900       1.487      -1.913     245.775    285.03      0.76
  245.950       1.487      -1.913     245.825    310.98      0.74
  246.000       1.488      -1.914     245.875    292.06      0.63
  246.050       1.488      -1.914     245.925    299.71      0.65
  246.100       1.488      -1.915     245.975    237.91      0.82
  246.150       1.488      -1.915     246.025    284.65      0.58
  246.200       1.488      -1.916     246.075    267.11      0.55
  246.250       1.488      -1.916     246.125    232.14      0.12
  246.300       1.488      -1.916     246.175    290.04      0.57
  246.350       1.488      -1.917     246.225    307.27      1.12
  246.400       1.488      -1.918     246.275    282.91      0.73
  246.450       1.488      -1.919     246.325    256.46      0.96
  246.500       1.488      -1.919     246.375    263.33      0.33
  246.550       1.488      -1.919     246.425    292.35      0.29
  246.600       1.488      -1.920     246.475    269.98      0.54
  246.650       1.488      -1.920     246.525    274.49      0.95
  246.700       1.488      -1.921     246.575    276.27      0.73
  246.750       1.489      -1.922     246.625    282.55      0.63
  246.800       1.489      -1.922     246.675    278.41      0.54
  246.850       1.489      -1.923     246.725    284.40      0.74
  246.900       1.489      -1.923     246.775    260.78      0.84
  246.950       1.489      -1.924     246.825    276.61      1.11
  247.000       1.489      -1.925     246.875    310.96      0.69
  247.050       1.489      -1.925     246.925    286.25      0.56
  247.100       1.490      -1.926     246.975    305.94      0.86
  247.150       1.490      -1.927     247.025    280.70      0.77
  247.200       1.490      -1.927     247.075    266.66      0.83
  247.250       1.490      -1.928     247.125    271.90      0.38
  247.300       1.490      -1.928     247.175    289.61      0.56
  247.350       1.490      -1.929     247.225    270.86      0.59
  247.400       1.490      -1.929     247.275    272.24      0.55
  247.450       1.490      -1.930     247.325    281.91      0.60
  247.500       1.490      -1.930     247.375    286.91      0.70
  247.550       1.490      -1.931     247.425    276.75      0.75
  247.600       1.491      -1.931     247.475    287.99      0.79
  247.650       1.491      -1.932     247.525    277.29      0.65
  247.700       1.491      -1.933     247.575    274.72      0.62
  247.750       1.491      -1.933     247.625    272.09      0.67
  247.800       1.491      -1.934     247.675    271.22      0.72
  247.850       1.491      -1.934     247.725    265.69      0.67
  247.900       1.491      -1.935     247.775    280.02      0.77
  247.950       1.491      -1.935     247.825    284.99      0.54
  248.000       1.491      -1.936     247.875    284.87      0.58
  248.050       1.491      -1.937     247.925    273.77      0.73
  248.100       1.491      -1.937     247.975    286.39      0.61
  248.150       1.491      -1.937     248.025    286.63      0.55
  248.200       1.492      -1.938     248.075    282.23      0.71
  248.250       1.492      -1.939     248.125    268.41      0.56
  248.300       1.492      -1.939     248.175    275.42      0.71
  248.350       1.492      -1.940     248.225    273.71      0.80
  248.400       1.492      -1.941     248.275    273.86      0.74
  248.450       1.492      -1.941     248.325    267.71      0.42
  248.500       1.492      -1.942     248.375    262.67      0.77
  248.550       1.492      -1.942     248.425    284.58      0.38
  248.600       1.492      -1.942     248.475    250.42      0.62
  248.650       1.492      -1.943     248.525    286.95      0.68
  248.700       1.492      -1.944     248.575    285.25      0.86
  248.750       1.492      -1.944     248.625    279.82      0.61
  248.800       1.492      -1.945     248.675    252.72      0.55
  248.850       1.492      -1.945     248.725    299.89      0.65
  248.900       1.492      -1.946     248.775    285.16      0.64
  248.950       1.492      -1.946     248.825    281.17      0.39
  249.000       1.493      -1.947     248.875    293.03      0.64
  249.050       1.493      -1.947     248.925    268.08      0.41
  249.100       1.492      -1.947     248.975    248.72      0.39
  249.150       1.492      -1.948     249.025    278.98      0.61
  249.200       1.493      -1.948     249.075    309.60      0.62
  249.250       1.493      -1.949     249.125    278.49      0.63
  249.300       1.493      -1.949     249.175    284.34      0.54
  249.350       1.493      -1.950     249.225    276.72      0.52
  249.400       1.493      -1.950     249.275    281.99      0.60
  249.450       1.493      -1.951     249.325    265.95      0.45
  249.500       1.493      -1.951     249.375    279.17      0.53
  249.550       1.493      -1.951     249.425    287.19      0.55
  249.600       1.493      -1.952     249.475    277.05      0.52
  249.650       1.493      -1.952     249.525    274.75      0.53
  249.700       1.493      -1.953     249.575    274.34      0.40
  249.750       1.494      -1.953     249.625    282.55      0.39
  249.800       1.494      -1.953     249.675    269.42      0.41
  249.850       1.494      -1.954     249.725    284.02      0.34
  249.900       1.494      -1.954     249.775    281.49      0.22
  249.950       1.494      -1.954     249.825    263.23      0.29
