~VERSION INFORMATION
VERS .     2.0     : CWLS LOG ASCII STANDARD - VERSION 2.0
WRAP .     NO      : ONE LINE PER 1 DEPTH STEPS
~WELL INFORMATION
#MNEM.UNIT       DATA                  DESCRIPTION OF MNEMONIC
#---- ----       ----                  -----------------------
STRT .ft            0.100                  :START DEPTH
STOP .ft          250.000                  :STOP DEPTH
STEP .ft            0.050                  :STEP
NULL .          -999.2500                  :NULL VALUE
COMP .     Eaton Pumps Sales & Humility    :COMPANY
WELL .                                     :WELL
FLD  .                                     :FIELD
LOC  .                                     :LOCATION
PROV .                                     :COUNTRY
SRVC .                                     :SERVICE COMPANY
DATE .     02 Nov 16                       :LOG DATE
UWI  .                                     :UNIQUE WELL ID
~OTHER INFORMATION SECTION
#-------------------------
North ref is Magnetic
Mean deviation: 0.56 to N307.40
End deviation components .....
     North: 1.494
     East : -1.954
     Down : 249.825
Azimuth of end: N307.39
Distance start-end: 2.460ft
Comment1: T
Comment2: B
Comment3: p
Comment4: d
Comment5: g
Comment6: 3rd party winch coax
Comment7: RE,RS,JH
~CURVE INFORMATION
#MNEM.UNIT      API CODES       CURVE DESCRIPTION
#---- ----      ---------       -----------------
DEPT .ft                          : 1 DEPTH
DEVN .ft                          : 2 DEVIATION COMPONENT NORTH
DEVE .ft                          : 3 DEVIATION COMPONENT EAST
DEVD .ft                          : 4 DEVIATION COMPONENT DOWN
AZIM .deg                         : 5 DEVIATION AZIMUTH
DEV  .deg                         : 6 DEVIATION FROM VERTICAL DOWN
~A DEPT         DEVN        DEVE        DEVD      AZIM       DEV
# ...
   48.900       0.294      -0.534      48.794    315.36      0.48
   48.950       0.295      -0.535      48.844    283.72      1.09
   49.000       0.295      -0.535      48.894    292.06      0.76
   49.050       0.295      -0.536      48.944    309.61      1.11
   49.100       0.296      -0.536      48.994    302.99      0.66
   49.150       0.296      -0.537      49.044    319.84      0.81
   49.200       0.296      -0.537      49.094    233.65      0.40
   49.250       0.297      -0.537      49.144    345.85      0.69
   49.300       0.297      -0.537      49.194    358.55      0.70
   49.350       0.297      -0.538      49.244    265.69      0.54
   49.400       0.298      -0.539      49.294    304.63      1.39
   49.450       0.298      -0.539      49.344    312.26      0.96
   49.500       0.299      -0.540      49.394    277.65      0.91
   49.550       0.298      -0.541      49.444    249.70      0.75
   49.600       0.299      -0.541      49.494    337.29      0.24
   49.650       0.299      -0.541      49.544    299.80      0.70
   49.700       0.299      -0.542      49.594    311.20      0.75
   49.750       0.300      -0.543      49.644    286.98      1.53
   49.800       0.300      -0.544      49.694    296.13      0.83
   49.850       0.300      -0.544      49.744    295.49      0.69
   49.900       0.301      -0.545      49.794    298.49      1.13
   49.950       0.301      -0.546      49.844    245.19      0.28
   50.000       0.301      -0.546      49.894    268.63      0.56
   50.050       0.301      -0.547      49.944    292.82      0.67
   50.100       0.301      -0.547      49.994    333.73      0.82
   50.150       0.302      -0.547      50.044    358.29      0.67
   50.200       0.303      -0.547      50.094    337.12      0.84
   50.250       0.303      -0.547      50.144    316.15      0.35
   50.300       0.304      -0.547      50.194     13.94      0.78
   50.350       0.304      -0.548      50.244    296.18      0.60
   50.400       0.304      -0.548      50.294    264.34      0.72
   50.450       0.304      -0.549      50.344    295.85      0.43
   50.500       0.304      -0.548      50.394     25.33      0.41
   50.550       0.305      -0.549      50.444    297.78      1.28
   50.600       0.305      -0.550      50.494    282.54      0.85
   50.650       0.305      -0.551      50.544    242.89      0.85
   50.700       0.305      -0.552      50.594    293.07      1.07
   50.750       0.305      -0.552      50.644    262.83      0.32
   50.800       0.305      -0.552      50.694    307.91      0.55
   50.850       0.305      -0.553      50.744    277.69      0.77
   50.900       0.305      -0.554      50.794    267.15      0.86
   50.950       0.306      -0.554      50.844    320.90      0.85
   51.000       0.306      -0.555      50.894    322.65      0.76
   51.050       0.307      -0.556      50.944    301.97      1.29
   51.100       0.307      -0.556      50.994    301.24      0.61
   51.150       0.307      -0.557      51.044    221.13      0.89
   51.200       0.307      -0.557      51.094    301.30      0.97
   51.250       0.307      -0.558      51.144    308.16      0.61
   51.300       0.308      -0.558      51.194    341.54      0.80
   51.350       0.308      -0.558      51.244    313.16      0.37
   51.400       0.309      -0.559      51.294    297.32      0.79
   51.450       0.309      -0.559      51.344    268.94      0.34
   51.500       0.309      -0.559      51.394    298.38      0.43
   51.550       0.309      -0.560      51.444    302.13      0.75
   51.600       0.309      -0.560      51.494    306.55      0.43
   51.650       0.309      -0.561      51.544    274.56      1.26
   51.700       0.310      -0.562      51.594    329.50      0.82
   51.750       0.311      -0.562      51.644    316.41      0.73
   51.800       0.311      -0.563      51.694    273.72      0.86
   51.850       0.310      -0.562      51.744    137.05      0.74
   51.900       0.310      -0.563      51.794    341.27      0.28
   51.950       0.311      -0.563      51.844    316.07      1.27
   52.000       0.311      -0.564      51.894    292.36      0.62
   52.050       0.312      -0.565      51.944    283.34      0.97
   52.100       0.311      -0.565      51.994    260.79      0.98
   52.150       0.312      -0.566      52.044    287.52      0.64
   52.200       0.312      -0.567      52.094    308.50      1.08
   52.250       0.313      -0.567      52.144    338.28      0.54
   52.300       0.313      -0.568      52.194    305.65      1.21
   52.350       0.314      -0.569      52.244    293.38      1.11
   52.400       0.315      -0.570      52.294    323.19      1.73
   52.450       0.316      -0.571      52.344    307.22      1.41
   52.500       0.316      -0.571      52.394    288.59      0.21
   52.550       0.316      -0.571      52.444    344.57      0.78
   52.600       0.317      -0.571      52.494    336.09      0.77
   52.650       0.317      -0.572      52.544    307.55      1.03
   52.700       0.318      -0.572      52.594    318.89      0.98
   52.750       0.319      -0.573      52.644    335.70      0.68
   52.800       0.319      -0.573      52.694    318.66      0.75
   52.850       0.320      -0.574      52.744    325.49      0.87
   52.900       0.320      -0.574      52.794    300.50      0.25
   52.950       0.321      -0.574      52.844    357.15      0.76
   53.000       0.321      -0.574      52.894    316.00      0.33
   53.050       0.321      -0.574      52.944    335.47      0.92
   53.100       0.322      -0.575      52.994    315.33      1.19
   53.150       0.322      -0.575      53.044    242.88      0.37
   53.200       0.322      -0.576      53.094    231.04      0.72
   53.250       0.322      -0.576      53.144    314.22      0.77
   53.300       0.323      -0.577      53.193    342.63      0.97
   53.350       0.324      -0.577      53.243      1.33      0.67
   53.400       0.323      -0.576      53.293    162.58      0.34
   53.450       0.324      -0.577      53.343    338.63      1.19
   53.500       0.325      -0.577      53.393    351.71      1.01
   53.550       0.325      -0.577      53.443    277.69      0.59
   53.600       0.325      -0.578      53.493    325.29      0.44
   53.650       0.326      -0.578      53.543    322.23      0.92
   53.700       0.326      -0.579      53.593    314.51      0.64
   53.750       0.327      -0.578      53.643     31.99      0.47
   53.800       0.327      -0.579      53.693    347.58      0.80
   53.850       0.328      -0.580      53.743    277.61      1.25
   53.900       0.328      -0.580      53.793    262.07      0.93
   53.950       0.328      -0.581      53.843    302.51      0.69
   54.000       0.328      -0.581      53.893    313.67      0.43
   54.050       0.329      -0.582      53.943    311.67      0.79
   54.100       0.329      -0.582      53.993    320.48      1.29
   54.150       0.329      -0.583      54.043    245.59      0.41
   54.200       0.330      -0.583      54.093    321.15      0.45
   54.250       0.330      -0.583      54.143    306.03      0.61
   54.300       0.330      -0.584      54.193    311.65      0.33
   54.350       0.330      -0.584      54.243    289.32      0.96
   54.400       0.331      -0.585      54.293    308.45      0.82
   54.450       0.331      -0.585      54.343    316.20      0.50
   54.500       0.332      -0.586      54.393    319.36      0.94
   54.550       0.331      -0.586      54.443    229.52      0.58
   54.600       0.332      -0.587      54.493    330.49      0.80
   54.650       0.332      -0.587      54.543    315.99      0.56
   54.700       0.333      -0.588      54.593    278.44      0.94
   54.750       0.333      -0.588      54.643    320.14      0.75
   54.800       0.333      -0.588      54.693    345.92      0.41
   54.850       0.334      -0.589      54.743    317.21      1.06
   54.900       0.335      -0.590      54.793    301.65      1.01
   54.950       0.336      -0.590      54.843    359.97      1.42
