#Written by Robertson Geologging WinLogger V1.5/498
~VERSION INFORMATION
#------------------------------------------------------------------------------
 VERS. 2.0 : CWLS LOG ASCII STANDARD - VERSION 2.0
 WRAP. NO  : ONE LINE PER DEPTH STEP
~WELL INFORMATION
#MNEM.UNIT         DATA                                DESCRIPTION OF MNEMONIC
#------------------------------------------------------------------------------
 STRT.FT         0.1000                            :   START DEPTH
 STOP.FT       250.0000                            :   STOP DEPTH
 STEP.FT         0.0500                            :   STEP VALUE
 NULL.        -999.2500                            :   NULL VALUE
 COMP.    Eaton Pumps Sales & Humility             :   COMPANY NAME
 WELL.    N/A                                      :   WELL NAME
 FLD.     N/A                                      :   FIELD NAME
 LOC.     N/A                                      :   LOCATION
 PROV.    N/A                                      :   PROVINCE
 SRVC.    N/A                                      :   SERVICE COMPANY NAME
 DATE.    02 Nov 16                                :   DATE
 UWI.     N/A                                      :   UNIQUE WELL IDENTIFIER
~PARAMETER INFORMATION
#MNEMO.UNIT         VALUE                 DESCRIPTION OF MNEMONIC
#------------------------------------------------------------------------------
~OTHER INFORMATION SECTION
#------------------------------------------------------------------------------
 T=45
 B=125k
 p=25
 d=15
 g=0
 3rd party winch coax
 RE,RS,JH
~CURVE INFORMATION
#MNEMO.UNIT         API CODE              CURVE DESCRIPTION
#------------------------------------------------------------------------------
 DEPTH.FT                                :   0     Depth
 TIME.SEC                                :   1     Time
 INCL.DEG                                :   2     Borehole Inclination
 RB.DEG                                  :   3     Relative Bearing
 GR_S.CPS                                :   4     Gyro Resolver Sine
 GAZM.DEG                                :   5     Gyro Borehole Azimuth
 NGAM.CPS                                :   6     Natural Gamma
 GR_C.CPS                                :   7     Gyro Resolver Cosine
 GTF.Deg                                 :   8     Gyro Tool Face
 GTOT.CPS                                :   9     Total G Field
#------------------------------------------------------------------------------
~A  DEPTH     TIME          INCL            RB          GR_S          GAZM          NGAM          GR_C           GTF          GTOT
# ...
  102.400  431.275         0.601        90.352      1931.455       176.427        16.759       687.182        70.415         0.996
  102.450  431.481         0.618        95.736      1942.000       203.920        15.844       685.000        70.565         0.996
  102.500  431.679         0.626        91.224      1942.364       175.819        15.844       680.818        70.679         0.996
  102.550  431.884         0.610        88.602      1944.000       178.545        16.287       677.455        70.783         0.997
  102.600  432.092         0.668        94.481      1945.727       205.490        17.175       674.364        70.880         0.997
  102.650  432.291         0.678        96.720      1946.273       236.072        17.619       671.000        70.974         0.998
  102.700  432.497         0.660        97.836      1946.909       235.022        15.954       668.727        71.040         0.998
  102.750  432.699         0.659        99.995      1947.636       232.963        16.842       665.182        71.140         0.997
  102.800  432.902         0.657       100.755      1949.000       232.321        16.870       661.182        71.259         0.999
  102.850  433.098         0.652       100.245      1949.455       232.951        15.954       656.818        71.378         0.998
  102.900  433.302         0.675        93.282      1950.727       240.029        16.426       652.909        71.493         0.998
  102.950  433.501         0.632        92.250      1956.182       241.173        15.205       650.455        71.605         0.998
  103.000  433.702         0.612        85.793      1947.364       214.937        14.761       646.273        71.639         0.999
  103.050  433.908         0.590        88.758      1948.727       244.789        14.262       643.364        71.729         1.000
  103.100  434.106         0.612        90.080      1949.364       243.579        15.213       639.364        71.841         0.998
  103.150  434.307         0.596        81.569      1948.727       219.488        14.381       634.455        71.966         0.998
  103.200  434.503         0.598        83.613      1950.000       217.587        14.825       629.455        72.110         0.997
  103.250  434.704         0.614        84.810      1951.455       216.551        15.186       623.909        72.271         0.997
  103.300  434.900         0.631        82.107      1952.273       186.661        16.672       619.182        72.404         0.996
  103.350  435.104         0.640        78.585      1952.818       190.318        16.256       614.273        72.540         0.995
  103.400  435.303         0.599        77.794      1953.818       191.245        15.812       609.545        72.675         0.997
  103.450  435.500         0.590        77.742      1954.455       191.426        14.896       604.909        72.804         0.997
  103.500  435.699         0.651        82.282      1950.636       219.759        15.784       598.273        72.950         0.998
  103.550  435.897         0.671        92.694      1951.455       242.236        15.368       592.455        73.113         0.997
  103.600  436.100         0.684        96.169      1952.727       238.935        15.285       586.364        73.286         0.997
  103.650  436.297         0.669        96.673      1953.818       238.592        16.616       580.727        73.447         0.998
  103.700  436.502         0.689       100.987      1955.182       267.143        17.865       576.000        73.585         0.998
  103.750  436.699         0.671       101.848      1956.273       266.426        17.810       571.000        73.728         0.999
  103.800  436.908         0.682       100.770      1957.091       267.655        18.697       565.636        73.880         1.000
  103.850  437.110         0.647       105.829      1958.545       295.470        19.086       560.636        74.026         1.000
  103.900  437.312         0.673       106.886      1960.545       294.544        19.141       556.364        74.157         0.999
  103.950  437.517         0.692       103.223      1961.636       265.596        19.966       552.364        74.274         0.999
  104.000  437.721         0.720       103.248      1962.182       265.676        19.966       548.636        74.379         0.999
  104.050  437.928         0.687       101.941      1963.091       267.074        19.522       545.545        74.469         0.999
  104.100  438.127         0.690        97.228      1963.909       271.884        18.717       542.182        74.567         1.000
  104.150  438.334         0.698        91.152      1964.091       245.328        18.025       538.727        74.662         0.999
  104.200  438.535         0.697        90.135      1964.545       246.444        18.529       535.182        74.762         1.001
  104.250  438.745         0.655        87.331      1965.273       216.633        17.641       531.273        74.873         1.000
  104.300  438.947         0.655        85.876      1966.545       218.198        18.113       527.545        74.983         1.000
  104.350  439.152         0.664        90.001      1967.545       246.899        18.113       524.182        75.082         0.999
  104.400  439.356         0.661        87.213      1968.091       249.781        19.445       520.909        75.175         0.999
  104.450  439.559         0.608        91.175      1968.000       245.904        20.694       517.727        75.261         0.999
  104.500  439.764         0.609        90.163      1968.455       247.004        19.869       514.636        75.348         0.999
  104.550  439.962         0.574        81.308      1969.000       223.227        20.285       511.273        75.444         1.000
  104.600  440.173         0.599        82.174      1969.364       222.443        20.341       508.364        75.526         0.999
  104.650  440.369         0.613        78.366      1970.455       226.325        19.453       505.909        75.600         0.998
  104.700  440.578         0.582        77.646      1971.727       227.116        20.396       503.636        75.671         0.999
  104.750  440.782         0.560        72.744      1972.455       199.351        21.173       501.636        75.731         0.998
  104.800  440.978         0.579        74.943      1973.182       197.228        20.285       499.000        75.808         1.000
  104.850  441.187         0.598        70.706      1982.818       168.831        19.481       497.909        75.900         0.999
  104.900  441.387         0.589        70.837      1992.545       168.797        20.729       496.636        75.998         1.000
  104.950  441.594         0.625        68.686      1992.909       138.291        21.173       494.182        76.068         0.999
  105.000  441.790         0.708        65.177      1993.364       141.885        20.406       491.182        76.153         1.002
  105.050  442.002         0.747        68.444      1993.727       138.707        19.542       488.000        76.242         1.000
  105.100  442.207         0.787        76.182      1995.091       163.803        19.542       484.455        76.348         0.999
  105.150  442.409         0.801        74.120      1995.727       133.242        19.542       480.818        76.452         1.000
  105.200  442.617         0.827        75.227      1996.091       132.236        19.542       477.182        76.554         1.000
  105.250  442.814         0.847        80.892      1995.455       159.404        18.654       473.182        76.660         1.001
  105.300  443.022         0.857        82.085      1996.273       158.347        16.601       468.455        76.795         1.000
  105.350  443.218         0.836        80.688      1996.273       159.868        16.482       463.909        76.920         1.000
  105.400  443.427         0.853        82.512      1987.000       190.866        14.876       458.273        77.014         1.000
  105.450  443.622         0.859        80.212      1978.909       160.523        15.653       453.273        77.099         0.999
