#Written by Robertson Geologging WinLogger V1.5/498
~VERSION INFORMATION
#------------------------------------------------------------------------------
 VERS. 2.0 : CWLS LOG ASCII STANDARD - VERSION 2.0
 WRAP. NO  : ONE LINE PER DEPTH STEP
~WELL INFORMATION
#MNEM.UNIT         DATA                                DESCRIPTION OF MNEMONIC
#------------------------------------------------------------------------------
 STRT.FT         0.1000                            :   START DEPTH
 STOP.FT       250.0000                            :   STOP DEPTH
 STEP.FT         0.0500                            :   STEP VALUE
 NULL.        -999.2500                            :   NULL VALUE
 COMP.    Eaton Pumps Sales & Humility             :   COMPANY NAME
 WELL.    N/A                                      :   WELL NAME
 FLD.     N/A                                      :   FIELD NAME
 LOC.     N/A                                      :   LOCATION
 PROV.    N/A                                      :   PROVINCE
 SRVC.    N/A                                      :   SERVICE COMPANY NAME
 DATE.    02 Nov 16                                :   DATE
 UWI.     N/A                                      :   UNIQUE WELL IDENTIFIER
~PARAMETER INFORMATION
#MNEMO.UNIT         VALUE                 DESCRIPTION OF MNEMONIC
#------------------------------------------------------------------------------
~OTHER INFORMATION SECTION
#------------------------------------------------------------------------------
 T=45
 B=125k
 p=25
 d=15
 g=0
 3rd party winch coax
 RE,RS,JH
~CURVE INFORMATION
#MNEMO.UNIT         API CODE              CURVE DESCRIPTION
#------------------------------------------------------------------------------
 DEPTH.FT                                :   0     Depth
 TIME.SEC                                :   1     Time
 INCL.DEG                                :   2     Borehole Inclination
 RB.DEG                                  :   3     Relative Bearing
 GR_S.CPS                                :   4     Gyro Resolver Sine
 GAZM.DEG                                :   5     Gyro Borehole Azimuth
 NGAM.CPS                                :   6     Natural Gamma
 GR_C.CPS                                :   7     Gyro Resolver Cosine
 GTF.Deg                                 :   8     Gyro Tool Face
 GTOT.CPS                                :   9     Total G Field
#------------------------------------------------------------------------------
~A  DEPTH     TIME          INCL            RB          GR_S          GAZM          NGAM          GR_C           GTF          GTOT
# ...
   71.400  304.325         0.729        47.622       -93.182       310.117        20.132      2359.727       357.739         0.999
   71.450  304.539         0.683        46.912       -91.636       310.865        19.716      2359.818       357.776         0.998
   71.500  304.743         0.688        51.416       -89.364       306.416        19.419      2360.364       357.832         0.999
   71.550  304.959         0.696        54.701       -86.273       303.205        18.848      2360.182       357.907         0.998
   71.600  305.168         0.711        54.777       -83.273       303.203        20.097      2360.818       357.980         1.000
   71.650  305.376         0.772        52.875       -80.182       305.179        20.668      2361.000       358.055         0.999
   71.700  305.586         0.789        51.034       -77.000       307.098        23.581      2360.818       358.132         0.999
   71.750  305.798         0.725        50.952       -73.273       307.270        21.361      2361.545       358.222         0.999
   71.800  306.004         0.716        49.471       -68.909       308.858        22.527      2361.909       358.329         1.000
   71.850  306.214         0.720        51.067       -63.455       307.394        22.582      2361.727       358.461         1.000
   71.900  306.428         0.810        47.143       -58.273       311.444        24.219      2361.727       358.587         1.000
   71.950  306.631         0.843        48.933       -52.909       309.784        24.302      2361.727       358.717         1.001
   72.000  306.844         0.826        53.232       -47.545       305.615        23.831      2362.273       358.847         1.001
   72.050  307.051         0.822        50.843       -42.273       308.132        24.580      2362.364       358.975         1.001
   72.100  307.261         0.832        46.090       -37.455       313.002        24.219      2362.818       359.092         1.001
   72.150  307.468         0.760        47.982       -32.364       311.233        24.552      2362.364       359.215         1.000
   72.200  307.684         0.676        45.250       -26.545       314.106        24.996      2362.545       326.629         1.000
   72.250  307.898         0.660        44.770       -20.818       314.725        24.004      2363.182       294.041         1.000
   72.300  308.109         0.674        45.900       -15.909       313.714        24.063      2362.455       261.432         1.000
   72.350  308.318         0.683        47.463       -10.909       312.272        23.895      2363.273       228.826         1.000
   72.400  308.528         0.667        41.243        -6.273       318.605        23.007      2364.182       196.211         1.000
   72.450  308.743         0.654        42.967        -0.818       317.012        22.591      2365.364       163.616         0.999
   72.500  308.950         0.660        41.672         4.182       318.428        20.688      2366.545       131.010         0.999
   72.550  309.161         0.698        40.389         9.364       319.837        18.691      2366.909        98.408         0.999
   72.600  309.370         0.698        38.917        14.000       321.421        19.939      2367.000        65.793         1.000
   72.650  309.579         0.688        40.640        18.818       319.815        17.918      2366.636        33.183         1.000
   72.700  309.788         0.727        38.042        23.182       322.519        18.278      2367.273         0.561         1.000
   72.750  309.996         0.767        39.578        27.000       321.076        18.278      2366.818         0.654         1.001
   72.800  310.199         0.817        40.584        30.182       320.147        19.166      2367.091         0.731         1.000
   72.850  310.407         0.877        40.436        33.273       320.369        20.831      2367.636         0.805         1.000
   72.900  310.613         0.883        40.286        36.182       320.590        20.082      2367.273         0.876         1.000
   72.950  310.804         0.895        41.531        38.909       319.411        19.610      2367.818         0.941         1.000
   73.000  311.010         0.900        36.918        41.818       324.094        19.277      2367.000         1.012         1.000
   73.050  311.215         0.911        37.726        44.727       323.357        19.999      2366.455         1.083         0.999
   73.100  311.420         0.884        37.046        47.545       324.105        19.659      2366.273         1.151         1.001
   73.150  311.622         0.885        39.154        50.364       322.065        20.515      2366.455         1.219         1.000
   73.200  311.829         0.881        40.275        53.364       321.016        20.981      2367.818         1.291         1.000
   73.250  312.029         0.900        40.653        56.455       320.713        22.202      2367.909         1.366         1.000
   73.300  312.229         0.885        43.289        59.455       318.150        20.953      2367.455         1.439         1.000
   73.350  312.439         0.870        42.189        63.273       319.342        21.397      2367.455         1.531         0.999
   73.400  312.644         0.818        38.432        67.364       323.198        21.240      2366.455         1.631         1.000
   73.450  312.857         0.825        36.137        71.818       325.602        21.767      2365.909         1.739         1.000
   73.500  313.059         0.873        38.743        76.000       323.098        21.292      2365.000         1.841         0.999
   73.550  313.275         0.906        40.161        79.909       321.776        22.124      2364.455         1.936         1.000
   73.600  313.481         0.881        39.227        82.909       322.782        20.459      2364.182         2.009         1.000
   73.650  313.691         0.921        42.575        86.364       319.518        18.240      2363.364         2.093         0.999
   73.700  313.899         0.948        41.264        90.000       320.916        17.046      2364.636         2.180         1.000
   73.750  314.107         0.939        39.806        93.909       322.469        16.890      2363.818         2.275         1.000
   73.800  314.320         0.945        40.010        97.909       322.362        18.693      2363.091         2.372         1.001
   73.850  314.524         0.927        38.587       101.636       323.875        19.026      2362.909         2.463         1.001
   73.900  314.739         0.901        37.700       105.000       324.845        17.361      2362.364         2.545         1.002
   73.950  314.951         0.903        40.246       108.636       322.387        17.805      2362.182         2.633         1.001
   74.000  315.158         0.900        41.209       112.273       321.510        17.361      2364.364         2.718         1.001
   74.050  315.364         0.851        41.203       116.545       321.619        17.288      2363.818         2.823         1.002
   74.100  315.573         0.795        42.318       120.909       320.610        16.872      2364.000         2.928         1.001
   74.150  315.783         0.767        43.766       126.545       319.298        17.760      2364.273         3.064         1.002
   74.200  315.984         0.712        40.359       131.455       322.824        17.316      2364.182         3.183         1.002
   74.250  316.201         0.696        40.732       136.000       322.563        16.585      2362.364         3.295         1.001
   74.300  316.399         0.727        41.110       139.909       322.280        15.641      2361.636         3.390         1.001
   74.350  316.609         0.713        42.961       143.636       320.520        16.890      2361.455         3.481         1.000
   74.400  316.818         0.747        44.244       147.636       319.333        16.057      2361.545         3.577         1.000
   74.450  317.021         0.776        47.593       151.545       316.079        16.529      2361.364         3.672         1.000
