~VERSION INFORMATION
VERS .     2.0     : CWLS LOG ASCII STANDARD - VERSION 2.0
WRAP .     NO      : ONE LINE PER 1 DEPTH STEPS
~WELL INFORMATION
#MNEM.UNIT       DATA                  DESCRIPTION OF MNEMONIC
#---- ----       ----                  -----------------------
STRT .ft            0.100                  :START DEPTH
STOP .ft          250.000                  :STOP DEPTH
STEP .ft            0.050                  :STEP
NULL .          -999.2500                  :NULL VALUE
COMP .     Eaton Pumps Sales & Humility    :COMPANY
WELL .                                     :WELL
FLD  .                                     :FIELD
LOC  .                                     :LOCATION
PROV .                                     :COUNTRY
SRVC .                                     :SERVICE COMPANY
DATE .     02 Nov 16                       :LOG DATE
UWI  .                                     :UNIQUE WELL ID
~OTHER INFORMATION SECTION
#-------------------------
North ref is Magnetic
Mean deviation: 0.56 to N307.40
End deviation components .....
     North: 1.494
     East : -1.954
     Down : 249.825
Azimuth of end: N307.39
Distance start-end: 2.460ft
Comment1: T
Comment2: B
Comment3: p
Comment4: d
Comment5: g
Comment6: 3rd party winch coax
Comment7: RE,RS,JH
~CURVE INFORMATION
#MNEM.UNIT      API CODES       CURVE DESCRIPTION
#---- ----      ---------       -----------------
DEPT .ft                          : 1 DEPTH
DEVN .ft                          : 2 DEVIATION COMPONENT NORTH
DEVE .ft                          : 3 DEVIATION COMPONENT EAST
DEVD .ft                          : 4 DEVIATION COMPONENT DOWN
AZIM .deg                         : 5 DEVIATION AZIMUTH
DEV  .deg                         : 6 DEVIATION FROM VERTICAL DOWN
~A DEPT         DEVN        DEVE        DEVD      AZIM       DEV
# ...
  146.500       1.226      -0.971     146.386    276.07      0.43
  146.550       1.226      -0.971     146.436    321.10      0.68
  146.600       1.227      -0.971     146.486    315.48      0.71
  146.650       1.227      -0.971     146.536    357.04      0.40
  146.700       1.227      -0.971     146.586     28.22      0.40
  146.750       1.227      -0.971     146.636    330.90      0.31
  146.800       1.228      -0.972     146.686    320.62      0.53
  146.850       1.228      -0.972     146.736    353.90      0.45
  146.900       1.228      -0.971     146.786    105.66      0.43
  146.950       1.228      -0.972     146.836    337.36      0.56
  147.000       1.228      -0.972     146.886    263.20      0.26
  147.050       1.228      -0.972     146.936    108.05      0.16
  147.100       1.229      -0.972     146.986      3.74      0.32
  147.150       1.229      -0.972     147.036    342.34      0.37
  147.200       1.229      -0.972     147.086    175.70      0.30
  147.250       1.229      -0.972     147.136    341.53      0.50
  147.300       1.229      -0.971     147.186     95.58      0.61
  147.350       1.230      -0.971     147.236    347.15      0.49
  147.400       1.230      -0.972     147.286    329.39      0.42
  147.450       1.230      -0.971     147.336     48.51      0.11
  147.500       1.230      -0.971     147.386     13.05      0.38
  147.550       1.230      -0.972     147.436    286.41      0.43
  147.600       1.231      -0.972     147.486    326.18      0.49
  147.650       1.231      -0.973     147.536    315.97      0.83
  147.700       1.231      -0.973     147.586    295.97      0.49
  147.750       1.231      -0.973     147.636    241.67      0.30
  147.800       1.232      -0.973     147.686    339.70      0.35
  147.850       1.232      -0.974     147.736    330.14      0.68
  147.900       1.233      -0.974     147.786    315.89      0.88
  147.950       1.233      -0.974     147.836    316.60      0.40
  148.000       1.233      -0.975     147.886    325.38      0.47
  148.050       1.234      -0.975     147.936    325.64      0.59
  148.100       1.233      -0.975     147.986    243.82      0.57
  148.150       1.234      -0.976     148.036    297.85      0.46
  148.200       1.234      -0.976     148.086    315.09      0.64
  148.250       1.234      -0.977     148.136    297.44      0.60
  148.300       1.234      -0.977     148.186    279.30      1.08
  148.350       1.234      -0.977     148.236    149.65      0.02
  148.400       1.235      -0.978     148.286    336.29      0.25
  148.450       1.235      -0.978     148.336    331.22      1.06
  148.500       1.236      -0.979     148.386    286.56      0.69
  148.550       1.236      -0.979     148.436    311.99      0.58
  148.600       1.236      -0.979     148.486    313.59      0.62
  148.650       1.236      -0.980     148.536    258.87      0.98
  148.700       1.237      -0.980     148.586    334.83      0.49
  148.750       1.237      -0.980     148.636      1.84      0.94
  148.800       1.238      -0.980     148.686      0.68      0.28
  148.850       1.238      -0.981     148.736    328.39      1.10
  148.900       1.238      -0.981     148.786    205.46      0.25
  148.950       1.238      -0.981     148.836    308.36      0.53
  149.000       1.239      -0.982     148.886    301.13      0.50
  149.050       1.239      -0.981     148.936     51.55      0.34
  149.100       1.239      -0.981     148.986    348.62      0.43
  149.150       1.239      -0.982     149.036    323.72      0.30
  149.200       1.240      -0.982     149.086    308.47      0.51
  149.250       1.240      -0.982     149.136    334.93      0.41
  149.300       1.240      -0.982     149.186     18.71      0.25
  149.350       1.240      -0.983     149.236    275.25      0.79
  149.400       1.240      -0.983     149.286    286.50      0.52
  149.450       1.241      -0.983     149.336     57.81      0.44
  149.500       1.241      -0.983     149.386     29.65      0.27
  149.550       1.241      -0.983     149.436    253.89      0.69
  149.600       1.241      -0.984     149.486    263.48      0.60
  149.650       1.241      -0.984     149.536    318.79      0.91
  149.700       1.241      -0.985     149.586    260.13      0.57
  149.750       1.241      -0.985     149.636    293.89      0.74
  149.800       1.241      -0.986     149.686    269.17      0.77
  149.850       1.242      -0.986     149.736    312.12      0.58
  149.900       1.242      -0.986     149.786     13.53      0.73
  149.950       1.243      -0.986     149.836     21.80      0.18
  150.000       1.242      -0.986     149.886    243.09      0.10
  150.050       1.243      -0.987     149.936    319.52      0.27
  150.100       1.243      -0.987     149.986      3.99      0.03
  150.150       1.243      -0.987     150.036    191.84      0.15
  150.200       1.243      -0.987     150.086    277.22      0.25
  150.250       1.243      -0.987     150.136    319.90      0.42
  150.300       1.244      -0.987     150.186    340.55      0.77
  150.350       1.244      -0.988     150.236    288.14      0.77
  150.400       1.244      -0.988     150.286    304.64      0.42
  150.450       1.244      -0.988     150.336    120.56      0.58
  150.500       1.244      -0.988     150.386    336.41      0.13
  150.550       1.244      -0.988     150.436    279.51      0.17
  150.600       1.244      -0.988     150.486    340.33      0.53
  150.650       1.244      -0.988     150.536    299.75      0.25
  150.700       1.245      -0.988     150.586     11.29      0.86
  150.750       1.245      -0.988     150.636     74.94      0.35
  150.800       1.245      -0.988     150.686    349.76      0.38
  150.850       1.246      -0.989     150.736    275.67      0.80
  150.900       1.246      -0.989     150.786      5.69      0.49
  150.950       1.246      -0.989     150.836    290.35      0.51
  151.000       1.246      -0.989     150.886    290.91      0.50
  151.050       1.247      -0.990     150.936    304.67      0.73
  151.100       1.247      -0.990     150.986    302.06      0.47
  151.150       1.247      -0.991     151.036    329.04      0.80
  151.200       1.248      -0.991     151.086    306.38      0.62
  151.250       1.248      -0.991     151.136    341.92      0.26
  151.300       1.249      -0.991     151.186    353.11      0.72
  151.350       1.249      -0.992     151.236    288.80      0.64
  151.400       1.249      -0.992     151.286    244.12      0.64
  151.450       1.249      -0.992     151.336     31.55      0.20
  151.500       1.249      -0.992     151.386      9.54      0.18
  151.550       1.249      -0.993     151.436    300.29      0.67
  151.600       1.250      -0.993     151.486    311.76      0.93
  151.650       1.250      -0.994     151.536    282.71      0.54
  151.700       1.250      -0.994     151.586    325.50      0.46
  151.750       1.250      -0.994     151.636    287.42      0.17
  151.800       1.250      -0.994     151.686    288.18      0.20
  151.850       1.250      -0.994     151.736    304.26      0.41
  151.900       1.251      -0.995     151.786    314.29      0.15
  151.950       1.251      -0.995     151.836    331.85      0.45
  152.000       1.251      -0.995     151.886    316.05      0.58
  152.050       1.251      -0.995     151.936     44.03      0.04
  152.100       1.251      -0.995     151.986     21.22      0.19
  152.150       1.252      -0.995     152.036    302.76      0.53
  152.200       1.252      -0.996     152.086    341.92      0.37
  152.250       1.252      -0.996     152.136    306.66      0.78
  152.300       1.252      -0.996     152.186    262.90      0.35
  152.350       1.252      -0.997     152.236    273.44      0.61
  152.400       1.253      -0.997     152.286    326.97      0.30
  152.450       1.253      -0.997     152.336    352.79      0.61
  152.500       1.254      -0.998     152.386    333.04      1.02
  152.550       1.254      -0.998     152.436    276.57      0.79
