~VERSION INFORMATION
VERS .     2.0     : CWLS LOG ASCII STANDARD - VERSION 2.0
WRAP .     NO      : ONE LINE PER 1 DEPTH STEPS
~WELL INFORMATION
#MNEM.UNIT       DATA                  DESCRIPTION OF MNEMONIC
#---- ----       ----                  -----------------------
STRT .ft            0.100                  :START DEPTH
STOP .ft          250.000                  :STOP DEPTH
STEP .ft            0.050                  :STEP
NULL .          -999.2500                  :NULL VALUE
COMP .     Eaton Pumps Sales & Humility    :COMPANY
WELL .                                     :WELL
FLD  .                                     :FIELD
LOC  .                                     :LOCATION
PROV .                                     :COUNTRY
SRVC .                                     :SERVICE COMPANY
DATE .     02 Nov 16                       :LOG DATE
UWI  .                                     :UNIQUE WELL ID
~OTHER INFORMATION SECTION
#-------------------------
North ref is Magnetic
Mean deviation: 0.56 to N307.40
End deviation components .....
     North: 1.494
     East : -1.954
     Down : 249.825
Azimuth of end: N307.39
Distance start-end: 2.460ft
Comment1: T
Comment2: B
Comment3: p
Comment4: d
Comment5: g
Comment6: 3rd party winch coax
Comment7: RE,RS,JH
~CURVE INFORMATION
#MNEM.UNIT      API CODES       CURVE DESCRIPTION
#---- ----      ---------       -----------------
DEPT .ft                          : 1 DEPTH
DEVN .ft                          : 2 DEVIATION COMPONENT NORTH
DEVE .ft                          : 3 DEVIATION COMPONENT EAST
DEVD .ft                          : 4 DEVIATION COMPONENT DOWN
AZIM .deg                         : 5 DEVIATION AZIMUTH
DEV  .deg                         : 6 DEVIATION FROM VERTICAL DOWN
~A DEPT         DEVN        DEVE        DEVD      AZIM       DEV
# ...
   67.200       0.444      -0.702      67.092    321.65      0.95
   67.250       0.445      -0.702      67.142    317.85      1.00
   67.300       0.446      -0.703      67.192    303.71      0.89
   67.350       0.446      -0.703      67.242    312.50      0.88
   67.400       0.447      -0.704      67.292    307.93      1.06
   67.450       0.447      -0.704      67.342    331.78      0.97
   67.500       0.448      -0.705      67.392    305.34      0.81
   67.550       0.448      -0.705      67.442    324.40      0.74
   67.600       0.449      -0.706      67.492    339.67      0.93
   67.650       0.450      -0.706      67.542    340.63      1.06
   67.700       0.450      -0.706      67.592    342.27      0.60
   67.750       0.451      -0.706      67.642    344.85      0.70
   67.800       0.452      -0.707      67.692    340.31      0.84
   67.850       0.453      -0.707      67.742    328.65      1.22
   67.900       0.453      -0.708      67.792    312.66      0.87
   67.950       0.454      -0.708      67.842    349.09      0.43
   68.000       0.454      -0.708      67.892    317.86      0.82
   68.050       0.455      -0.709      67.942    333.26      1.08
   68.100       0.455      -0.709      67.992    334.52      0.20
   68.150       0.456      -0.709      68.042    328.60      0.91
   68.200       0.456      -0.709      68.092    341.08      0.56
   68.250       0.457      -0.710      68.142    311.80      0.58
   68.300       0.457      -0.710      68.192    311.37      0.57
   68.350       0.458      -0.710      68.242    331.15      0.84
   68.400       0.458      -0.711      68.292    337.89      0.60
   68.450       0.458      -0.711      68.342      2.43      0.51
   68.500       0.459      -0.711      68.392    316.66      0.82
   68.550       0.460      -0.711      68.442    346.54      0.91
   68.600       0.460      -0.712      68.492    296.74      0.97
   68.650       0.461      -0.713      68.542    330.48      1.14
   68.700       0.462      -0.713      68.592    332.73      1.11
   68.750       0.462      -0.713      68.642    330.51      0.74
   68.800       0.463      -0.714      68.692    331.94      1.00
   68.850       0.464      -0.714      68.742    319.37      1.11
   68.900       0.464      -0.715      68.792    311.32      0.69
   68.950       0.465      -0.715      68.842    312.24      0.65
   69.000       0.465      -0.716      68.892    321.92      0.73
   69.050       0.466      -0.716      68.942    338.21      0.52
   69.100       0.466      -0.716      68.992    325.77      0.88
   69.150       0.467      -0.716      69.042    338.33      0.52
   69.200       0.467      -0.717      69.092    335.77      0.90
   69.250       0.468      -0.717      69.142    298.78      0.87
   69.300       0.468      -0.718      69.192    313.71      0.91
   69.350       0.469      -0.718      69.242    327.15      0.76
   69.400       0.470      -0.719      69.292    341.92      0.82
   69.450       0.470      -0.719      69.342    324.32      0.80
   69.500       0.471      -0.719      69.392    311.25      0.70
   69.550       0.471      -0.720      69.442    330.71      0.81
   69.600       0.472      -0.721      69.492    306.97      1.17
   69.650       0.472      -0.721      69.542    308.60      0.32
   69.700       0.473      -0.721      69.592    312.16      1.00
   69.750       0.473      -0.722      69.642    318.62      1.03
   69.800       0.474      -0.722      69.692    329.65      0.79
   69.850       0.474      -0.723      69.742    305.94      0.45
   69.900       0.474      -0.723      69.792    310.48      0.40
   69.950       0.475      -0.723      69.842    328.14      0.94
   70.000       0.476      -0.724      69.892    315.80      0.93
   70.050       0.476      -0.724      69.942    320.44      0.73
   70.100       0.476      -0.725      69.992    309.41      0.84
   70.150       0.477      -0.725      70.042    329.35      0.60
   70.200       0.478      -0.725      70.092    335.41      0.86
   70.250       0.478      -0.726      70.142    309.79      0.42
   70.300       0.478      -0.726      70.192    308.60      0.77
   70.350       0.479      -0.727      70.242    321.17      0.60
   70.400       0.479      -0.727      70.292    325.73      0.59
   70.450       0.480      -0.727      70.342    336.91      0.55
   70.500       0.480      -0.727      70.392    333.85      0.89
   70.550       0.481      -0.728      70.442    339.81      0.72
   70.600       0.481      -0.728      70.492    349.50      0.52
   70.650       0.482      -0.728      70.542    337.33      0.81
   70.700       0.483      -0.729      70.592    322.49      0.90
   70.750       0.483      -0.729      70.642    321.44      0.57
   70.800       0.484      -0.729      70.692    332.05      0.91
   70.850       0.484      -0.729      70.742    348.49      0.49
   70.900       0.485      -0.730      70.792    321.71      0.80
   70.950       0.485      -0.730      70.842    330.35      0.73
   71.000       0.486      -0.730      70.892    328.08      0.82
   71.050       0.486      -0.731      70.942    305.31      0.73
   71.100       0.487      -0.731      70.992    314.40      0.75
   71.150       0.487      -0.732      71.042    323.74      0.74
   71.200       0.488      -0.732      71.092    333.63      0.53
   71.250       0.488      -0.732      71.142    321.36      0.83
   71.300       0.489      -0.732      71.192      0.15      0.59
   71.350       0.490      -0.733      71.242    341.86      1.09
   71.400       0.490      -0.733      71.292    297.26      0.29
   71.450       0.490      -0.733      71.342    347.66      0.89
   71.500       0.491      -0.733      71.392    335.14      0.88
   71.550       0.491      -0.734      71.442    319.45      0.58
   71.600       0.492      -0.734      71.492     45.88      0.12
   71.650       0.492      -0.734      71.542    319.67      0.79
   71.700       0.493      -0.734      71.592    333.38      0.65
   71.750       0.493      -0.735      71.642    336.44      0.77
   71.800       0.494      -0.735      71.692    340.80      1.03
   71.850       0.495      -0.735      71.742    329.84      0.63
   71.900       0.495      -0.735      71.792    351.12      0.72
   71.950       0.496      -0.736      71.842    320.54      0.83
   72.000       0.496      -0.736      71.892    318.78      0.56
   72.050       0.496      -0.737      71.942    314.09      0.65
   72.100       0.497      -0.737      71.992    326.01      0.84
   72.150       0.498      -0.737      72.042    323.58      0.73
   72.200       0.498      -0.737      72.092      2.34      0.69
   72.250       0.499      -0.738      72.142    344.20      1.01
   72.300       0.500      -0.738      72.192    324.71      0.86
   72.350       0.500      -0.738      72.242    329.77      0.69
   72.400       0.501      -0.739      72.292    314.06      0.86
   72.450       0.501      -0.739      72.341    312.34      0.98
   72.500       0.502      -0.740      72.391    332.76      0.97
   72.550       0.503      -0.740      72.441    320.82      0.76
   72.600       0.503      -0.741      72.491    324.90      0.57
   72.650       0.503      -0.741      72.541    319.93      0.72
   72.700       0.504      -0.741      72.591    329.19      0.84
   72.750       0.505      -0.742      72.641    338.83      0.76
   72.800       0.505      -0.742      72.691    346.65      0.59
   72.850       0.506      -0.742      72.741    333.56      0.72
   72.900       0.506      -0.742      72.791    320.20      0.78
   72.950       0.507      -0.743      72.841    324.32      0.80
   73.000       0.507      -0.743      72.891    334.50      0.87
   73.050       0.508      -0.744      72.941    330.80      0.94
   73.100       0.509      -0.744      72.991    312.28      0.64
   73.150       0.509      -0.744      73.041    323.82      0.88
   73.200       0.510      -0.745      73.091    337.19      0.72
   73.250       0.510      -0.745      73.141    325.45      0.61
