#Written by Robertson Geologging WinLogger V1.5/498
~VERSION INFORMATION
#------------------------------------------------------------------------------
 VERS. 2.0 : CWLS LOG ASCII STANDARD - VERSION 2.0
 WRAP. NO  : ONE LINE PER DEPTH STEP
~WELL INFORMATION
#MNEM.UNIT         DATA                                DESCRIPTION OF MNEMONIC
#------------------------------------------------------------------------------
 STRT.FT         0.1000                            :   START DEPTH
 STOP.FT       250.0000                            :   STOP DEPTH
 STEP.FT         0.0500                            :   STEP VALUE
 NULL.        -999.2500                            :   NULL VALUE
 COMP.    Eaton Pumps Sales & Humility             :   COMPANY NAME
 WELL.    N/A                                      :   WELL NAME
 FLD.     N/A                                      :   FIELD NAME
 LOC.     N/A                                      :   LOCATION
 PROV.    N/A                                      :   PROVINCE
 SRVC.    N/A                                      :   SERVICE COMPANY NAME
 DATE.    02 Nov 16                                :   DATE
 UWI.     N/A                                      :   UNIQUE WELL IDENTIFIER
~PARAMETER INFORMATION
#MNEMO.UNIT         VALUE                 DESCRIPTION OF MNEMONIC
#------------------------------------------------------------------------------
~OTHER INFORMATION SECTION
#------------------------------------------------------------------------------
 T=45
 B=125k
 p=25
 d=15
 g=0
 3rd party winch coax
 RE,RS,JH
~CURVE INFORMATION
#MNEMO.UNIT         API CODE              CURVE DESCRIPTION
#------------------------------------------------------------------------------
 DEPTH.FT                                :   0     Depth
 TIME.SEC                                :   1     Time
 INCL.DEG                                :   2     Borehole Inclination
 RB.DEG                                  :   3     Relative Bearing
 GR_S.CPS                                :   4     Gyro Resolver Sine
 GAZM.DEG                                :   5     Gyro Borehole Azimuth
 NGAM.CPS                                :   6     Natural Gamma
 GR_C.CPS                                :   7     Gyro Resolver Cosine
 GTF.Deg                                 :   8     Gyro Tool Face
 GTOT.CPS                                :   9     Total G Field
#------------------------------------------------------------------------------
~A  DEPTH     TIME          INCL            RB          GR_S          GAZM          NGAM          GR_C           GTF          GTOT
# ...
  248.100 1055.138         1.166        87.981     -1495.091       261.520        17.708      1590.636       316.774         0.995
  248.150 1056.573         1.111        99.085     -1493.182       250.489        17.737      1592.636       316.846         0.998
  248.200 1057.963         1.127        92.557     -1491.091       257.087        18.085      1594.364       316.917         0.994
  248.250 1059.410         1.218       115.988     -1489.636       266.459        18.735      1597.000       316.992         0.996
  248.300 1060.836         1.128        92.203     -1488.000       257.576        19.438      1598.636       317.052         0.995
  248.350 1062.261         1.083        89.757     -1487.091       260.073        20.183      1600.455       317.102         0.996
  248.400 1064.017         1.117        96.053     -1486.273       253.814        20.374      1601.636       317.139         0.999
  248.450 1065.991         1.141        85.857     -1485.091       264.058        20.417      1603.091       317.188         0.997
  248.500 1068.044         1.045        83.958     -1484.545       265.996        19.783      1604.636       317.226         0.998
  248.550 1070.030         0.939        90.173     -1483.273       259.823        19.737      1605.636       317.268         1.001
  248.600 1072.084         0.957       112.516     -1483.182       270.234        18.924      1607.091       317.296         0.998
  248.650 1074.084         0.974       119.114     -1482.455       263.670        19.776      1608.182       317.329         0.999
  248.700 1076.124         0.970       109.692     -1481.273       273.138        19.704      1609.455       317.375         0.998
  248.750 1078.124         0.976       107.950     -1480.727       274.908        19.942      1610.455       317.403         0.998
  248.800 1078.124         0.962        76.930     -1479.455       273.217        20.756      1610.000       317.420         0.999
  248.850 1078.124         0.971        68.364     -1479.364       281.801        20.998      1610.909       317.437         1.000
  248.900 1078.124         1.004        77.030     -1478.273       273.171        20.280      1611.727       317.473         0.998
  248.950 1078.124         0.984        68.258     -1476.636       282.000        20.413      1613.182       317.530         0.997
  249.000 1078.124         0.935        71.990     -1475.818       278.319        19.652      1615.182       317.582         0.998
  249.050 1078.124         0.948        74.266     -1474.455       276.106        19.516      1617.273       317.645         0.996
  249.100 1078.124         1.049        71.191     -1472.727       279.244        19.357      1618.909       317.707         0.994
  249.150 1078.124         1.024        41.626     -1470.727       276.161        19.053      1621.273       317.787         0.996
  249.200 1078.124         0.985        36.518     -1468.182       281.364        18.948      1623.818       317.881         0.993
  249.250 1078.124         0.990        37.546     -1466.727       280.402        19.072      1626.000       317.948         0.997
  249.300 1078.124         0.962        37.178     -1465.182       280.846        19.130      1628.636       318.024         0.998
  249.350 1078.124         0.955        38.925     -1463.364       279.177        19.085      1631.091       318.102         0.997
  249.400 1078.124         1.003        45.591     -1460.545       272.613        18.867      1633.818       318.205         0.999
  249.450 1078.124         1.020        38.315     -1458.727       279.977        19.306      1636.818       318.292         0.999
  249.500 1078.124         0.963        39.456     -1457.000       278.921        18.474      1639.727       318.377         0.999
  249.550 1078.124         0.959        43.825     -1454.727       274.626        18.902      1641.455       318.451         1.000
  249.600 1078.124         0.977        45.860     -1452.455       272.673        19.346      1643.636       318.533         0.998
  249.650 1078.124         0.900        45.664     -1451.545       272.939        19.888      1646.636       318.603         0.999
  249.700 1078.124         0.926        44.752     -1449.182       273.934        19.923      1648.727       318.685         0.997
  249.750 1078.124         0.937        48.655     -1448.182       270.089        20.829      1651.000       318.744         0.999
  249.800 1078.124         0.954        50.761     -1446.182       268.063        21.472      1653.364       318.824         0.998
  249.850 1078.124         0.956        54.532     -1444.000       264.360        21.869      1654.818       318.892         0.997
  249.900 1078.124         0.930        82.216     -1442.273       269.468        22.151      1656.636       318.957         1.000
  249.950 1078.124         0.895        78.045     -1440.727       273.700        22.582      1658.364       319.017         0.998
  250.000 1078.124         0.865       103.915     -1438.909       247.888        22.548      1659.727       319.076         0.999
