~VERSION INFORMATION
VERS .     2.0     : CWLS LOG ASCII STANDARD - VERSION 2.0
WRAP .     NO      : ONE LINE PER 1 DEPTH STEPS
~WELL INFORMATION
#MNEM.UNIT       DATA                  DESCRIPTION OF MNEMONIC
#---- ----       ----                  -----------------------
STRT .ft            0.100                  :START DEPTH
STOP .ft          250.000                  :STOP DEPTH
STEP .ft            0.050                  :STEP
NULL .          -999.2500                  :NULL VALUE
COMP .     Eaton Pumps Sales & Humility    :COMPANY
WELL .                                     :WELL
FLD  .                                     :FIELD
LOC  .                                     :LOCATION
PROV .                                     :COUNTRY
SRVC .                                     :SERVICE COMPANY
DATE .     02 Nov 16                       :LOG DATE
UWI  .                                     :UNIQUE WELL ID
~OTHER INFORMATION SECTION
#-------------------------
North ref is Magnetic
Mean deviation: 0.56 to N307.40
End deviation components .....
     North: 1.494
     East : -1.954
     Down : 249.825
Azimuth of end: N307.39
Distance start-end: 2.460ft
Comment1: T
Comment2: B
Comment3: p
Comment4: d
Comment5: g
Comment6: 3rd party winch coax
Comment7: RE,RS,JH
~CURVE INFORMATION
#MNEM.UNIT      API CODES       CURVE DESCRIPTION
#---- ----      ---------       -----------------
DEPT .ft                          : 1 DEPTH
DEVN .ft                          : 2 DEVIATION COMPONENT NORTH
DEVE .ft                          : 3 DEVIATION COMPONENT EAST
DEVD .ft                          : 4 DEVIATION COMPONENT DOWN
AZIM .deg                         : 5 DEVIATION AZIMUTH
DEV  .deg                         : 6 DEVIATION FROM VERTICAL DOWN
~A DEPT         DEVN        DEVE        DEVD      AZIM       DEV
# ...
   97.700       0.792      -0.859      97.589     32.75      0.36
   97.750       0.792      -0.859      97.639      6.69      0.69
   97.800       0.793      -0.859      97.689     13.57      0.66
   97.850       0.793      -0.859      97.739    337.04      0.61
   97.900       0.794      -0.859      97.789      8.87      0.84
   97.950       0.795      -0.859      97.839    343.73      1.19
   98.000       0.796      -0.859      97.889      4.20      0.95
   98.050       0.797      -0.859      97.939    347.88      0.91
   98.100       0.798      -0.859      97.989      9.90      1.13
   98.150       0.799      -0.859      98.039    349.87      1.24
   98.200       0.799      -0.860      98.089    310.16      0.73
   98.250       0.800      -0.860      98.139     21.12      0.47
   98.300       0.800      -0.859      98.189     23.43      0.45
   98.350       0.801      -0.860      98.239    354.55      0.85
   98.400       0.801      -0.860      98.289      3.28      0.68
   98.450       0.802      -0.860      98.339    338.50      0.68
   98.500       0.803      -0.860      98.389    353.03      0.94
   98.550       0.803      -0.860      98.439    298.78      0.45
   98.600       0.804      -0.860      98.489      8.37      1.03
   98.650       0.804      -0.860      98.539    344.19      0.07
   98.700       0.804      -0.860      98.589    342.85      0.70
   98.750       0.805      -0.861      98.639    327.72      0.54
   98.800       0.805      -0.861      98.689    320.01      0.67
   98.850       0.806      -0.861      98.739    356.80      0.89
   98.900       0.807      -0.861      98.789    342.59      0.97
   98.950       0.807      -0.862      98.839    325.57      0.74
   99.000       0.808      -0.862      98.889    347.87      1.12
   99.050       0.809      -0.862      98.939    331.21      1.00
   99.100       0.810      -0.862      98.989    357.12      0.76
   99.150       0.810      -0.862      99.039    333.97      0.45
   99.200       0.811      -0.862      99.089     40.24      0.70
   99.250       0.811      -0.863      99.139    306.07      1.12
   99.300       0.812      -0.863      99.189    354.00      0.70
   99.350       0.812      -0.863      99.239    346.60      0.60
   99.400       0.813      -0.863      99.289    319.17      0.76
   99.450       0.813      -0.863      99.339     30.41      0.71
   99.500       0.814      -0.863      99.389    351.30      0.38
   99.550       0.814      -0.863      99.439    292.58      0.43
   99.600       0.814      -0.864      99.489    346.81      0.60
   99.650       0.815      -0.864      99.539    358.37      0.73
   99.700       0.815      -0.863      99.589     19.79      0.59
   99.750       0.816      -0.863      99.639    355.69      0.73
   99.800       0.816      -0.864      99.689    314.63      0.39
   99.850       0.817      -0.864      99.739    337.80      0.51
   99.900       0.817      -0.865      99.789    309.84      1.15
   99.950       0.818      -0.864      99.839     18.44      0.79
  100.000       0.819      -0.865      99.889    354.53      0.61
  100.050       0.819      -0.865      99.939    321.29      0.63
  100.100       0.819      -0.865      99.989    331.20      0.62
  100.150       0.820      -0.866     100.039    310.80      0.65
  100.200       0.820      -0.866     100.089    342.42      0.65
  100.250       0.821      -0.866     100.139     14.18      0.47
  100.300       0.821      -0.866     100.189    276.77      0.34
  100.350       0.821      -0.866     100.239     32.66      0.35
  100.400       0.821      -0.866     100.289    307.51      0.33
  100.450       0.821      -0.867     100.339    282.61      0.69
  100.500       0.822      -0.867     100.389      3.14      0.92
  100.550       0.822      -0.867     100.439    341.57      0.40
  100.600       0.823      -0.867     100.489    317.65      0.84
  100.650       0.823      -0.867     100.539    320.94      0.36
  100.700       0.824      -0.867     100.589    347.10      0.63
  100.750       0.824      -0.868     100.639    305.69      0.47
  100.800       0.825      -0.868     100.689      9.12      0.76
  100.850       0.825      -0.868     100.739     13.15      0.80
  100.900       0.826      -0.868     100.789    352.25      0.68
  100.950       0.827      -0.868     100.839      3.36      1.06
  101.000       0.828      -0.867     100.889      3.77      0.98
  101.050       0.828      -0.868     100.939    350.42      0.68
  101.100       0.829      -0.868     100.989      5.00      0.47
  101.150       0.829      -0.868     101.039    348.24      0.83
  101.200       0.830      -0.868     101.089    348.38      0.84
  101.250       0.830      -0.868     101.139    308.82      0.54
  101.300       0.831      -0.868     101.189    347.58      0.63
  101.350       0.831      -0.869     101.239    304.26      0.61
  101.400       0.832      -0.869     101.289    308.38      0.55
  101.450       0.832      -0.870     101.339    279.81      0.45
  101.500       0.832      -0.870     101.389    347.85      0.41
  101.550       0.833      -0.870     101.439    347.94      0.63
  101.600       0.833      -0.870     101.489    303.27      0.65
  101.650       0.833      -0.871     101.539    318.15      0.70
  101.700       0.834      -0.871     101.589    349.48      0.73
  101.750       0.835      -0.871     101.639    343.24      0.79
  101.800       0.835      -0.871     101.689      3.73      0.69
  101.850       0.836      -0.871     101.739    339.19      0.55
  101.900       0.836      -0.871     101.789    335.33      0.61
  101.950       0.837      -0.871     101.839    354.81      0.74
  102.000       0.837      -0.871     101.889    354.56      0.59
  102.050       0.838      -0.872     101.939    296.51      0.86
  102.100       0.838      -0.872     101.989    330.41      0.50
  102.150       0.839      -0.872     102.039      4.76      0.98
  102.200       0.839      -0.873     102.089    274.07      0.59
  102.250       0.840      -0.873     102.139     13.59      0.76
  102.300       0.840      -0.873     102.189    359.54      0.87
  102.350       0.840      -0.873     102.239    281.07      0.93
  102.400       0.841      -0.874     102.289    307.78      0.69
  102.450       0.841      -0.874     102.339     26.51      0.65
  102.500       0.842      -0.874     102.389    355.06      0.81
  102.550       0.843      -0.874     102.439    337.52      0.81
  102.600       0.843      -0.874     102.489    355.73      0.72
  102.650       0.844      -0.874     102.539      6.27      0.94
  102.700       0.845      -0.874     102.589    346.16      0.86
  102.750       0.846      -0.874     102.639    352.87      1.01
  102.800       0.846      -0.874     102.689    316.47      0.49
  102.850       0.847      -0.874     102.739    354.87      0.61
  102.900       0.847      -0.875     102.789    288.35      0.62
  102.950       0.847      -0.876     102.839    301.95      0.87
  103.000       0.847      -0.876     102.889    291.73      0.76
  103.050       0.848      -0.876     102.939    338.33      0.68
  103.100       0.849      -0.877     102.989    345.13      1.19
  103.150       0.850      -0.877     103.039    355.30      0.70
  103.200       0.850      -0.877     103.088    351.97      0.45
  103.250       0.851      -0.877     103.138    357.01      0.78
  103.300       0.851      -0.878     103.188    291.22      0.92
  103.350       0.851      -0.878     103.238    313.53      0.69
  103.400       0.852      -0.878     103.288    350.75      0.84
  103.450       0.853      -0.878     103.338    350.75      0.65
  103.500       0.853      -0.878     103.388      6.52      0.92
  103.550       0.854      -0.878     103.438    360.00      1.14
  103.600       0.855      -0.878     103.488    355.70      0.70
  103.650       0.855      -0.879     103.538    323.16      0.69
  103.700       0.856      -0.879     103.588    346.18      0.69
  103.750       0.857      -0.879     103.638     10.88      0.51
