#Written by Robertson Geologging WinLogger V1.5/498
~VERSION INFORMATION
#------------------------------------------------------------------------------
 VERS. 2.0 : CWLS LOG ASCII STANDARD - VERSION 2.0
 WRAP. NO  : ONE LINE PER DEPTH STEP
~WELL INFORMATION
#MNEM.UNIT         DATA                                DESCRIPTION OF MNEMONIC
#------------------------------------------------------------------------------
 STRT.FT         0.1000                            :   START DEPTH
 STOP.FT       250.0000                            :   STOP DEPTH
 STEP.FT         0.0500                            :   STEP VALUE
 NULL.        -999.2500                            :   NULL VALUE
 COMP.    Eaton Pumps Sales & Humility             :   COMPANY NAME
 WELL.    N/A                                      :   WELL NAME
 FLD.     N/A                                      :   FIELD NAME
 LOC.     N/A                                      :   LOCATION
 PROV.    N/A                                      :   PROVINCE
 SRVC.    N/A                                      :   SERVICE COMPANY NAME
 DATE.    02 Nov 16                                :   DATE
 UWI.     N/A                                      :   UNIQUE WELL IDENTIFIER
~PARAMETER INFORMATION
#MNEMO.UNIT         VALUE                 DESCRIPTION OF MNEMONIC
#------------------------------------------------------------------------------
~OTHER INFORMATION SECTION
#------------------------------------------------------------------------------
 T=45
 B=125k
 p=25
 d=15
 g=0
 3rd party winch coax
 RE,RS,JH
~CURVE INFORMATION
#MNEMO.UNIT         API CODE              CURVE DESCRIPTION
#------------------------------------------------------------------------------
 DEPTH.FT                                :   0     Depth
 TIME.SEC                                :   1     Time
 INCL.DEG                                :   2     Borehole Inclination
 RB.DEG                                  :   3     Relative Bearing
 GR_S.CPS                                :   4     Gyro Resolver Sine
 GAZM.DEG                                :   5     Gyro Borehole Azimuth
 NGAM.CPS                                :   6     Natural Gamma
 GR_C.CPS                                :   7     Gyro Resolver Cosine
 GTF.Deg                                 :   8     Gyro Tool Face
 GTOT.CPS                                :   9     Total G Field
#------------------------------------------------------------------------------
~A  DEPTH     TIME          INCL            RB          GR_S          GAZM          NGAM          GR_C           GTF          GTOT
# ...
  198.500  823.848         0.863       291.479     -1805.545       275.617        22.726     -1049.909       239.823         1.000
  198.550  824.048         0.844       288.503     -1807.091       278.676        24.470     -1047.273       239.906         0.999
  198.600  824.246         0.896       259.048     -1808.091       275.488        26.880     -1044.273       239.991         0.999
  198.650  824.451         0.836       243.476     -1808.818       258.426        25.865     -1040.818       240.083         1.000
  198.700  824.643         0.795       243.735     -1809.909       258.249        25.477     -1038.000       240.165         0.998
  198.750  824.846         0.731       237.182     -1811.364       264.895        25.477     -1034.909       240.259         1.000
  198.800  825.042         0.690       239.777     -1812.818       262.396        26.301     -1031.727       240.355         0.998
  198.850  825.241         0.736       233.814     -1814.182       268.434        26.745     -1029.364       240.430         0.999
  198.900  825.435         0.700       208.599     -1815.545       260.975        27.221     -1027.909       240.483         0.998
  198.950  825.638         0.768       233.422     -1815.545       268.929        27.221     -1025.818       240.533         0.996
  199.000  825.835         0.689       227.685     -1816.091       274.728        27.665     -1023.545       240.595         0.999
  199.050  826.030         0.661       224.400     -1817.000       278.088        26.175     -1020.909       240.670         0.998
  199.100  826.232         0.744       221.300     -1818.182       281.239        28.394     -1019.455       240.721         0.999
  199.150  826.425         0.768       220.453     -1818.091       282.113        26.982     -1018.273       240.748         0.998
  199.200  826.626         0.806       237.217     -1818.545       298.078        27.858     -1018.455       240.750         0.997
  199.250  826.821         0.873       234.911     -1820.545       300.437        29.190     -1017.364       240.802         0.999
  199.300  827.024         0.866       211.343     -1821.636       291.321        28.746     -1016.182       240.845         0.998
  199.350  827.219         0.909       208.898     -1824.364       293.812        29.634     -1015.727       240.892         0.997
  199.400  827.424         0.863       185.866     -1824.364       284.174        27.890     -1013.364       240.949         0.998
  199.450  827.618         0.886       212.987     -1825.909       289.866        26.284     -1010.636       241.035         0.997
  199.500  827.812         0.895       206.709     -1828.091       296.236        27.775     -1008.000       241.127         0.999
  199.550  828.015         0.852       208.734     -1829.727       294.303        27.331     -1005.091       241.219         0.998
  199.600  828.208         0.860       204.826     -1831.364       298.308        28.219     -1002.000       241.316         0.997
  199.650  828.409         0.863       182.360     -1832.000       288.149        27.331      -998.091       241.418         0.997
  199.700  828.603         0.828       205.049     -1834.000       298.296        27.775      -994.727       241.526         0.996
  199.750  828.800         0.840       205.974     -1835.455       297.495        27.775      -990.364       241.651         0.998
  199.800  828.994         0.822       211.637     -1835.545       291.921        27.061      -986.727       241.740         0.997
  199.850  829.200         0.851       239.019     -1837.000       297.362        27.949      -983.545       241.836         0.996
  199.900  829.400         0.784       215.056     -1837.273       288.709        27.949      -979.091       241.947         0.999
  199.950  829.596         0.791       241.627     -1839.273       294.966        27.632      -976.000       242.048         0.995
  200.000  829.798         0.869       242.701     -1840.091       293.991        26.300      -972.364       242.147         0.997
  200.050  829.991         0.806       250.030     -1841.000       286.765        25.190      -968.636       242.249         0.997
  200.100  830.192         0.913       252.189     -1842.455       284.713        24.873      -965.000       242.356         0.995
  200.150  830.392         0.892       259.695     -1844.364       277.333        22.209      -960.818       242.483         0.998
  200.200  830.587         0.771       286.719     -1846.000       283.149        20.434      -957.091       242.595         0.995
  200.250  830.789         0.768       292.626     -1847.545       277.357        21.290      -953.182       242.710         0.998
  200.300  830.988         0.744       292.054     -1848.727       278.046        21.468      -949.000       242.828         0.996
  200.350  831.183         0.770       288.893     -1850.091       281.294        21.171      -946.182       242.914         0.996
  200.400  831.382         0.797       292.734     -1850.455       277.522        22.598      -943.545       242.983         0.998
  200.450  831.580         0.813       322.840     -1850.000       280.198        21.211      -941.091       243.038         0.995
  200.500  831.772         0.918       320.212     -1849.818       282.864        21.655      -939.455       243.076         0.997
  200.550  831.976         0.810       321.740     -1849.455       281.365        21.274      -938.091       243.105         0.997
  200.600  832.170         0.827       322.174     -1850.000       280.960        20.798      -937.182       243.134         0.996
  200.650  832.369         0.784       327.709     -1849.818       275.424        19.847      -937.091       243.134         0.998
  200.700  832.569         0.770       323.789     -1849.273       279.340        19.292      -937.000       243.129         0.994
  200.750  832.769         0.876       321.370     -1857.909       281.834        19.806      -938.182       243.204         0.997
  200.800  832.966         0.841       323.372     -1857.818       279.834        19.679      -938.091       243.206         0.995
  200.850  833.165         0.893       323.303     -1858.091       279.902        19.679      -938.273       243.204         0.996
  200.900  833.364         0.922       296.607     -1857.545       273.879        19.235      -937.636       243.213         0.997
  200.950  833.557         0.865       284.826     -1857.727       252.951        19.552      -937.000       243.231         0.994
  201.000  833.755         0.875       276.276     -1858.091       261.519        20.884      -936.455       243.249         0.996
  201.050  833.951         0.750       283.453     -1858.364       254.378        21.772      -935.091       243.286         0.995
  201.100  834.149         0.798       277.411     -1859.909       260.444        21.772      -934.909       243.310         0.996
  201.150  834.350         0.800       252.150     -1860.000       252.941        22.248      -936.455       243.273         0.998
  201.200  834.545         0.741       242.226     -1860.273       262.887        22.831      -935.727       243.295         0.995
  201.250  834.737         0.792       242.824     -1860.364       262.288        21.847      -935.818       243.294         0.998
  201.300  834.933         0.722       245.901     -1851.364       259.136        23.235      -934.455       243.218         0.997
  201.350  835.129         0.767       242.935     -1851.091       262.109        23.235      -934.000       243.226         0.998
  201.400  835.320         0.707       236.368     -1852.000       235.983        25.137      -933.091       243.260         0.997
  201.450  835.517         0.601       244.683     -1853.000       227.698        26.913      -932.364       243.290         0.997
  201.500  835.707         0.751       252.496     -1852.818       252.617        29.133      -932.091       243.295         1.001
  201.550  835.904         0.734       259.862     -1852.636       245.255        30.132      -931.818       243.299         1.001
