~VERSION INFORMATION
VERS .     2.0     : CWLS LOG ASCII STANDARD - VERSION 2.0
WRAP .     NO      : ONE LINE PER 1 DEPTH STEPS
~WELL INFORMATION
#MNEM.UNIT       DATA                  DESCRIPTION OF MNEMONIC
#---- ----       ----                  -----------------------
STRT .ft            0.100                  :START DEPTH
STOP .ft          250.000                  :STOP DEPTH
STEP .ft            0.050                  :STEP
NULL .          -999.2500                  :NULL VALUE
COMP .     Eaton Pumps Sales & Humility    :COMPANY
WELL .                                     :WELL
FLD  .                                     :FIELD
LOC  .                                     :LOCATION
PROV .                                     :COUNTRY
SRVC .                                     :SERVICE COMPANY
DATE .     02 Nov 16                       :LOG DATE
UWI  .                                     :UNIQUE WELL ID
~OTHER INFORMATION SECTION
#-------------------------
North ref is Magnetic
Mean deviation: 0.56 to N307.40
End deviation components .....
     North: 1.494
     East : -1.954
     Down : 249.825
Azimuth of end: N307.39
Distance start-end: 2.460ft
Comment1: T
Comment2: B
Comment3: p
Comment4: d
Comment5: g
Comment6: 3rd party winch coax
Comment7: RE,RS,JH
~CURVE INFORMATION
#MNEM.UNIT      API CODES       CURVE DESCRIPTION
#---- ----      ---------       -----------------
DEPT .ft                          : 1 DEPTH
DEVN .ft                          : 2 DEVIATION COMPONENT NORTH
DEVE .ft                          : 3 DEVIATION COMPONENT EAST
DEVD .ft                          : 4 DEVIATION COMPONENT DOWN
AZIM .deg                         : 5 DEVIATION AZIMUTH
DEV  .deg                         : 6 DEVIATION FROM VERTICAL DOWN
~A DEPT         DEVN        DEVE        DEVD      AZIM       DEV
# ...
   30.600       0.187      -0.336      30.496    299.30      0.75
   30.650       0.188      -0.337      30.546    312.74      0.54
   30.700       0.188      -0.337      30.596    294.76      0.95
   30.750       0.189      -0.338      30.646    338.45      0.89
   30.800       0.189      -0.338      30.696    337.85      1.01
   30.850       0.189      -0.338      30.746    275.20      0.34
   30.900       0.189      -0.339      30.796    269.87      1.31
   30.950       0.189      -0.340      30.846    254.13      0.88
   31.000       0.190      -0.341      30.896    291.39      0.72
   31.050       0.190      -0.341      30.946    315.66      0.53
   31.100       0.190      -0.342      30.996    290.96      1.03
   31.150       0.191      -0.342      31.046    337.43      1.04
   31.200       0.191      -0.342      31.096     16.52      0.52
   31.250       0.192      -0.342      31.146     47.04      0.48
   31.300       0.192      -0.343      31.196    268.49      1.31
   31.350       0.192      -0.344      31.246    290.26      1.38
   31.400       0.192      -0.345      31.296    258.92      0.90
   31.450       0.192      -0.345      31.346    306.47      0.85
   31.500       0.192      -0.346      31.396    264.97      1.09
   31.550       0.193      -0.347      31.446    311.44      1.57
   31.600       0.194      -0.349      31.496    303.05      1.54
   31.650       0.195      -0.349      31.546    342.77      1.07
   31.700       0.195      -0.349      31.596    307.90      0.63
   31.750       0.196      -0.350      31.646    313.52      0.75
   31.800       0.196      -0.351      31.696    277.12      1.11
   31.850       0.196      -0.351      31.746    325.33      0.63
   31.900       0.197      -0.351      31.796      2.25      0.63
   31.950       0.198      -0.351      31.846    350.71      1.21
   32.000       0.198      -0.352      31.896    293.51      0.77
   32.050       0.198      -0.352      31.946    285.20      0.85
   32.100       0.199      -0.353      31.996    297.91      0.77
   32.150       0.199      -0.353      32.046    282.87      0.46
   32.200       0.200      -0.354      32.096    336.61      1.42
   32.250       0.201      -0.354      32.146    337.64      1.08
   32.300       0.201      -0.355      32.196    327.63      1.02
   32.350       0.202      -0.356      32.246    280.11      1.45
   32.400       0.203      -0.356      32.296    332.60      1.12
   32.450       0.203      -0.357      32.346    304.62      1.16
   32.500       0.204      -0.358      32.396    307.31      1.00
   32.550       0.204      -0.359      32.446    271.43      1.04
   32.600       0.204      -0.359      32.496    287.39      0.63
   32.650       0.204      -0.360      32.546    298.44      0.59
   32.700       0.204      -0.360      32.596    311.98      0.63
   32.750       0.205      -0.361      32.646    296.10      1.27
   32.800       0.205      -0.362      32.696    288.32      0.74
   32.850       0.206      -0.362      32.746    311.01      0.80
   32.900       0.206      -0.363      32.796    332.82      0.45
   32.950       0.207      -0.363      32.846    323.29      0.85
   33.000       0.208      -0.364      32.896    334.38      1.41
   33.050       0.209      -0.364      32.946    322.77      1.54
   33.100       0.209      -0.365      32.996    334.31      0.79
   33.150       0.210      -0.365      33.046    338.00      0.68
   33.200       0.211      -0.365      33.096    333.55      0.89
   33.250       0.211      -0.366      33.146    315.89      0.91
   33.300       0.211      -0.366      33.196    289.76      0.44
   33.350       0.212      -0.367      33.246    302.35      0.66
   33.400       0.212      -0.367      33.296    323.65      0.78
   33.450       0.212      -0.368      33.346    288.12      1.16
   33.500       0.213      -0.369      33.396    294.09      0.79
   33.550       0.213      -0.369      33.446    257.33      0.32
   33.600       0.213      -0.370      33.496    305.85      1.04
   33.650       0.214      -0.370      33.546    322.53      0.46
   33.700       0.214      -0.371      33.596    277.99      1.04
   33.750       0.214      -0.371      33.646      6.21      0.83
   33.800       0.215      -0.371      33.696    301.63      0.61
   33.850       0.215      -0.371      33.746    316.45      0.43
   33.900       0.215      -0.372      33.796    352.66      0.68
   33.950       0.216      -0.372      33.846    275.13      0.66
   34.000       0.216      -0.373      33.896    282.82      0.57
   34.050       0.216      -0.373      33.946    257.95      0.64
   34.100       0.216      -0.374      33.996    280.54      0.69
   34.150       0.216      -0.374      34.046    335.04      0.66
   34.200       0.216      -0.374      34.096    288.90      0.62
   34.250       0.217      -0.375      34.146    328.01      0.66
   34.300       0.217      -0.374      34.196     26.77      0.78
   34.350       0.218      -0.375      34.246    299.73      0.50
   34.400       0.218      -0.376      34.296    270.29      0.83
   34.450       0.218      -0.376      34.346    353.31      0.70
   34.500       0.218      -0.376      34.396     19.26      0.18
   34.550       0.218      -0.376      34.446    274.12      0.90
   34.600       0.219      -0.377      34.496    298.02      0.65
   34.650       0.219      -0.377      34.546    321.36      0.44
   34.700       0.220      -0.377      34.596    347.96      0.67
   34.750       0.219      -0.378      34.646    247.32      0.77
   34.800       0.219      -0.378      34.696    280.88      0.75
   34.850       0.220      -0.379      34.746    280.07      0.58
   34.900       0.220      -0.379      34.796    338.27      0.74
   34.950       0.221      -0.379      34.846    345.38      0.60
   35.000       0.221      -0.380      34.896    274.67      0.85
   35.050       0.221      -0.381      34.946    254.18      0.64
   35.100       0.221      -0.381      34.996    323.96      0.80
   35.150       0.222      -0.381      35.046    349.89      1.09
   35.200       0.222      -0.382      35.096    276.16      0.44
   35.250       0.222      -0.382      35.146    320.96      0.44
   35.300       0.223      -0.383      35.195    285.60      0.85
   35.350       0.223      -0.383      35.245    274.10      0.81
   35.400       0.223      -0.383      35.295    224.48      0.08
   35.450       0.223      -0.384      35.345    284.30      1.21
   35.500       0.223      -0.384      35.395    357.64      0.33
   35.550       0.223      -0.385      35.445    273.70      1.04
   35.600       0.223      -0.386      35.495    284.37      0.75
   35.650       0.224      -0.387      35.545    288.26      0.87
   35.700       0.223      -0.387      35.595    255.61      0.73
   35.750       0.224      -0.388      35.645    295.97      1.47
   35.800       0.224      -0.389      35.695    263.80      0.41
   35.850       0.224      -0.390      35.745    285.53      1.11
   35.900       0.224      -0.390      35.795    264.79      0.49
   35.950       0.224      -0.391      35.845    272.52      1.10
   36.000       0.225      -0.392      35.895    299.49      1.02
   36.050       0.225      -0.393      35.945    291.97      0.97
   36.100       0.225      -0.393      35.995    310.90      0.82
   36.150       0.225      -0.394      36.045    255.60      0.65
   36.200       0.225      -0.394      36.095    156.63      0.14
   36.250       0.225      -0.394      36.145    255.71      0.64
   36.300       0.225      -0.395      36.195    281.71      0.76
   36.350       0.225      -0.395      36.245    247.00      0.77
   36.400       0.225      -0.396      36.295    304.38      0.44
   36.450       0.225      -0.396      36.345     10.07      0.20
   36.500       0.226      -0.397      36.395    319.71      1.51
   36.550       0.227      -0.397      36.445    333.47      1.26
   36.600       0.228      -0.398      36.495    323.82      1.31
   36.650       0.229      -0.399      36.545    295.01      0.98
