#Written by Robertson Geologging WinLogger V1.5/498
~VERSION INFORMATION
#------------------------------------------------------------------------------
 VERS. 2.0 : CWLS LOG ASCII STANDARD - VERSION 2.0
 WRAP. NO  : ONE LINE PER DEPTH STEP
~WELL INFORMATION
#MNEM.UNIT         DATA                                DESCRIPTION OF MNEMONIC
#------------------------------------------------------------------------------
 STRT.FT         0.1000                            :   START DEPTH
 STOP.FT       250.0000                            :   STOP DEPTH
 STEP.FT         0.0500                            :   STEP VALUE
 NULL.        -999.2500                            :   NULL VALUE
 COMP.    Eaton Pumps Sales & Humility             :   COMPANY NAME
 WELL.    N/A                                      :   WELL NAME
 FLD.     N/A                                      :   FIELD NAME
 LOC.     N/A                                      :   LOCATION
 PROV.    N/A                                      :   PROVINCE
 SRVC.    N/A                                      :   SERVICE COMPANY NAME
 DATE.    02 Nov 16                                :   DATE
 UWI.     N/A                                      :   UNIQUE WELL IDENTIFIER
~PARAMETER INFORMATION
#MNEMO.UNIT         VALUE                 DESCRIPTION OF MNEMONIC
#------------------------------------------------------------------------------
~OTHER INFORMATION SECTION
#------------------------------------------------------------------------------
 T=45
 B=125k
 p=25
 d=15
 g=0
 3rd party winch coax
 RE,RS,JH
~CURVE INFORMATION
#MNEMO.UNIT         API CODE              CURVE DESCRIPTION
#------------------------------------------------------------------------------
 DEPTH.FT                                :   0     Depth
 TIME.SEC                                :   1     Time
 INCL.DEG                                :   2     Borehole Inclination
 RB.DEG                                  :   3     Relative Bearing
 GR_S.CPS                                :   4     Gyro Resolver Sine
 GAZM.DEG                                :   5     Gyro Borehole Azimuth
 NGAM.CPS                                :   6     Natural Gamma
 GR_C.CPS                                :   7     Gyro Resolver Cosine
 GTF.Deg                                 :   8     Gyro Tool Face
 GTOT.CPS                                :   9     Total G Field
#------------------------------------------------------------------------------
~A  DEPTH     TIME          INCL            RB          GR_S          GAZM          NGAM          GR_C           GTF          GTOT
# ...
    6.300   41.741      -999.250      -999.250      -999.250      -999.250        43.629      -999.250      -999.250      -999.250
    6.350   41.925      -999.250      -999.250      -999.250      -999.250        42.741      -999.250      -999.250      -999.250
    6.400   42.126      -999.250      -999.250      -999.250      -999.250        45.455      -999.250      -999.250      -999.250
    6.450   42.311      -999.250      -999.250      -999.250      -999.250        47.992      -999.250      -999.250      -999.250
    6.500   42.511      -999.250      -999.250      -999.250      -999.250        48.309      -999.250      -999.250      -999.250
    6.550   42.704      -999.250      -999.250      -999.250      -999.250        47.780      -999.250      -999.250      -999.250
    6.600   42.891      -999.250      -999.250      -999.250      -999.250        46.004      -999.250      -999.250      -999.250
    6.650   43.093      -999.250      -999.250      -999.250      -999.250        42.611      -999.250      -999.250      -999.250
    6.700   43.277      -999.250      -999.250      -999.250      -999.250        42.611      -999.250      -999.250      -999.250
    6.750   43.478      -999.250      -999.250      -999.250      -999.250        42.778      -999.250      -999.250      -999.250
    6.800   43.665      -999.250      -999.250      -999.250      -999.250        39.448      -999.250      -999.250      -999.250
    6.850   43.861      -999.250      -999.250      -999.250      -999.250        40.082      -999.250      -999.250      -999.250
    6.900   44.052      -999.250      -999.250      -999.250      -999.250        39.417      -999.250      -999.250      -999.250
    6.950   44.246      -999.250      -999.250      -999.250      -999.250        39.670      -999.250      -999.250      -999.250
    7.000   44.445      -999.250      -999.250      -999.250      -999.250        38.782      -999.250      -999.250      -999.250
    7.050   44.635      -999.250      -999.250      -999.250      -999.250        37.958      -999.250      -999.250      -999.250
    7.100   44.837      -999.250      -999.250      -999.250      -999.250        38.782      -999.250      -999.250      -999.250
    7.150   45.026      -908.379      -886.754     -1058.773      -901.974        37.894      -786.682      -880.319      -908.318
    7.200   45.222      -817.494      -774.534     -1118.659      -804.438        36.563      -574.568      -761.403      -817.386
    7.250   45.416      -726.617      -663.185     -1170.545      -705.617        33.169      -348.909      -642.075      -726.455
    7.300   45.610      -635.700      -570.600     -1222.795      -588.033        31.584      -122.977      -522.747      -635.523
    7.350   45.802      -544.790      -478.560     -1274.318      -469.902        31.584       102.409      -403.417      -544.592
    7.400   45.998      -453.886      -386.083     -1326.568      -352.213        33.740       328.250      -284.091      -453.659
    7.450   46.195      -362.965      -292.902     -1378.000      -235.215        34.755       553.909      -164.754      -362.727
    7.500   46.385      -272.054      -201.707     -1429.250      -116.226        34.755       779.750       -45.410      -271.796
    7.550   46.583      -181.138      -109.501     -1480.773         1.743        34.311      1005.318        73.924      -180.865
    7.600   46.773       -90.229       -18.620     -1532.477       121.047        34.026      1231.614       193.268       -89.934
    7.650   46.966         0.683        73.137     -1583.909       239.472        35.801      1457.455       312.609         0.998
    7.700   47.157         0.701        51.651     -1576.364       261.367        34.723      1471.182       313.017         0.997
    7.750   47.350         0.748        31.410     -1568.636       282.028        34.438      1485.364       313.438         0.997
    7.800   47.537         0.784        12.123     -1568.364       301.331        34.184      1485.909       313.454         0.998
    7.850   47.730         0.781        11.824     -1567.909       301.652        33.899      1486.636       313.476         0.999
    7.900   47.921         0.781        11.929     -1567.636       301.571        35.611      1487.636       313.500         1.000
    7.950   48.108         0.794        10.946     -1569.909       302.547        35.738      1489.364       313.492         0.999
    8.000   48.305         0.776        40.637     -1569.545       305.598        33.994      1489.818       313.508         0.998
    8.050   48.488         0.779        40.953     -1570.091       305.279        34.882      1490.182       313.505         0.999
    8.100   48.682         0.773        42.283     -1570.091       303.950        37.799      1490.273       313.506         1.001
    8.150   48.870         0.751        43.259     -1570.636       302.963        36.848      1490.182       313.495         1.001
    8.200   49.062         0.765        43.019     -1571.182       303.185        37.482      1489.727       313.476         1.000
    8.250   49.254         0.780        44.920     -1571.364       301.257        38.180      1488.545       313.450         1.000
    8.300   49.441         0.742        44.759     -1572.000       301.380        38.655      1487.182       313.412         1.000
    8.350   49.636         0.733        75.650     -1572.636       303.161        38.655      1484.909       313.356         0.999
    8.400   49.823         0.735        76.977     -1574.000       301.753        40.465      1482.000       313.275         0.997
    8.450   50.020         0.724        76.372     -1576.273       302.257        41.639      1478.909       313.174         0.997
    8.500   50.209         0.718        77.607     -1575.273       300.948        41.195      1474.182       313.101         0.996
    8.550   50.402         0.731        46.913     -1578.273       298.792        41.797      1470.636       312.977         0.997
    8.600   50.592         0.738        48.981     -1585.818       296.541        44.651      1468.091       312.795         0.997
    8.650   50.790         0.737        49.405     -1588.455       295.982        43.700      1463.636       312.660         0.995
    8.700   50.988         0.737        48.620     -1590.818       296.624        43.819      1458.455       312.516         0.996
    8.750   51.183         0.740        51.059     -1593.818       294.045        43.204      1454.091       312.376         0.996
    8.800   51.382         0.741        49.616     -1596.455       295.347        44.409      1449.364       312.236         0.996
    8.850   51.575         0.747        79.719     -1598.636       297.834        46.312      1444.364       312.099         0.996
    8.900   51.772         0.748        49.945     -1602.545       294.730        48.405      1440.273       311.948         0.997
    8.950   51.965         0.765        47.203     -1605.273       297.337        47.513      1435.909       311.813         0.998
    9.000   52.167         0.787        79.129     -1607.636       298.002        50.220      1431.182       311.677         0.998
    9.050   52.356         0.775        78.345     -1610.818       298.650        52.250      1427.182       311.541         0.998
    9.100   52.556         0.778       109.389     -1613.455       300.195        51.299      1422.545       311.402         0.997
    9.150   52.754         0.767       110.769     -1611.727       298.730        51.584      1416.818       311.318         0.997
    9.200   52.946         0.758       110.418     -1614.636       298.950        54.977      1412.818       311.186         0.997
    9.250   53.143         0.791       114.471     -1617.545       294.767        52.279      1408.909       311.056         0.997
    9.300   53.332         0.760       111.356     -1620.364       297.749        51.835      1404.727       310.923         0.998
    9.350   53.529         0.802       141.337     -1623.364       300.362        52.882      1400.727       310.789         0.998
