~VERSION INFORMATION
VERS .     2.0     : CWLS LOG ASCII STANDARD - VERSION 2.0
WRAP .     NO      : ONE LINE PER 1 DEPTH STEPS
~WELL INFORMATION
#MNEM.UNIT       DATA                  DESCRIPTION OF MNEMONIC
#---- ----       ----                  -----------------------
STRT .ft            0.100                  :START DEPTH
STOP .ft          250.000                  :STOP DEPTH
STEP .ft            0.050                  :STEP
NULL .          -999.2500                  :NULL VALUE
COMP .     Eaton Pumps Sales & Humility    :COMPANY
WELL .                                     :WELL
FLD  .                                     :FIELD
LOC  .                                     :LOCATION
PROV .                                     :COUNTRY
SRVC .                                     :SERVICE COMPANY
DATE .     02 Nov 16                       :LOG DATE
UWI  .                                     :UNIQUE WELL ID
~OTHER INFORMATION SECTION
#-------------------------
North ref is Magnetic
Mean deviation: 0.56 to N307.40
End deviation components .....
     North: 1.494
     East : -1.954
     Down : 249.825
Azimuth of end: N307.39
Distance start-end: 2.460ft
Comment1: T
Comment2: B
Comment3: p
Comment4: d
Comment5: g
Comment6: 3rd party winch coax
Comment7: RE,RS,JH
~CURVE INFORMATION
#MNEM.UNIT      API CODES       CURVE DESCRIPTION
#---- ----      ---------       -----------------
DEPT .ft                          : 1 DEPTH
DEVN .ft                          : 2 DEVIATION COMPONENT NORTH
DEVE .ft                          : 3 DEVIATION COMPONENT EAST
DEVD .ft                          : 4 DEVIATION COMPONENT DOWN
AZIM .deg                         : 5 DEVIATION AZIMUTH
DEV  .deg                         : 6 DEVIATION FROM VERTICAL DOWN
~A DEPT         DEVN        DEVE        DEVD      AZIM       DEV
# ...
   18.400       0.113      -0.194      18.298    166.98      0.17
   18.450       0.113      -0.194      18.348    276.73      0.99
   18.500       0.113      -0.196      18.398    265.42      1.58
   18.550       0.113      -0.197      18.448    279.07      1.36
   18.600       0.113      -0.198      18.498    265.88      0.79
   18.650       0.113      -0.198      18.548    276.09      0.86
   18.700       0.113      -0.199      18.598    284.96      0.60
   18.750       0.113      -0.200      18.648    274.40      1.60
   18.800       0.114      -0.201      18.698    295.45      0.75
   18.850       0.114      -0.202      18.748    300.28      1.89
   18.900       0.115      -0.203      18.798    289.60      1.43
   18.950       0.115      -0.204      18.848    295.84      0.37
   19.000       0.115      -0.204      18.898    269.01      0.24
   19.050       0.115      -0.205      18.948    286.97      0.73
   19.100       0.115      -0.205      18.998    287.61      0.95
   19.150       0.116      -0.206      19.048    297.45      0.89
   19.200       0.116      -0.206      19.098      9.15      0.70
   19.250       0.117      -0.207      19.148    310.43      1.58
   19.300       0.118      -0.208      19.198    301.38      0.67
   19.350       0.118      -0.208      19.248    349.84      1.00
   19.400       0.119      -0.208      19.298    320.16      1.38
   19.450       0.120      -0.209      19.348    307.79      1.51
   19.500       0.120      -0.211      19.398    251.99      1.43
   19.550       0.121      -0.212      19.448    307.14      1.55
   19.600       0.121      -0.211      19.498     40.25      0.47
   19.650       0.121      -0.212      19.548    280.98      0.94
   19.700       0.122      -0.213      19.598    319.94      0.96
   19.750       0.122      -0.214      19.648    302.73      1.30
   19.800       0.122      -0.214      19.698    283.53      0.81
   19.850       0.123      -0.215      19.748    284.71      1.04
   19.900       0.123      -0.216      19.798    278.12      1.04
   19.950       0.123      -0.217      19.848    261.41      1.36
   20.000       0.122      -0.218      19.897    259.56      1.05
   20.050       0.123      -0.220      19.947    285.80      1.48
   20.100       0.123      -0.220      19.997    190.29      0.19
   20.150       0.123      -0.220      20.047    356.35      0.31
   20.200       0.124      -0.221      20.097    300.81      1.72
   20.250       0.124      -0.221      20.147    127.50      0.38
   20.300       0.123      -0.222      20.197    232.75      1.62
   20.350       0.122      -0.223      20.247    249.87      0.98
   20.400       0.122      -0.223      20.297    271.29      0.66
   20.450       0.123      -0.224      20.347    302.42      1.06
   20.500       0.123      -0.224      20.397     61.13      0.16
   20.550       0.124      -0.225      20.447    307.99      1.14
   20.600       0.124      -0.226      20.497    286.49      2.00
   20.650       0.124      -0.227      20.547    265.35      1.17
   20.700       0.124      -0.228      20.597    276.20      1.13
   20.750       0.124      -0.229      20.647    252.88      0.70
   20.800       0.125      -0.230      20.697    319.71      1.63
   20.850       0.126      -0.231      20.747    312.20      1.79
   20.900       0.126      -0.232      20.797    269.47      1.22
   20.950       0.126      -0.233      20.847    288.62      0.66
   21.000       0.127      -0.233      20.897    302.91      0.87
   21.050       0.126      -0.234      20.947    260.92      0.97
   21.100       0.127      -0.234      20.997    354.91      0.94
   21.150       0.128      -0.235      21.047    308.30      1.48
   21.200       0.129      -0.236      21.097    331.05      1.11
   21.250       0.130      -0.236      21.147    336.73      0.70
   21.300       0.130      -0.236      21.197    293.99      0.66
   21.350       0.130      -0.237      21.247    277.70      0.93
   21.400       0.130      -0.237      21.297    248.86      0.32
   21.450       0.131      -0.239      21.347    297.24      1.88
   21.500       0.130      -0.240      21.397    256.27      1.05
   21.550       0.131      -0.240      21.447    298.16      0.97
   21.600       0.131      -0.241      21.497    300.74      1.08
   21.650       0.131      -0.242      21.547    272.68      0.78
   21.700       0.132      -0.242      21.597    342.12      0.68
   21.750       0.133      -0.243      21.647    333.91      1.09
   21.800       0.133      -0.243      21.697    285.63      0.41
   21.850       0.134      -0.243      21.747    354.51      1.53
   21.900       0.135      -0.243      21.797     31.91      0.73
   21.950       0.135      -0.243      21.847    359.09      0.87
   22.000       0.136      -0.244      21.897    285.10      1.62
   22.050       0.136      -0.244      21.947    354.72      0.69
   22.100       0.137      -0.245      21.997    284.65      1.08
   22.150       0.136      -0.245      22.047    244.02      0.54
   22.200       0.137      -0.246      22.097    307.14      0.74
   22.250       0.136      -0.247      22.147    218.36      1.17
   22.300       0.137      -0.247      22.197    359.31      0.90
   22.350       0.137      -0.247      22.247    269.43      0.92
   22.400       0.136      -0.248      22.297    240.46      0.92
   22.450       0.137      -0.249      22.347    296.00      0.69
   22.500       0.137      -0.249      22.397    297.24      0.38
   22.550       0.138      -0.249      22.447    357.31      1.20
   22.600       0.139      -0.250      22.497    321.16      1.19
   22.650       0.139      -0.250      22.547    305.01      0.53
   22.700       0.139      -0.251      22.597    283.18      1.19
   22.750       0.139      -0.252      22.647    287.11      0.69
   22.800       0.140      -0.252      22.697    309.26      0.75
   22.850       0.140      -0.253      22.747    255.05      0.55
   22.900       0.140      -0.253      22.797    268.26      0.51
   22.950       0.140      -0.253      22.847    341.25      0.56
   23.000       0.140      -0.253      22.897    148.25      0.09
   23.050       0.140      -0.254      22.947    296.81      1.20
   23.100       0.140      -0.254      22.997    265.73      0.37
   23.150       0.141      -0.255      23.047    311.01      1.09
   23.200       0.142      -0.256      23.097    305.79      1.07
   23.250       0.142      -0.257      23.147    273.23      1.10
   23.300       0.142      -0.257      23.197    282.80      0.47
   23.350       0.142      -0.258      23.247    331.38      0.70
   23.400       0.143      -0.258      23.297    303.22      0.64
   23.450       0.143      -0.259      23.347    298.02      1.63
   23.500       0.143      -0.260      23.397    270.36      0.74
   23.550       0.144      -0.261      23.447    295.71      0.92
   23.600       0.144      -0.261      23.497    329.86      1.03
   23.650       0.145      -0.262      23.547    280.61      0.99
   23.700       0.145      -0.262      23.597    304.07      0.68
   23.750       0.145      -0.264      23.647    287.81      1.57
   23.800       0.146      -0.264      23.697      1.84      0.69
   23.850       0.146      -0.264      23.747    287.00      0.83
   23.900       0.146      -0.265      23.797    234.24      0.67
   23.950       0.146      -0.266      23.847    300.95      1.08
   24.000       0.146      -0.266      23.897    270.96      0.57
   24.050       0.146      -0.267      23.947    295.77      0.56
   24.100       0.147      -0.268      23.997    272.82      1.09
   24.150       0.147      -0.268      24.047    351.92      0.67
   24.200       0.147      -0.268      24.097    299.45      0.89
   24.250       0.148      -0.269      24.147    339.51      0.93
   24.300       0.149      -0.269      24.197    327.16      1.27
   24.350       0.149      -0.270      24.247    274.86      0.95
   24.400       0.149      -0.271      24.297    261.76      0.85
   24.450       0.149      -0.271      24.347    282.97      0.48
