~VERSION INFORMATION
VERS .     2.0     : CWLS LOG ASCII STANDARD - VERSION 2.0
WRAP .     NO      : ONE LINE PER 1 DEPTH STEPS
~WELL INFORMATION
#MNEM.UNIT       DATA                  DESCRIPTION OF MNEMONIC
#---- ----       ----                  -----------------------
STRT .ft            0.100                  :START DEPTH
STOP .ft          250.000                  :STOP DEPTH
STEP .ft            0.050                  :STEP
NULL .          -999.2500                  :NULL VALUE
COMP .     Eaton Pumps Sales & Humility    :COMPANY
WELL .                                     :WELL
FLD  .                                     :FIELD
LOC  .                                     :LOCATION
PROV .                                     :COUNTRY
SRVC .                                     :SERVICE COMPANY
DATE .     02 Nov 16                       :LOG DATE
UWI  .                                     :UNIQUE WELL ID
~OTHER INFORMATION SECTION
#-------------------------
North ref is Magnetic
Mean deviation: 0.56 to N307.40
End deviation components .....
     North: 1.494
     East : -1.954
     Down : 249.825
Azimuth of end: N307.39
Distance start-end: 2.460ft
Comment1: T
Comment2: B
Comment3: p
Comment4: d
Comment5: g
Comment6: 3rd party winch coax
Comment7: RE,RS,JH
~CURVE INFORMATION
#MNEM.UNIT      API CODES       CURVE DESCRIPTION
#---- ----      ---------       -----------------
DEPT .ft                          : 1 DEPTH
DEVN .ft                          : 2 DEVIATION COMPONENT NORTH
DEVE .ft                          : 3 DEVIATION COMPONENT EAST
DEVD .ft                          : 4 DEVIATION COMPONENT DOWN
AZIM .deg                         : 5 DEVIATION AZIMUTH
DEV  .deg                         : 6 DEVIATION FROM VERTICAL DOWN
~A DEPT         DEVN        DEVE        DEVD      AZIM       DEV
# ...
  213.600       1.429      -1.496     213.480    304.33      0.86
  213.650       1.430      -1.497     213.530    302.71      0.89
  213.700       1.430      -1.498     213.580    266.40      1.14
  213.750       1.431      -1.498     213.630    326.63      1.34
  213.800       1.431      -1.499     213.680    283.37      0.64
  213.850       1.431      -1.499     213.730    306.74      1.07
  213.900       1.432      -1.500     213.780    291.76      0.85
  213.950       1.431      -1.500     213.830    201.99      0.29
  214.000       1.432      -1.501     213.880    284.30      0.94
  214.050       1.432      -1.501     213.930    303.26      0.50
  214.100       1.432      -1.503     213.980    289.93      1.71
  214.150       1.433      -1.504     214.030    293.75      0.99
  214.200       1.433      -1.505     214.080    265.43      1.29
  214.250       1.433      -1.505     214.130    281.35      0.46
  214.300       1.432      -1.506     214.180    243.69      1.65
  214.350       1.432      -1.506     214.230    346.60      0.13
  214.400       1.432      -1.507     214.280    276.84      1.20
  214.450       1.433      -1.508     214.330    288.80      1.21
  214.500       1.433      -1.509     214.380    266.30      0.83
  214.550       1.432      -1.510     214.430    243.55      0.98
  214.600       1.433      -1.511     214.480    306.93      1.42
  214.650       1.433      -1.511     214.530    302.49      0.42
  214.700       1.433      -1.512     214.580    276.60      1.08
  214.750       1.433      -1.513     214.630    294.70      0.86
  214.800       1.433      -1.513     214.680    268.39      0.55
  214.850       1.434      -1.514     214.730    311.72      1.31
  214.900       1.434      -1.515     214.780    261.90      0.77
  214.950       1.434      -1.515     214.830    220.36      0.42
  215.000       1.434      -1.516     214.880    289.05      0.55
  215.050       1.434      -1.516     214.930    276.50      0.76
  215.100       1.434      -1.517     214.980    288.76      0.90
  215.150       1.434      -1.518     215.030    253.68      0.68
  215.200       1.434      -1.518     215.080    289.08      0.86
  215.250       1.435      -1.519     215.130    288.60      0.45
  215.300       1.435      -1.519     215.180    284.58      0.60
  215.350       1.435      -1.520     215.230    310.83      1.01
  215.400       1.435      -1.520     215.280    295.11      0.66
  215.450       1.435      -1.521     215.330    229.58      0.85
  215.500       1.435      -1.521     215.380    285.18      0.74
  215.550       1.436      -1.522     215.430    309.61      1.01
  215.600       1.436      -1.523     215.480    298.35      1.57
  215.650       1.437      -1.524     215.530    298.49      0.49
  215.700       1.436      -1.525     215.580    232.98      1.25
  215.750       1.436      -1.525     215.630    266.70      0.66
  215.800       1.436      -1.526     215.680    280.60      0.88
  215.850       1.436      -1.527     215.730    276.89      1.12
  215.900       1.436      -1.527     215.780    274.11      0.57
  215.950       1.436      -1.528     215.830    239.84      0.68
  216.000       1.436      -1.529     215.880    295.52      0.85
  216.050       1.436      -1.529     215.930    317.30      0.20
  216.100       1.437      -1.530     215.980    299.68      1.52
  216.150       1.437      -1.531     216.030    259.70      1.16
  216.200       1.436      -1.531     216.080    158.16      0.61
  216.250       1.436      -1.532     216.130    274.21      1.05
  216.300       1.437      -1.532     216.180    309.54      0.83
  216.350       1.437      -1.533     216.230    276.04      1.32
  216.400       1.437      -1.534     216.280    282.25      0.90
  216.450       1.437      -1.535     216.329    251.60      1.27
  216.500       1.437      -1.536     216.379    278.02      0.91
  216.550       1.437      -1.536     216.429    251.91      0.56
  216.600       1.437      -1.537     216.479    279.91      0.50
  216.650       1.437      -1.538     216.529    270.50      1.00
  216.700       1.437      -1.538     216.579    252.48      0.90
  216.750       1.436      -1.539     216.629    260.81      0.91
  216.800       1.437      -1.540     216.679    296.48      0.89
  216.850       1.437      -1.541     216.729    270.25      1.42
  216.900       1.437      -1.542     216.779    270.11      0.85
  216.950       1.436      -1.543     216.829    225.65      1.41
  217.000       1.436      -1.543     216.879    266.65      0.71
  217.050       1.436      -1.544     216.929    262.96      1.13
  217.100       1.436      -1.545     216.979    296.68      1.31
  217.150       1.436      -1.546     217.029    260.15      1.02
  217.200       1.436      -1.547     217.079    206.70      0.81
  217.250       1.436      -1.547     217.129    300.97      1.01
  217.300       1.436      -1.548     217.179    279.15      0.93
  217.350       1.437      -1.549     217.229    309.65      1.45
  217.400       1.437      -1.550     217.279    280.44      0.77
  217.450       1.438      -1.551     217.329    311.68      1.24
  217.500       1.438      -1.551     217.379    265.61      0.97
  217.550       1.438      -1.552     217.429    304.67      0.71
  217.600       1.439      -1.553     217.479    307.55      1.23
  217.650       1.439      -1.553     217.529    274.56      0.78
  217.700       1.438      -1.554     217.579    224.62      1.16
  217.750       1.438      -1.555     217.629    274.67      0.79
  217.800       1.438      -1.556     217.679    240.18      1.35
  217.850       1.438      -1.557     217.729    286.31      1.33
  217.900       1.437      -1.558     217.779    227.16      0.98
  217.950       1.437      -1.558     217.829    253.55      0.67
  218.000       1.438      -1.559     217.879    293.21      1.49
  218.050       1.437      -1.560     217.929    251.00      1.32
  218.100       1.438      -1.561     217.979    292.59      1.31
  218.150       1.438      -1.562     218.029    263.32      0.39
  218.200       1.438      -1.562     218.079    312.17      0.84
  218.250       1.438      -1.563     218.129    276.07      0.80
  218.300       1.438      -1.564     218.179    259.80      0.80
  218.350       1.438      -1.565     218.229    285.75      1.34
  218.400       1.438      -1.566     218.279    261.73      1.51
  218.450       1.439      -1.567     218.329    308.75      0.94
  218.500       1.438      -1.568     218.379    253.45      1.23
  218.550       1.438      -1.568     218.429    261.56      0.41
  218.600       1.439      -1.569     218.479    296.25      0.74
  218.650       1.438      -1.570     218.529    259.55      1.15
  218.700       1.438      -1.570     218.579    223.44      0.82
  218.750       1.438      -1.571     218.629    263.89      1.36
  218.800       1.438      -1.572     218.679    261.79      0.98
  218.850       1.438      -1.573     218.729    313.77      1.11
  218.900       1.438      -1.574     218.779    251.96      1.41
  218.950       1.438      -1.575     218.829    290.71      0.42
  219.000       1.438      -1.576     218.879    250.28      1.51
  219.050       1.437      -1.576     218.929    165.88      0.24
  219.100       1.437      -1.577     218.979    270.66      1.38
  219.150       1.438      -1.577     219.029    280.59      0.63
  219.200       1.438      -1.578     219.079    275.81      0.94
  219.250       1.437      -1.580     219.129    243.29      1.94
  219.300       1.437      -1.580     219.179    258.45      0.42
  219.350       1.437      -1.581     219.229    309.35      0.63
  219.400       1.437      -1.581     219.279    253.61      1.03
  219.450       1.437      -1.582     219.329    306.78      0.40
  219.500       1.437      -1.583     219.379    265.29      1.38
  219.550       1.437      -1.583     219.429    243.69      0.68
  219.600       1.437      -1.584     219.479    291.02      1.20
  219.650       1.437      -1.585     219.529    277.41      0.82
