#Written by Robertson Geologging WinLogger V1.5/498
~VERSION INFORMATION
#------------------------------------------------------------------------------
 VERS. 2.0 : CWLS LOG ASCII STANDARD - VERSION 2.0
 WRAP. NO  : ONE LINE PER DEPTH STEP
~WELL INFORMATION
#MNEM.UNIT         DATA                                DESCRIPTION OF MNEMONIC
#------------------------------------------------------------------------------
 STRT.FT         0.1000                            :   START DEPTH
 STOP.FT       250.0000                            :   STOP DEPTH
 STEP.FT         0.0500                            :   STEP VALUE
 NULL.        -999.2500                            :   NULL VALUE
 COMP.    Eaton Pumps Sales & Humility             :   COMPANY NAME
 WELL.    N/A                                      :   WELL NAME
 FLD.     N/A                                      :   FIELD NAME
 LOC.     N/A                                      :   LOCATION
 PROV.    N/A                                      :   PROVINCE
 SRVC.    N/A                                      :   SERVICE COMPANY NAME
 DATE.    02 Nov 16                                :   DATE
 UWI.     N/A                                      :   UNIQUE WELL IDENTIFIER
~PARAMETER INFORMATION
#MNEMO.UNIT         VALUE                 DESCRIPTION OF MNEMONIC
#------------------------------------------------------------------------------
~OTHER INFORMATION SECTION
#------------------------------------------------------------------------------
 T=45
 B=125k
 p=25
 d=15
 g=0
 3rd party winch coax
 RE,RS,JH
~CURVE INFORMATION
#MNEMO.UNIT         API CODE              CURVE DESCRIPTION
#------------------------------------------------------------------------------
 DEPTH.FT                                :   0     Depth
 TIME.SEC                                :   1     Time
 INCL.DEG                                :   2     Borehole Inclination
 RB.DEG                                  :   3     Relative Bearing
 GR_S.CPS                                :   4     Gyro Resolver Sine
 GAZM.DEG                                :   5     Gyro Borehole Azimuth
 NGAM.CPS                                :   6     Natural Gamma
 GR_C.CPS                                :   7     Gyro Resolver Cosine
 GTF.Deg                                 :   8     Gyro Tool Face
 GTOT.CPS                                :   9     Total G Field
#------------------------------------------------------------------------------
~A  DEPTH     TIME          INCL            RB          GR_S          GAZM          NGAM          GR_C           GTF          GTOT
# ...
   55.900  241.248         0.892        74.333     -1019.909       259.089        31.727      2038.727       333.422         0.998
   55.950  241.449         0.837        46.581     -1015.636       286.965        29.673      2041.091       333.545         0.998
   56.000  241.660         0.850        50.958     -1012.727       282.684        28.912      2043.909       333.642         0.999
   56.050  241.862         0.837        52.690     -1008.909       281.068        27.026      2046.636       333.758         0.998
   56.100  242.063         0.857        51.813     -1005.000       282.056        27.081      2048.636       333.868         0.997
   56.150  242.268         0.845        51.204     -1001.273       282.787        26.986      2052.182       333.992         0.997
   56.200  242.465         0.828        50.023      -997.636       284.075        25.821      2054.364       334.098         0.995
   56.250  242.672         0.809        57.586      -994.364       276.610        25.821      2056.636       334.196         0.996
   56.300  242.870         0.792        88.545      -990.727       278.483        26.708      2058.727       334.301         0.997
   56.350  243.076         0.737       117.010      -986.545       282.904        26.847      2064.727       334.459         0.997
   56.400  243.276         0.711       117.397      -982.182       282.646        26.847      2067.545       334.589         0.997
   56.450  243.483         0.785        97.778      -980.091       302.383        27.291      2074.182       334.706         0.996
   56.500  243.689         0.828        98.143      -977.636       302.101        29.178      2076.727       334.789         0.997
   56.550  243.891         0.812        98.796      -973.909       301.548        28.290      2078.273       334.890         0.997
   56.600  244.100         0.811       102.724      -971.455       297.697        28.623      2080.182       334.966         0.997
   56.650  244.294         0.732       133.031      -968.455       300.212        28.623      2082.818       335.062         0.998
   56.700  244.502         0.736       133.408      -965.182       299.922        26.986      2083.909       335.148         0.998
   56.750  244.699         0.730       134.269      -962.545       299.136        27.430      2085.455       335.224         0.999
   56.800  244.905         0.833       129.496      -959.818       303.985        27.874      2086.727       335.299         0.999
   56.850  245.101         0.845       101.354      -957.545       299.465        29.717      2088.000       335.364         0.998
   56.900  245.309         0.844        74.371      -955.727       293.731        32.048      2085.091       335.375         0.998
   56.950  245.515         0.898        71.427      -954.818       296.713        32.408      2086.636       335.412         0.999
   57.000  245.713         0.797        76.884      -951.000       291.309        31.964      2083.455       335.466         0.998
   57.050  245.924         0.761        80.913      -948.545       287.341        33.546      2084.000       335.527         0.998
   57.100  246.122         0.739        79.596      -946.455       288.720        33.990      2085.273       335.588         0.998
   57.150  246.331         0.746        72.029      -943.909       296.359        32.630      2086.636       335.660         0.998
   57.200  246.531         0.785        70.179      -941.545       298.267        32.186      2087.091       335.718         0.998
   57.250  246.738         0.797        99.570      -939.818       301.659        30.771      2088.727       335.775         0.999
   57.300  246.943         0.760        99.183      -937.545       302.109        31.659      2089.818       335.838         0.998
   57.350  247.145         0.692       124.062      -935.818       277.286        29.440      2091.364       335.893         0.998
   57.400  247.353         0.671       124.136      -933.455       277.289        28.524      2093.727       335.971         0.999
   57.450  247.551         0.674       127.057      -930.545       274.457        29.523      2095.909       336.059         0.998
   57.500  247.758         0.610       127.380      -927.636       274.216        29.883      2097.545       336.142         0.998
   57.550  247.960         0.622       147.423      -926.091       254.229        31.342      2099.455       336.197         0.999
   57.600  248.164         0.687       144.846      -923.455       256.878        31.647      2100.727       336.270         0.998
   57.650  248.366         0.704       145.856      -920.909       255.943        33.673      2102.364       336.345         0.999
   57.700  248.567         0.706       154.175      -919.000       247.684        32.781      2104.000       336.405         0.998
   57.750  248.779         0.743       127.434      -917.364       241.755        30.034      2106.000       336.462         0.999
   57.800  248.973         0.696       101.488      -916.545       235.001        31.449      2106.818       336.489         0.998
   57.850  249.178         0.715       102.277      -915.273       234.252        32.337      2107.818       336.528         0.998
   57.900  249.377         0.715        78.346      -913.727       258.229        30.312      2109.000       336.575         0.996
   57.950  249.582         0.738        81.013      -912.545       255.590        29.729      2109.091       336.603         0.996
   58.000  249.777         0.749        75.900      -911.636       260.731        30.645      2109.727       336.630         0.997
   58.050  249.979         0.780        73.518      -909.273       263.166        29.313      2109.727       336.685         0.996
   58.100  250.180         0.860        48.430      -907.000       288.315        29.729      2110.545       336.745         0.996
   58.150  250.378         0.799        48.178      -905.000       288.628        28.397      2112.182       336.807         0.997
   58.200  250.586         0.802        53.814      -903.182       283.046        27.953      2113.364       336.860         0.995
   58.250  250.781         0.813        48.568      -900.909       288.355        29.313      2114.545       336.923         0.997
   58.300  250.982         0.771        47.260      -898.727       289.726        29.391      2115.818       336.986         0.995
   58.350  251.182         0.814        72.944      -895.455       296.881        29.474      2119.727       337.098         0.998
   58.400  251.384         0.797        72.556      -892.455       297.357        29.347      2121.727       337.186         0.997
   58.450  251.585         0.798        70.862      -889.182       299.141        29.486      2123.182       337.275         1.000
   58.500  251.787         0.752        70.801      -885.818       299.303        27.017      2125.636       337.376         0.999
   58.550  251.991         0.714        72.948      -882.182       297.256        25.938      2127.364       337.477         0.999
   58.600  252.193         0.712        74.905      -879.364       295.389        28.241      2130.091       337.567         1.000
   58.650  252.402         0.634        74.588      -875.818       295.806        27.354      2131.909       337.666         0.998
   58.700  252.608         0.693        77.107      -872.364       293.380        26.466      2133.364       337.760         0.998
   58.750  252.811         0.686        67.343      -869.182       303.231        27.243      2134.909       337.848         0.998
   58.800  253.016         0.665        66.051      -866.182       304.604        25.606      2136.091       337.928         0.998
   58.850  253.221         0.688        69.271      -862.909       301.473        26.355      2137.545       338.017         0.997
   58.900  253.424         0.683        55.187      -860.182       282.882        26.355      2136.455       338.069         0.997
   58.950  253.630         0.675        85.432      -857.455       285.437        25.578      2137.545       338.142         0.997
