~VERSION INFORMATION
VERS .     2.0     : CWLS LOG ASCII STANDARD - VERSION 2.0
WRAP .     NO      : ONE LINE PER 1 DEPTH STEPS
~WELL INFORMATION
#MNEM.UNIT       DATA                  DESCRIPTION OF MNEMONIC
#---- ----       ----                  -----------------------
STRT .ft            0.100                  :START DEPTH
STOP .ft          250.000                  :STOP DEPTH
STEP .ft            0.050                  :STEP
NULL .          -999.2500                  :NULL VALUE
COMP .     Eaton Pumps Sales & Humility    :COMPANY
WELL .                                     :WELL
FLD  .                                     :FIELD
LOC  .                                     :LOCATION
PROV .                                     :COUNTRY
SRVC .                                     :SERVICE COMPANY
DATE .     02 Nov 16                       :LOG DATE
UWI  .                                     :UNIQUE WELL ID
~OTHER INFORMATION SECTION
#-------------------------
North ref is Magnetic
Mean deviation: 0.56 to N307.40
End deviation components .....
     North: 1.494
     East : -1.954
     Down : 249.825
Azimuth of end: N307.39
Distance start-end: 2.460ft
Comment1: T
Comment2: B
Comment3: p
Comment4: d
Comment5: g
Comment6: 3rd party winch coax
Comment7: RE,RS,JH
~CURVE INFORMATION
#MNEM.UNIT      API CODES       CURVE DESCRIPTION
#---- ----      ---------       -----------------
DEPT .ft                          : 1 DEPTH
DEVN .ft                          : 2 DEVIATION COMPONENT NORTH
DEVE .ft                          : 3 DEVIATION COMPONENT EAST
DEVD .ft                          : 4 DEVIATION COMPONENT DOWN
AZIM .deg                         : 5 DEVIATION AZIMUTH
DEV  .deg                         : 6 DEVIATION FROM VERTICAL DOWN
~A DEPT         DEVN        DEVE        DEVD      AZIM       DEV
# ...
  177.000       1.354      -1.127     176.884    298.38      1.16
  177.050       1.354      -1.127     176.934    272.72      1.03
  177.100       1.355      -1.128     176.984    307.70      0.83
  177.150       1.355      -1.128     177.034    217.74      0.28
  177.200       1.354      -1.129     177.084    239.07      0.57
  177.250       1.355      -1.129     177.134    283.00      0.92
  177.300       1.354      -1.130     177.184    230.44      0.32
  177.350       1.355      -1.131     177.234    282.39      1.11
  177.400       1.355      -1.131     177.284    306.65      0.87
  177.450       1.355      -1.132     177.334    265.57      0.77
  177.500       1.355      -1.132     177.384    306.95      0.90
  177.550       1.356      -1.132     177.434    354.38      0.32
  177.600       1.356      -1.133     177.484    292.79      0.48
  177.650       1.356      -1.133     177.534    123.12      0.11
  177.700       1.356      -1.133     177.584    239.63      0.16
  177.750       1.356      -1.133     177.634    101.21      0.43
  177.800       1.356      -1.133     177.684    268.46      0.14
  177.850       1.356      -1.133     177.734    350.52      0.32
  177.900       1.356      -1.133     177.784    307.62      0.71
  177.950       1.357      -1.134     177.834    294.83      1.10
  178.000       1.357      -1.135     177.884    305.37      0.90
  178.050       1.357      -1.136     177.934    279.54      0.99
  178.100       1.358      -1.136     177.984    330.77      0.44
  178.150       1.358      -1.136     178.034    274.74      0.16
  178.200       1.357      -1.136     178.084    229.45      0.43
  178.250       1.358      -1.137     178.134    304.74      0.45
  178.300       1.357      -1.137     178.184    234.98      0.64
  178.350       1.357      -1.138     178.234    260.46      0.66
  178.400       1.358      -1.138     178.284    324.46      1.25
  178.450       1.358      -1.138     178.334    299.02      0.11
  178.500       1.358      -1.138     178.384     27.12      0.13
  178.550       1.358      -1.139     178.434    271.23      0.48
  178.600       1.359      -1.139     178.484    300.08      0.84
  178.650       1.359      -1.140     178.534    320.84      0.77
  178.700       1.360      -1.140     178.584    337.68      0.53
  178.750       1.360      -1.141     178.634    305.46      1.16
  178.800       1.360      -1.141     178.684    303.67      0.17
  178.850       1.361      -1.142     178.734    322.74      1.33
  178.900       1.362      -1.142     178.784    358.19      0.56
  178.950       1.362      -1.142     178.834    309.13      0.84
  179.000       1.362      -1.143     178.884    300.34      0.64
  179.050       1.362      -1.143     178.934    247.84      0.97
  179.100       1.362      -1.144     178.984    295.10      0.68
  179.150       1.363      -1.144     179.034    330.82      1.29
  179.200       1.363      -1.145     179.084    232.39      0.48
  179.250       1.364      -1.146     179.134    311.39      1.58
  179.300       1.364      -1.146     179.184    289.42      0.26
  179.350       1.364      -1.146     179.234    236.37      0.54
  179.400       1.365      -1.148     179.284    301.96      1.51
  179.450       1.365      -1.148     179.334    301.27      0.13
  179.500       1.366      -1.148     179.384    353.11      1.26
  179.550       1.366      -1.148     179.434    333.67      0.16
  179.600       1.366      -1.148     179.484    264.42      0.62
  179.650       1.366      -1.149     179.534    303.18      0.68
  179.700       1.366      -1.149     179.584    261.66      0.38
  179.750       1.366      -1.149     179.634    355.61      0.36
  179.800       1.367      -1.150     179.684    280.77      1.22
  179.850       1.367      -1.151     179.734    310.67      0.46
  179.900       1.367      -1.151     179.784    314.57      0.98
  179.950       1.368      -1.152     179.834    283.90      0.79
  180.000       1.368      -1.153     179.884    313.22      1.03
  180.050       1.368      -1.153     179.934    251.86      0.37
  180.100       1.369      -1.154     179.984    318.32      1.60
  180.150       1.369      -1.154     180.034    233.22      0.64
  180.200       1.369      -1.155     180.084    279.00      0.64
  180.250       1.369      -1.156     180.134    301.17      1.22
  180.300       1.369      -1.156     180.184    207.86      0.45
  180.350       1.370      -1.156     180.234    323.61      1.08
  180.400       1.370      -1.157     180.284    283.17      0.28
  180.450       1.370      -1.157     180.334    266.92      0.10
  180.500       1.370      -1.157     180.384    282.89      0.50
  180.550       1.370      -1.158     180.434    259.48      0.47
  180.600       1.370      -1.158     180.484    318.30      0.60
  180.650       1.370      -1.158     180.534    200.05      0.60
  180.700       1.370      -1.159     180.584    271.06      0.80
  180.750       1.370      -1.159     180.634    250.82      0.12
  180.800       1.370      -1.159     180.684    285.42      0.74
  180.850       1.370      -1.160     180.734    250.16      0.21
  180.900       1.370      -1.160     180.784    296.94      0.66
  180.950       1.369      -1.161     180.834    223.61      1.55
  181.000       1.369      -1.162     180.884    286.70      0.89
  181.050       1.369      -1.163     180.934    251.40      1.07
  181.100       1.368      -1.163     180.984    188.44      1.54
  181.150       1.367      -1.163     181.034    162.10      0.70
  181.200       1.366      -1.164     181.084    229.35      1.31
  181.250       1.366      -1.163     181.134     84.97      0.24
  181.300       1.367      -1.163     181.184      3.77      0.42
  181.350       1.367      -1.165     181.234    288.75      1.43
  181.400       1.367      -1.165     181.284    212.30      0.61
  181.450       1.367      -1.165     181.334    232.53      0.18
  181.500       1.367      -1.166     181.384    302.96      1.60
  181.550       1.367      -1.166     181.434    181.26      0.31
  181.600       1.367      -1.166     181.484    200.89      0.22
  181.650       1.367      -1.167     181.534    323.13      0.66
  181.700       1.367      -1.167     181.584    230.67      0.06
  181.750       1.368      -1.167     181.634    319.56      1.03
  181.800       1.368      -1.168     181.684    229.23      0.51
  181.850       1.368      -1.168     181.734    266.29      0.66
  181.900       1.368      -1.168     181.784    320.96      0.50
  181.950       1.368      -1.168     181.834     59.21      0.52
  182.000       1.368      -1.168     181.884    126.03      0.27
  182.050       1.369      -1.169     181.934    304.62      1.02
  182.100       1.368      -1.169     181.984    181.47      1.02
  182.150       1.368      -1.169     182.034    304.50      1.30
  182.200       1.368      -1.170     182.084    247.49      0.93
  182.250       1.368      -1.170     182.134    331.23      0.24
  182.300       1.368      -1.170     182.184     12.20      0.16
  182.350       1.368      -1.171     182.234    232.43      0.42
  182.400       1.368      -1.170     182.284    146.87      0.50
  182.450       1.368      -1.170     182.334    165.46      0.02
  182.500       1.368      -1.171     182.384    333.90      0.78
  182.550       1.368      -1.171     182.434    170.26      0.32
  182.600       1.369      -1.170     182.484     16.30      0.97
  182.650       1.369      -1.171     182.534    282.72      0.50
  182.700       1.370      -1.171     182.584    332.95      1.42
  182.750       1.370      -1.171     182.634    171.02      0.32
  182.800       1.370      -1.172     182.684    321.05      0.77
  182.850       1.371      -1.171     182.734     77.58      0.34
  182.900       1.370      -1.171     182.784    152.64      0.57
  182.950       1.370      -1.172     182.834    263.70      0.52
  183.000       1.371      -1.172     182.884    345.94      0.92
  183.050       1.371      -1.172     182.934     39.45      0.16
