#Written by Robertson Geologging WinLogger V1.5/498
~VERSION INFORMATION
#------------------------------------------------------------------------------
 VERS. 2.0 : CWLS LOG ASCII STANDARD - VERSION 2.0
 WRAP. NO  : ONE LINE PER DEPTH STEP
~WELL INFORMATION
#MNEM.UNIT         DATA                                DESCRIPTION OF MNEMONIC
#------------------------------------------------------------------------------
 STRT.FT         0.1000                            :   START DEPTH
 STOP.FT       250.0000                            :   STOP DEPTH
 STEP.FT         0.0500                            :   STEP VALUE
 NULL.        -999.2500                            :   NULL VALUE
 COMP.    Eaton Pumps Sales & Humility             :   COMPANY NAME
 WELL.    N/A                                      :   WELL NAME
 FLD.     N/A                                      :   FIELD NAME
 LOC.     N/A                                      :   LOCATION
 PROV.    N/A                                      :   PROVINCE
 SRVC.    N/A                                      :   SERVICE COMPANY NAME
 DATE.    02 Nov 16                                :   DATE
 UWI.     N/A                                      :   UNIQUE WELL IDENTIFIER
~PARAMETER INFORMATION
#MNEMO.UNIT         VALUE                 DESCRIPTION OF MNEMONIC
#------------------------------------------------------------------------------
~OTHER INFORMATION SECTION
#------------------------------------------------------------------------------
 T=45
 B=125k
 p=25
 d=15
 g=0
 3rd party winch coax
 RE,RS,JH
~CURVE INFORMATION
#MNEMO.UNIT         API CODE              CURVE DESCRIPTION
#------------------------------------------------------------------------------
 DEPTH.FT                                :   0     Depth
 TIME.SEC                                :   1     Time
 INCL.DEG                                :   2     Borehole Inclination
 RB.DEG                                  :   3     Relative Bearing
 GR_S.CPS                                :   4     Gyro Resolver Sine
 GAZM.DEG                                :   5     Gyro Borehole Azimuth
 NGAM.CPS                                :   6     Natural Gamma
 GR_C.CPS                                :   7     Gyro Resolver Cosine
 GTF.Deg                                 :   8     Gyro Tool Face
 GTOT.CPS                                :   9     Total G Field
#------------------------------------------------------------------------------
~A  DEPTH     TIME          INCL            RB          GR_S          GAZM          NGAM          GR_C           GTF          GTOT
# ...
  183.000  760.326         0.661       299.039     -1002.000       266.945        17.011     -2055.909       205.984         1.000
  183.050  760.527         0.640       295.211     -1003.364       270.821        18.186     -2054.364       206.031         0.999
  183.100  760.744         0.629       284.068     -1005.909       249.307        19.434     -2053.091       206.103         0.999
  183.150  760.952         0.555       283.148     -1009.000       250.322        18.577     -2050.909       206.197         0.998
  183.200  761.162         0.517       280.810     -1012.364       252.768        17.925     -2047.909       206.306         0.998
  183.250  761.384         0.502       287.489     -1015.909       246.201        18.341     -2045.091       206.417         1.001
  183.300  761.585         0.519       287.563     -1020.455       246.266        18.729     -2041.727       206.557         1.001
  183.350  761.800         0.588       280.536     -1025.455       253.450        19.904     -2037.727       206.714         1.001
  183.400  762.011         0.579       273.440     -1030.364       260.702        19.904     -2033.727       206.869         1.002
  183.450  762.220         0.578       273.883     -1035.727       260.424        21.569     -2029.818       207.034         1.001
  183.500  762.426         0.596       270.133     -1040.818       264.327        21.251     -2026.455       207.186         1.003
  183.550  762.645         0.616       269.518     -1045.636       265.092        20.418     -2022.727       207.337         1.001
  183.600  762.857         0.640       270.859     -1051.091       263.914        21.080     -2019.182       207.500         1.002
  183.650  763.063         0.607       262.210     -1055.545       272.712        21.551     -2014.909       207.649         1.002
  183.700  763.286         0.640       260.071     -1060.636       275.002        22.726     -2011.727       207.800         1.002
  183.750  763.490         0.637       263.954     -1065.545       271.260        21.478     -2009.000       207.941         1.003
  183.800  763.706         0.612       236.851     -1071.909       265.770        21.478     -2009.545       208.075         0.999
  183.850  763.923         0.548       232.198     -1075.909       270.502        19.841     -2010.273       208.155         1.001
  183.900  764.141         0.464       230.697     -1079.545       272.113        19.498     -2007.909       208.264         1.000
  183.950  764.349         0.458       236.522     -1083.091       266.407        19.498     -2004.545       208.383         1.000
  184.000  764.571         0.503       231.245     -1086.818       271.810        20.771     -2000.909       208.510         1.000
  184.050  764.788         0.557       230.137     -1091.818       273.071        20.037     -1997.455       208.662         0.999
  184.100  764.994         0.595       237.196     -1096.545       266.162        20.869     -1993.727       208.813         1.000
  184.150  765.219         0.636       235.860     -1101.818       267.661        22.118     -1989.909       208.976         1.000
  184.200  765.429         0.633       259.690     -1107.364       276.731        21.334     -1985.909       209.148         1.000
  184.250  765.644         0.589       263.857     -1113.091       272.745        22.167     -1981.455       209.329         0.999
  184.300  765.860         0.642       261.877     -1118.273       274.895        20.918     -1977.000       209.499         0.998
  184.350  766.076         0.646       292.987     -1122.455       276.714        22.167     -1968.000       209.702         0.999
  184.400  766.282         0.726       294.179     -1128.455       275.766        21.750     -1959.000       209.945         0.998
  184.450  766.504         0.792       297.925     -1134.545       272.214        20.340     -1954.182       210.139         0.998
  184.500  766.715         0.806       299.182     -1140.182       271.134        19.868     -1950.000       210.316         0.997
  184.550  766.928         0.795       298.605     -1145.364       271.865        19.134     -1946.818       210.470         0.997
  184.600  767.148         0.719       293.640     -1149.273       276.955        20.022     -1943.727       210.595         0.996
  184.650  767.358         0.669       291.950     -1153.636       278.780        20.487     -1940.727       210.729         0.997
  184.700  767.572         0.603       276.127     -1157.727       262.000        20.875     -1938.000       210.853         0.996
  184.750  767.791         0.593       274.241     -1161.182       263.990        21.218     -1935.727       210.958         0.997
  184.800  767.999         0.580       254.143     -1164.455       251.457        21.218     -1933.818       211.054         0.999
  184.850  768.204         0.509       255.576     -1167.818       250.135        20.441     -1930.909       211.166         0.998
  184.900  768.427         0.509       244.723     -1169.727       261.050        21.274     -1929.364       211.227         0.998
  184.950  768.636         0.473       242.487     -1171.818       263.344        22.106     -1928.455       211.285         0.998
  185.000  768.846         0.494       243.620     -1173.727       262.269        21.690     -1927.182       211.343         0.999
  185.050  769.060         0.505       240.062     -1175.545       265.887        22.180     -1925.636       211.403         1.000
  185.100  769.268         0.514       242.628     -1177.818       263.394        21.347     -1923.818       211.476         1.000
  185.150  769.476         0.525       244.864     -1180.364       261.248        20.986     -1921.182       211.567         1.000
  185.200  769.686         0.496       246.592     -1183.545       259.606        20.570     -1919.909       211.652         0.998
  185.250  769.896         0.525       269.726     -1185.182       269.271        22.235     -1917.182       211.724         1.000
  185.300  770.097         0.551       263.892     -1187.455       275.188        21.736     -1914.636       211.807         0.998
  185.350  770.316         0.571       284.533     -1189.364       287.348        22.207     -1912.182       211.882         0.997
  185.400  770.521         0.618       285.347     -1192.091       286.620        23.040     -1910.182       211.967         0.998
  185.450  770.724         0.702       287.830     -1196.091       284.251        23.484     -1908.182       212.080         0.996
  185.500  770.940         0.648       288.729     -1199.455       283.468        22.627     -1904.909       212.197         0.997
  185.550  771.141         0.561       280.434     -1202.455       259.130        24.292     -1902.727       212.291         0.996
  185.600  771.351         0.523       283.664     -1206.455       256.026        24.892     -1899.818       212.417         0.996
  185.650  771.561         0.510       281.930     -1210.364       257.893        24.476     -1896.273       212.550         0.996
  185.700  771.766         0.539       282.947     -1213.727       256.989        26.502     -1893.273       212.663         0.996
  185.750  771.973         0.573       277.349     -1216.818       262.711        26.085     -1889.091       212.787         0.996
  185.800  772.184         0.640       270.578     -1220.909       269.621        25.336     -1885.364       212.927         0.996
  185.850  772.390         0.615       270.820     -1225.455       269.524        25.630     -1882.000       213.071         0.998
  185.900  772.594         0.677       262.974     -1229.273       277.502        25.630     -1878.364       213.203         0.995
  185.950  772.804         0.668       254.213     -1232.636       286.386        24.853     -1874.727       213.326         0.997
  186.000  773.007         0.630       255.730     -1235.818       284.992        26.316     -1870.818       213.449         0.997
  186.050  773.218         0.679       255.716     -1238.727       285.111        24.235     -1867.727       213.554         0.997
