#Written by Robertson Geologging WinLogger V1.5/498
~VERSION INFORMATION
#------------------------------------------------------------------------------
 VERS. 2.0 : CWLS LOG ASCII STANDARD - VERSION 2.0
 WRAP. NO  : ONE LINE PER DEPTH STEP
~WELL INFORMATION
#MNEM.UNIT         DATA                                DESCRIPTION OF MNEMONIC
#------------------------------------------------------------------------------
 STRT.FT         0.1000                            :   START DEPTH
 STOP.FT       250.0000                            :   STOP DEPTH
 STEP.FT         0.0500                            :   STEP VALUE
 NULL.        -999.2500                            :   NULL VALUE
 COMP.    Eaton Pumps Sales & Humility             :   COMPANY NAME
 WELL.    N/A                                      :   WELL NAME
 FLD.     N/A                                      :   FIELD NAME
 LOC.     N/A                                      :   LOCATION
 PROV.    N/A                                      :   PROVINCE
 SRVC.    N/A                                      :   SERVICE COMPANY NAME
 DATE.    02 Nov 16                                :   DATE
 UWI.     N/A                                      :   UNIQUE WELL IDENTIFIER
~PARAMETER INFORMATION
#MNEMO.UNIT         VALUE                 DESCRIPTION OF MNEMONIC
#------------------------------------------------------------------------------
~OTHER INFORMATION SECTION
#------------------------------------------------------------------------------
 T=45
 B=125k
 p=25
 d=15
 g=0
 3rd party winch coax
 RE,RS,JH
~CURVE INFORMATION
#MNEMO.UNIT         API CODE              CURVE DESCRIPTION
#------------------------------------------------------------------------------
 DEPTH.FT                                :   0     Depth
 TIME.SEC                                :   1     Time
 INCL.DEG                                :   2     Borehole Inclination
 RB.DEG                                  :   3     Relative Bearing
 GR_S.CPS                                :   4     Gyro Resolver Sine
 GAZM.DEG                                :   5     Gyro Borehole Azimuth
 NGAM.CPS                                :   6     Natural Gamma
 GR_C.CPS                                :   7     Gyro Resolver Cosine
 GTF.Deg                                 :   8     Gyro Tool Face
 GTOT.CPS                                :   9     Total G Field
#------------------------------------------------------------------------------
~A  DEPTH     TIME          INCL            RB          GR_S          GAZM          NGAM          GR_C           GTF          GTOT
# ...
   37.300  165.624         0.720       189.456     -1841.909       271.778        21.861       962.818       297.598         0.999
   37.350  165.824         0.692       163.449     -1843.909       264.970        22.158       960.273       297.510         0.998
   37.400  166.024         0.699       164.721     -1844.545       263.690        22.269       960.273       297.502         0.999
   37.450  166.226         0.754       165.101     -1845.182       263.272        21.492       959.091       297.465         0.998
   37.500  166.421         0.814       192.330     -1845.000       268.744        22.213       957.909       297.438         0.999
   37.550  166.628         0.803       211.052     -1845.091       282.711        24.651       956.364       297.399         0.999
   37.600  166.820         0.794       183.386     -1844.909       277.611        25.400       954.727       297.361         0.999
   37.650  167.023         0.776       184.664     -1844.727       276.322        24.956       954.182       297.350         0.999
   37.700  167.223         0.708       184.594     -1844.273       276.367        25.844       952.909       297.325         0.998
   37.750  167.428         0.763       165.707     -1845.182       295.224        27.676       952.182       297.295         1.000
   37.800  167.628         0.793       193.294     -1845.545       300.336        27.232       951.182       297.266         1.001
   37.850  167.829         0.822       217.337     -1845.364       309.011        27.121       950.727       297.257         1.000
   37.900  168.034         0.792       217.505     -1844.818       308.819        27.204       949.455       297.233         1.001
   37.950  168.233         0.797       217.711     -1845.455       308.540        27.648       946.818       297.160         1.000
   38.000  168.444         0.773       189.654     -1845.364       303.835        27.759       945.364       297.126         1.001
   38.050  168.644         0.756       162.225     -1845.182       298.503        28.520       943.909       297.092         1.000
   38.100  168.860         0.767       163.327     -1846.636       297.366        29.352       943.182       297.056         1.001
   38.150  169.063         0.814       162.799     -1846.545       297.875        31.128       942.364       297.037         1.000
   38.200  169.270         0.840       159.309     -1846.091       301.341        32.543       941.182       297.014         1.001
   38.250  169.477         0.838       153.496     -1845.182       274.411        35.346       940.091       296.998         1.002
   38.300  169.683         0.795       176.000     -1843.455       251.890        36.678       938.545       296.982         0.999
   38.350  169.890         0.833       149.608     -1843.000       245.530        34.180       937.273       296.956         0.999
   38.400  170.092         0.866       121.160     -1842.636       241.203        32.658       935.182       296.909         1.000
   38.450  170.301         0.918       122.592     -1842.818       239.722        31.465       933.273       296.859         0.999
   38.500  170.502         0.876       151.951     -1842.000       243.049        31.853       931.182       296.818         1.000
   38.550  170.711         0.895       150.914     -1841.455       244.034        31.853       928.818       296.766         0.998
   38.600  170.919         0.973       181.759     -1844.636       245.856        31.853       928.000       296.706         0.997
   38.650  171.121         1.065       182.857     -1843.909       244.709        30.966       925.636       296.657         0.998
   38.700  171.321         1.069       210.814     -1844.455       249.418        30.133       923.455       296.596         0.997
   38.750  171.524         1.031       213.453     -1843.455       246.733        30.577       921.091       296.550         0.997
   38.800  171.728         1.052       219.136     -1843.545       273.733        29.245       919.364       296.505         0.996
   38.850  171.926         1.110       198.166     -1844.636       294.649        28.302       917.727       296.451         0.996
   38.900  172.133         1.048       225.688     -1844.273       299.815        27.719       916.000       296.412         0.996
   38.950  172.331         0.980       251.829     -1844.636       273.632        27.358       914.455       296.369         0.995
   39.000  172.538         1.009       276.181     -1844.636       281.975        26.915       913.182       296.338         0.997
   39.050  172.745         1.001       244.597     -1844.727       280.796        27.802       911.818       296.302         0.996
   39.100  172.945         0.979       242.746     -1846.455       282.635        24.556       912.182       296.290         0.997
   39.150  173.151         0.906       243.970     -1844.000       281.405        25.666       910.727       296.284         0.997
   39.200  173.353         0.808       213.051     -1846.000       279.570        26.110       910.636       296.258         0.997
   39.250  173.562         0.840       213.597     -1847.091       279.010        26.110       910.636       296.244         0.997
   39.300  173.761         0.881       210.868     -1849.091       281.713        27.442       910.545       296.217         0.997
   39.350  173.964         0.905       209.548     -1851.909       282.996        29.107       910.455       296.180         0.997
   39.400  174.172         0.936       209.236     -1853.818       283.267        27.362       909.727       296.139         0.998
   39.450  174.369         0.981       208.541     -1856.000       283.928        26.475       909.455       296.105         0.998
   39.500  174.577         1.029       213.763     -1856.909       311.415        26.919       909.182       296.088         0.998
   39.550  174.773         1.010       217.699     -1858.636       307.470        28.167       909.636       296.078         0.997
   39.600  174.982         1.034       219.700     -1860.273       305.463        30.387       910.182       296.071         0.997
   39.650  175.178         1.014       219.478     -1860.000       305.661        32.163       909.091       296.048         0.997
   39.700  175.387         0.998       219.391     -1860.545       305.709        33.106       907.818       296.009         0.997
   39.750  175.584         1.013       249.452     -1860.000       308.355        32.357       906.727       295.989         0.997
   39.800  175.789         0.999       220.369     -1860.273       304.671        31.469       905.273       295.949         0.997
   39.850  175.995         0.968       192.069     -1860.818       300.188        32.357       903.273       295.893         0.996
   39.900  176.193         0.948       193.520     -1861.091       298.676        29.757       901.000       295.833         0.996
   39.950  176.402         0.857       221.402     -1861.273       303.467        30.506       898.909       295.778         0.996
   40.000  176.598         0.832       222.191     -1861.818       302.620        27.620       896.818       295.720         0.995
   40.050  176.806         0.855       219.413     -1862.727       305.325        29.840       894.364       295.647         0.996
   40.100  177.005         0.904       217.921     -1863.545       306.730        30.284       891.273       295.560         0.997
   40.150  177.214         0.881       244.849     -1864.091       312.445        29.840       888.182       295.476         0.997
   40.200  177.412         0.885       272.890     -1865.545       317.046        28.674       885.455       295.391         0.997
   40.250  177.617         0.913       269.601     -1867.727       320.237        31.112       882.545       295.292         0.998
   40.300  177.822         0.939       269.153     -1868.636       320.591        30.668       879.273       295.199         0.996
   40.350  178.019         0.863       269.631     -1869.636       320.014        31.556       875.818       295.100         0.997
