~VERSION INFORMATION
VERS .     2.0     : CWLS LOG ASCII STANDARD - VERSION 2.0
WRAP .     NO      : ONE LINE PER 1 DEPTH STEPS
~WELL INFORMATION
#MNEM.UNIT       DATA                  DESCRIPTION OF MNEMONIC
#---- ----       ----                  -----------------------
STRT .ft            0.100                  :START DEPTH
STOP .ft          250.000                  :STOP DEPTH
STEP .ft            0.050                  :STEP
NULL .          -999.2500                  :NULL VALUE
COMP .     Eaton Pumps Sales & Humility    :COMPANY
WELL .                                     :WELL
FLD  .                                     :FIELD
LOC  .                                     :LOCATION
PROV .                                     :COUNTRY
SRVC .                                     :SERVICE COMPANY
DATE .     02 Nov 16                       :LOG DATE
UWI  .                                     :UNIQUE WELL ID
~OTHER INFORMATION SECTION
#-------------------------
North ref is Magnetic
Mean deviation: 0.56 to N307.40
End deviation components .....
     North: 1.494
     East : -1.954
     Down : 249.825
Azimuth of end: N307.39
Distance start-end: 2.460ft
Comment1: T
Comment2: B
Comment3: p
Comment4: d
Comment5: g
Comment6: 3rd party winch coax
Comment7: RE,RS,JH
~CURVE INFORMATION
#MNEM.UNIT      API CODES       CURVE DESCRIPTION
#---- ----      ---------       -----------------
DEPT .ft                          : 1 DEPTH
DEVN .ft                          : 2 DEVIATION COMPONENT NORTH
DEVE .ft                          : 3 DEVIATION COMPONENT EAST
DEVD .ft                          : 4 DEVIATION COMPONENT DOWN
AZIM .deg                         : 5 DEVIATION AZIMUTH
DEV  .deg                         : 6 DEVIATION FROM VERTICAL DOWN
~A DEPT         DEVN        DEVE        DEVD      AZIM       DEV
# ...
  128.200       1.101      -0.926     128.087    350.04      0.49
  128.250       1.101      -0.926     128.137    348.20      0.59
  128.300       1.101      -0.926     128.187    343.87      0.46
  128.350       1.102      -0.925     128.237     45.98      0.56
  128.400       1.102      -0.925     128.287     24.34      0.55
  128.450       1.103      -0.925     128.337    354.73      0.76
  128.500       1.103      -0.925     128.387      2.03      0.55
  128.550       1.104      -0.925     128.437     22.74      0.35
  128.600       1.104      -0.925     128.487      7.39      0.65
  128.650       1.105      -0.925     128.537      4.54      0.55
  128.700       1.105      -0.925     128.587    358.75      0.45
  128.750       1.106      -0.925     128.637      4.31      0.58
  128.800       1.106      -0.925     128.687      0.91      0.75
  128.850       1.107      -0.925     128.737    356.60      0.47
  128.900       1.107      -0.925     128.787    332.37      0.85
  128.950       1.108      -0.925     128.837    341.21      0.46
  129.000       1.108      -0.925     128.887      6.84      0.61
  129.050       1.109      -0.926     128.937    334.82      0.66
  129.100       1.109      -0.926     128.987    341.79      0.78
  129.150       1.110      -0.926     129.037    341.64      0.57
  129.200       1.110      -0.926     129.087      1.65      0.64
  129.250       1.111      -0.926     129.137      3.96      0.59
  129.300       1.111      -0.926     129.187     12.57      0.54
  129.350       1.112      -0.926     129.237    347.04      0.83
  129.400       1.112      -0.926     129.287    339.86      0.31
  129.450       1.113      -0.926     129.337    338.18      0.33
  129.500       1.113      -0.926     129.387     12.35      0.84
  129.550       1.114      -0.926     129.437     13.87      0.48
  129.600       1.114      -0.926     129.487      4.12      0.82
  129.650       1.115      -0.926     129.537    356.05      0.80
  129.700       1.115      -0.926     129.587    347.06      0.45
  129.750       1.116      -0.926     129.637    353.48      0.59
  129.800       1.117      -0.926     129.687    351.51      0.68
  129.850       1.117      -0.926     129.737     40.56      0.60
  129.900       1.118      -0.926     129.787    338.49      0.64
  129.950       1.118      -0.926     129.837     20.08      0.22
  130.000       1.118      -0.926     129.887     17.50      0.54
  130.050       1.119      -0.926     129.937      1.50      0.68
  130.100       1.119      -0.926     129.987    346.01      0.88
  130.150       1.120      -0.926     130.037    355.37      0.36
  130.200       1.120      -0.926     130.087    334.29      0.48
  130.250       1.121      -0.926     130.137    353.02      0.82
  130.300       1.121      -0.926     130.187    356.80      0.53
  130.350       1.122      -0.926     130.237      6.58      0.40
  130.400       1.122      -0.926     130.287    357.82      0.55
  130.450       1.122      -0.927     130.337    309.86      0.47
  130.500       1.123      -0.927     130.387    356.36      0.49
  130.550       1.123      -0.927     130.437    307.57      0.83
  130.600       1.124      -0.928     130.487    335.26      0.75
  130.650       1.124      -0.928     130.537      5.22      0.29
  130.700       1.125      -0.928     130.587      1.51      0.58
  130.750       1.125      -0.928     130.637    343.82      0.51
  130.800       1.126      -0.928     130.687     14.61      0.59
  130.850       1.126      -0.928     130.737    342.82      0.49
  130.900       1.126      -0.927     130.787     40.83      0.64
  130.950       1.127      -0.927     130.837     25.24      0.76
  131.000       1.128      -0.927     130.887    352.33      0.78
  131.050       1.128      -0.927     130.937    346.01      0.37
  131.100       1.128      -0.927     130.987     10.84      0.53
  131.150       1.129      -0.927     131.037    331.51      0.50
  131.200       1.129      -0.927     131.087     10.85      0.55
  131.250       1.130      -0.927     131.137     25.13      0.46
  131.300       1.130      -0.927     131.187    344.94      0.36
  131.350       1.131      -0.927     131.237      1.73      0.65
  131.400       1.131      -0.927     131.287     31.83      0.45
  131.450       1.131      -0.927     131.337    326.47      0.52
  131.500       1.132      -0.927     131.387    339.54      0.54
  131.550       1.132      -0.928     131.437    319.89      0.60
  131.600       1.132      -0.928     131.487    318.78      0.51
  131.650       1.133      -0.928     131.537    339.91      0.42
  131.700       1.133      -0.928     131.587      1.94      0.39
  131.750       1.133      -0.928     131.637    357.89      0.44
  131.800       1.134      -0.928     131.687    346.15      0.52
  131.850       1.134      -0.928     131.737    334.19      0.41
  131.900       1.135      -0.928     131.787      9.92      0.42
  131.950       1.135      -0.929     131.837    324.99      0.61
  132.000       1.135      -0.929     131.887    319.09      0.40
  132.050       1.136      -0.929     131.937    345.03      0.47
  132.100       1.136      -0.929     131.987      3.30      0.60
  132.150       1.137      -0.929     132.037    334.45      0.53
  132.200       1.137      -0.929     132.087      2.61      0.40
  132.250       1.137      -0.929     132.137     35.64      0.41
  132.300       1.138      -0.929     132.187    349.88      0.29
  132.350       1.138      -0.929     132.237    327.33      0.56
  132.400       1.138      -0.929     132.287    324.30      0.49
  132.450       1.139      -0.930     132.337    326.13      0.44
  132.500       1.139      -0.930     132.387    305.03      0.72
  132.550       1.139      -0.931     132.437    305.08      0.68
  132.600       1.140      -0.931     132.487    289.69      0.72
  132.650       1.140      -0.931     132.537    333.48      0.72
  132.700       1.140      -0.932     132.587    305.82      0.63
  132.750       1.141      -0.932     132.637    314.84      0.67
  132.800       1.141      -0.932     132.687      4.53      0.28
  132.850       1.142      -0.932     132.737    355.92      0.52
  132.900       1.142      -0.932     132.787    342.78      0.26
  132.950       1.142      -0.932     132.837    345.24      0.33
  133.000       1.143      -0.933     132.887    342.95      0.79
  133.050       1.143      -0.933     132.937    351.60      0.28
  133.100       1.143      -0.933     132.987    299.60      0.87
  133.150       1.144      -0.934     133.037    342.89      0.50
  133.200       1.144      -0.934     133.087    306.87      0.51
  133.250       1.144      -0.934     133.137    359.76      0.30
  133.300       1.145      -0.934     133.187      3.62      0.66
  133.350       1.145      -0.934     133.237      0.60      0.52
  133.400       1.146      -0.934     133.287     28.18      0.69
  133.450       1.146      -0.933     133.337     21.30      0.58
  133.500       1.147      -0.933     133.387    356.22      0.53
  133.550       1.147      -0.934     133.437    323.09      0.57
  133.600       1.147      -0.935     133.487    291.37      1.11
  133.650       1.148      -0.935     133.537    300.97      0.73
  133.700       1.148      -0.936     133.587    296.40      1.12
  133.750       1.148      -0.936     133.637    286.59      0.58
  133.800       1.149      -0.937     133.687    300.88      1.11
  133.850       1.149      -0.938     133.737    294.82      0.90
  133.900       1.150      -0.938     133.786    309.25      0.55
  133.950       1.150      -0.939     133.836    340.85      0.69
  134.000       1.151      -0.939     133.886    342.52      0.55
  134.050       1.151      -0.939     133.936     32.94      0.49
  134.100       1.151      -0.938     133.986     31.78      0.50
  134.150       1.152      -0.938     134.036     23.98      0.61
  134.200       1.152      -0.937     134.086     70.01      0.77
  134.250       1.152      -0.937     134.136      1.19      0.45
