~VERSION INFORMATION
VERS .     2.0     : CWLS LOG ASCII STANDARD - VERSION 2.0
WRAP .     NO      : ONE LINE PER 1 DEPTH STEPS
~WELL INFORMATION
#MNEM.UNIT       DATA                  DESCRIPTION OF MNEMONIC
#---- ----       ----                  -----------------------
STRT .ft            0.100                  :START DEPTH
STOP .ft          250.000                  :STOP DEPTH
STEP .ft            0.050                  :STEP
NULL .          -999.2500                  :NULL VALUE
COMP .     Eaton Pumps Sales & Humility    :COMPANY
WELL .                                     :WELL
FLD  .                                     :FIELD
LOC  .                                     :LOCATION
PROV .                                     :COUNTRY
SRVC .                                     :SERVICE COMPANY
DATE .     02 Nov 16                       :LOG DATE
UWI  .                                     :UNIQUE WELL ID
~OTHER INFORMATION SECTION
#-------------------------
North ref is Magnetic
Mean deviation: 0.56 to N307.40
End deviation components .....
     North: 1.494
     East : -1.954
     Down : 249.825
Azimuth of end: N307.39
Distance start-end: 2.460ft
Comment1: T
Comment2: B
Comment3: p
Comment4: d
Comment5: g
Comment6: 3rd party winch coax
Comment7: RE,RS,JH
~CURVE INFORMATION
#MNEM.UNIT      API CODES       CURVE DESCRIPTION
#---- ----      ---------       -----------------
DEPT .ft                          : 1 DEPTH
DEVN .ft                          : 2 DEVIATION COMPONENT NORTH
DEVE .ft                          : 3 DEVIATION COMPONENT EAST
DEVD .ft                          : 4 DEVIATION COMPONENT DOWN
AZIM .deg                         : 5 DEVIATION AZIMUTH
DEV  .deg                         : 6 DEVIATION FROM VERTICAL DOWN
~A DEPT         DEVN        DEVE        DEVD      AZIM       DEV
# ...
  116.000       0.989      -0.906     115.888    334.12      0.63
  116.050       0.990      -0.906     115.937    315.17      0.75
  116.100       0.991      -0.906     115.987      3.94      0.90
  116.150       0.991      -0.906     116.037    341.97      0.64
  116.200       0.991      -0.906     116.087    325.19      0.51
  116.250       0.992      -0.907     116.137    305.07      0.50
  116.300       0.992      -0.907     116.187     16.45      0.74
  116.350       0.993      -0.907     116.237    334.45      0.71
  116.400       0.994      -0.907     116.287      5.85      0.82
  116.450       0.994      -0.907     116.337    343.61      0.86
  116.500       0.995      -0.907     116.387    357.95      0.56
  116.550       0.995      -0.907     116.437    325.42      0.52
  116.600       0.996      -0.907     116.487    353.16      0.67
  116.650       0.996      -0.908     116.537    319.23      0.67
  116.700       0.997      -0.908     116.587    321.18      0.91
  116.750       0.997      -0.909     116.637    313.26      0.63
  116.800       0.998      -0.909     116.687      1.55      0.60
  116.850       0.998      -0.909     116.737    358.33      0.17
  116.900       0.998      -0.909     116.787    357.84      0.51
  116.950       0.999      -0.909     116.837      2.70      0.47
  117.000       0.999      -0.909     116.887      2.02      0.63
  117.050       0.999      -0.909     116.937    291.96      0.66
  117.100       1.000      -0.909     116.987     10.42      0.78
  117.150       1.001      -0.909     117.037    358.10      0.72
  117.200       1.001      -0.909     117.087    348.78      0.34
  117.250       1.002      -0.909     117.137    343.89      0.89
  117.300       1.002      -0.910     117.187    300.17      0.92
  117.350       1.003      -0.910     117.237    355.12      0.58
  117.400       1.003      -0.910     117.287    310.92      0.19
  117.450       1.003      -0.910     117.337    324.79      0.33
  117.500       1.004      -0.911     117.387    331.78      0.72
  117.550       1.004      -0.911     117.437      5.90      0.56
  117.600       1.004      -0.910     117.487     82.44      0.11
  117.650       1.005      -0.911     117.537    334.10      1.52
  117.700       1.006      -0.911     117.587    320.69      0.48
  117.750       1.006      -0.911     117.637     56.44      0.74
  117.800       1.006      -0.911     117.687     23.51      0.34
  117.850       1.007      -0.910     117.737     41.17      0.46
  117.900       1.007      -0.910     117.787      0.04      0.65
  117.950       1.008      -0.911     117.837    346.39      0.74
  118.000       1.008      -0.911     117.887    344.57      0.70
  118.050       1.009      -0.910     117.937     35.40      0.75
  118.100       1.009      -0.910     117.987    347.27      0.63
  118.150       1.010      -0.911     118.037    316.30      0.88
  118.200       1.010      -0.911     118.087     32.00      0.22
  118.250       1.011      -0.911     118.137      0.85      0.52
  118.300       1.011      -0.911     118.187    346.10      0.64
  118.350       1.012      -0.911     118.237    354.36      0.64
  118.400       1.012      -0.911     118.287    326.04      0.53
  118.450       1.013      -0.911     118.337    357.58      0.62
  118.500       1.013      -0.911     118.387    359.35      0.59
  118.550       1.014      -0.911     118.437     10.41      0.79
  118.600       1.014      -0.912     118.487    286.88      0.69
  118.650       1.015      -0.912     118.537    351.76      0.64
  118.700       1.015      -0.912     118.587    355.34      0.54
  118.750       1.015      -0.912     118.637    339.99      0.51
  118.800       1.016      -0.912     118.687    333.96      0.65
  118.850       1.016      -0.912     118.737     32.48      0.55
  118.900       1.017      -0.912     118.787    319.86      0.24
  118.950       1.017      -0.912     118.837     42.38      0.84
  119.000       1.017      -0.912     118.887    346.42      0.22
  119.050       1.017      -0.912     118.937     22.74      0.20
  119.100       1.018      -0.912     118.987    343.57      0.43
  119.150       1.018      -0.912     119.037    354.87      0.56
  119.200       1.019      -0.912     119.087    345.94      0.47
  119.250       1.019      -0.912     119.137    355.67      0.49
  119.300       1.019      -0.912     119.187    326.94      0.41
  119.350       1.020      -0.912     119.237    327.88      0.57
  119.400       1.020      -0.912     119.287     34.24      0.53
  119.450       1.021      -0.912     119.337    342.85      0.59
  119.500       1.021      -0.913     119.387    335.72      0.83
  119.550       1.022      -0.913     119.437    321.76      0.72
  119.600       1.022      -0.913     119.487    311.49      0.29
  119.650       1.022      -0.913     119.537    353.41      0.52
  119.700       1.023      -0.913     119.587      7.33      0.51
  119.750       1.023      -0.913     119.637    342.58      0.55
  119.800       1.024      -0.913     119.687    342.65      0.53
  119.850       1.024      -0.913     119.737    354.11      0.51
  119.900       1.025      -0.914     119.787    338.12      0.57
  119.950       1.025      -0.914     119.837    359.39      0.58
  120.000       1.026      -0.914     119.887    343.56      0.47
  120.050       1.026      -0.914     119.937    332.35      0.65
  120.100       1.027      -0.914     119.987    342.57      0.54
  120.150       1.027      -0.914     120.037    331.23      0.67
  120.200       1.028      -0.915     120.087    342.14      1.16
  120.250       1.028      -0.914     120.137     68.67      0.61
  120.300       1.029      -0.915     120.187    337.18      0.69
  120.350       1.029      -0.915     120.237    341.12      0.61
  120.400       1.030      -0.915     120.287    339.72      0.73
  120.450       1.030      -0.915     120.337      5.51      0.54
  120.500       1.031      -0.915     120.387    357.22      0.53
  120.550       1.031      -0.915     120.437    313.39      0.61
  120.600       1.031      -0.915     120.487      7.98      0.34
  120.650       1.032      -0.915     120.537     31.11      0.42
  120.700       1.033      -0.916     120.587    331.25      1.11
  120.750       1.033      -0.916     120.637    319.16      0.39
  120.800       1.033      -0.916     120.687    346.09      0.64
  120.850       1.034      -0.916     120.737    350.67      0.61
  120.900       1.034      -0.916     120.787    359.48      0.62
  120.950       1.034      -0.916     120.837    102.52      0.07
  121.000       1.035      -0.916     120.887    358.66      0.43
  121.050       1.035      -0.916     120.937    327.41      0.63
  121.100       1.036      -0.916     120.987      0.20      0.60
  121.150       1.037      -0.916     121.037    355.62      0.81
  121.200       1.037      -0.916     121.087    343.46      0.70
  121.250       1.037      -0.916     121.137     32.34      0.23
  121.300       1.038      -0.916     121.187      3.90      0.43
  121.350       1.038      -0.916     121.237    352.13      0.55
  121.400       1.039      -0.916     121.287    346.97      0.57
  121.450       1.039      -0.917     121.337    344.56      0.25
  121.500       1.039      -0.917     121.387    359.37      0.42
  121.550       1.040      -0.917     121.437    355.77      0.98
  121.600       1.040      -0.917     121.487    330.67      0.41
  121.650       1.041      -0.917     121.537    355.07      0.76
  121.700       1.042      -0.917     121.587      0.50      0.55
  121.750       1.042      -0.917     121.637    330.80      0.44
  121.800       1.042      -0.917     121.687    344.12      0.26
  121.850       1.042      -0.917     121.737     31.94      0.29
  121.900       1.043      -0.917     121.787     24.35      0.34
  121.950       1.043      -0.917     121.837     14.65      0.40
  122.000       1.043      -0.917     121.887    333.04      0.27
  122.050       1.043      -0.917     121.937    350.05      0.34
