#Written by Robertson Geologging WinLogger V1.5/498
~VERSION INFORMATION
#------------------------------------------------------------------------------
 VERS. 2.0 : CWLS LOG ASCII STANDARD - VERSION 2.0
 WRAP. NO  : ONE LINE PER DEPTH STEP
~WELL INFORMATION
#MNEM.UNIT         DATA                                DESCRIPTION OF MNEMONIC
#------------------------------------------------------------------------------
 STRT.FT         0.1000                            :   START DEPTH
 STOP.FT       250.0000                            :   STOP DEPTH
 STEP.FT         0.0500                            :   STEP VALUE
 NULL.        -999.2500                            :   NULL VALUE
 COMP.    Eaton Pumps Sales & Humility             :   COMPANY NAME
 WELL.    N/A                                      :   WELL NAME
 FLD.     N/A                                      :   FIELD NAME
 LOC.     N/A                                      :   LOCATION
 PROV.    N/A                                      :   PROVINCE
 SRVC.    N/A                                      :   SERVICE COMPANY NAME
 DATE.    02 Nov 16                                :   DATE
 UWI.     N/A                                      :   UNIQUE WELL IDENTIFIER
~PARAMETER INFORMATION
#MNEMO.UNIT         VALUE                 DESCRIPTION OF MNEMONIC
#------------------------------------------------------------------------------
~OTHER INFORMATION SECTION
#------------------------------------------------------------------------------
 T=45
 B=125k
 p=25
 d=15
 g=0
 3rd party winch coax
 RE,RS,JH
~CURVE INFORMATION
#MNEMO.UNIT         API CODE              CURVE DESCRIPTION
#------------------------------------------------------------------------------
 DEPTH.FT                                :   0     Depth
 TIME.SEC                                :   1     Time
 INCL.DEG                                :   2     Borehole Inclination
 RB.DEG                                  :   3     Relative Bearing
 GR_S.CPS                                :   4     Gyro Resolver Sine
 GAZM.DEG                                :   5     Gyro Borehole Azimuth
 NGAM.CPS                                :   6     Natural Gamma
 GR_C.CPS                                :   7     Gyro Resolver Cosine
 GTF.Deg                                 :   8     Gyro Tool Face
 GTOT.CPS                                :   9     Total G Field
#------------------------------------------------------------------------------
~A  DEPTH     TIME          INCL            RB          GR_S          GAZM          NGAM          GR_C           GTF          GTOT
# ...
  136.500  570.188         0.576       130.385      1824.273       217.711        20.069     -1011.455       119.006         0.997
  136.550  570.391         0.611       127.682      1822.273       187.814        19.292     -1015.636       119.133         0.998
  136.600  570.589         0.599       127.169      1821.000       188.452        18.309     -1020.182       119.258         0.997
  136.650  570.791         0.613       124.630      1819.727       158.389        18.844     -1024.636       119.382         0.997
  136.700  570.995         0.614       123.461      1818.182       159.685        18.289     -1029.091       119.509         0.997
  136.750  571.194         0.603       123.087      1816.455       160.178        18.844     -1033.091       119.628         0.996
  136.800  571.395         0.598       123.957      1814.455       192.162        18.749     -1037.273       119.755         0.996
  136.850  571.599         0.606       125.194      1813.273       223.756        17.917     -1041.000       119.860         0.996
  136.900  571.804         0.611       122.751      1812.545       226.300        17.948     -1044.818       119.960         0.996
  136.950  572.003         0.595       123.636      1810.909       225.522        18.725     -1048.364       120.067         0.996
  137.000  572.212         0.587       120.080      1810.091       196.450        17.948     -1052.091       120.166         0.996
  137.050  572.414         0.606       116.575      1809.727       167.297        17.853     -1054.818       120.236         0.996
  137.100  572.619         0.591       117.619      1809.000       166.311        18.380     -1056.818       120.293         0.995
  137.150  572.827         0.627       120.204      1807.727       196.505        19.712     -1058.273       120.345         0.995
  137.200  573.032         0.585       121.043      1807.273       228.436        18.824     -1059.818       120.388         0.993
  137.250  573.233         0.556       123.061      1806.636       226.457        20.045     -1061.091       120.427         0.996
  137.300  573.438         0.590       122.560      1806.545       226.998        20.933     -1062.727       120.467         0.995
  137.350  573.644         0.584       122.289      1806.636       227.299        21.405     -1064.091       120.498         0.996
  137.400  573.840         0.559       120.952      1806.636       195.942        20.933     -1065.455       120.530         0.997
  137.450  574.047         0.555       124.863      1805.091       224.783        20.965     -1065.636       120.555         0.995
  137.500  574.248         0.539       127.493      1804.545       222.180        20.013     -1066.455       120.582         0.995
  137.550  574.455         0.563       129.679      1803.364       252.751        19.681     -1067.000       120.612         0.994
  137.600  574.659         0.589       136.073      1802.545       279.121        19.237     -1068.091       120.649         0.996
  137.650  574.861         0.596       138.494      1802.091       309.462        19.153     -1069.273       120.683         0.997
  137.700  575.067         0.543       136.792      1801.364       278.480        19.264     -1070.727       120.727         0.996
  137.750  575.267         0.562       136.334      1800.636       246.311        20.121     -1074.545       120.827         0.997
  137.800  575.470         0.565       135.515      1800.727       247.177        18.900     -1076.636       120.874         0.997
  137.850  575.670         0.544       133.632      1799.000       216.413        18.844     -1079.000       120.954         0.997
  137.900  575.876         0.540       134.959      1798.364       215.141        18.844     -1081.000       121.010         0.995
  137.950  576.083         0.563       131.905      1797.455       218.255        18.844     -1083.000       121.069         0.996
  138.000  576.283         0.582       129.479      1797.000       188.020        17.485     -1085.545       121.135         0.996
  138.050  576.488         0.609       125.687      1796.364       191.880        18.372     -1088.091       121.204         0.997
  138.100  576.688         0.598       126.683      1796.273       190.938        17.596     -1090.364       121.258         0.998
  138.150  576.891         0.571       121.003      1795.818       163.962        17.596     -1093.091       121.328         0.995
  138.200  577.091         0.548       121.409      1794.636       163.621        18.483     -1095.182       121.394         0.997
  138.250  577.297         0.571       120.950      1794.545       164.132        18.955     -1097.364       121.446         0.997
  138.300  577.491         0.561       118.811      1793.455       166.278        20.699     -1097.000       121.453         0.997
  138.350  577.700         0.547       118.780      1791.455       166.380        22.031     -1098.818       121.524         0.996
  138.400  577.903         0.553       119.982      1791.273       165.208        21.143     -1100.000       121.554         0.997
  138.450  578.099         0.549       115.584      1790.364       136.936        19.367     -1101.909       121.611         0.998
  138.500  578.306         0.538       122.403      1789.364       162.902        19.451     -1103.818       121.669         0.996
  138.550  578.501         0.518       126.628      1788.273       191.474        19.451     -1106.091       121.738         0.998
  138.600  578.708         0.502       129.638      1787.364       188.525        19.546     -1108.182       121.799         0.996
  138.650  578.904         0.514       132.181      1786.364       186.049        19.990     -1110.455       121.866         0.996
  138.700  579.112         0.505       135.064      1784.818       215.964        22.265     -1112.545       121.937         0.999
  138.750  579.303         0.495       132.376      1783.818       186.001        21.821     -1115.273       122.014         0.997
  138.800  579.511         0.485       133.645      1781.364       217.551        22.265     -1117.636       122.104         0.998
  138.850  579.715         0.490       137.259      1780.727       246.734        23.625     -1120.273       122.174         0.998
  138.900  579.909         0.495       138.310      1779.545       245.756        24.068     -1122.727       122.248         1.000
  138.950  580.121         0.474       137.642      1778.091       246.500        24.956     -1125.091       122.324         0.999
  139.000  580.318         0.489       143.781      1776.818       273.151        25.289     -1127.000       122.386         0.998
  139.050  580.524         0.478       144.535      1775.182       272.479        24.845     -1129.545       122.469         1.000
  139.100  580.723         0.472       144.119      1773.818       272.978        25.289     -1132.273       122.551         1.000
  139.150  580.930         0.472       140.262      1772.455       244.196        25.289     -1135.273       122.640         1.001
  139.200  581.126         0.474       138.920      1770.818       245.620        25.289     -1137.818       122.722         1.001
  139.250  581.334         0.472       136.952      1769.182       214.956        26.177     -1140.909       122.817         0.999
  139.300  581.539         0.474       133.986      1768.182       218.019        27.010     -1144.545       122.914         1.000
  139.350  581.732         0.461       134.807      1767.455       217.290        27.898     -1148.091       123.006         0.999
  139.400  581.941         0.465       136.622      1765.909       215.579        27.454     -1151.636       123.110         0.998
  139.450  582.135         0.472       137.629      1764.455       214.679        27.691     -1155.364       123.216         0.998
  139.500  582.344         0.474       141.725      1762.455       243.424        27.691     -1159.091       123.331         0.998
  139.550  582.542         0.484       143.675      1760.000       241.610        26.249     -1163.455       123.467         0.999
