#Written by Robertson Geologging WinLogger V1.5/498
~VERSION INFORMATION
#------------------------------------------------------------------------------
 VERS. 2.0 : CWLS LOG ASCII STANDARD - VERSION 2.0
 WRAP. NO  : ONE LINE PER DEPTH STEP
~WELL INFORMATION
#MNEM.UNIT         DATA                                DESCRIPTION OF MNEMONIC
#------------------------------------------------------------------------------
 STRT.FT         0.1000                            :   START DEPTH
 STOP.FT       250.0000                            :   STOP DEPTH
 STEP.FT         0.0500                            :   STEP VALUE
 NULL.        -999.2500                            :   NULL VALUE
 COMP.    Eaton Pumps Sales & Humility             :   COMPANY NAME
 WELL.    N/A                                      :   WELL NAME
 FLD.     N/A                                      :   FIELD NAME
 LOC.     N/A                                      :   LOCATION
 PROV.    N/A                                      :   PROVINCE
 SRVC.    N/A                                      :   SERVICE COMPANY NAME
 DATE.    02 Nov 16                                :   DATE
 UWI.     N/A                                      :   UNIQUE WELL IDENTIFIER
~PARAMETER INFORMATION
#MNEMO.UNIT         VALUE                 DESCRIPTION OF MNEMONIC
#------------------------------------------------------------------------------
~OTHER INFORMATION SECTION
#------------------------------------------------------------------------------
 T=45
 B=125k
 p=25
 d=15
 g=0
 3rd party winch coax
 RE,RS,JH
~CURVE INFORMATION
#MNEMO.UNIT         API CODE              CURVE DESCRIPTION
#------------------------------------------------------------------------------
 DEPTH.FT                                :   0     Depth
 TIME.SEC                                :   1     Time
 INCL.DEG                                :   2     Borehole Inclination
 RB.DEG                                  :   3     Relative Bearing
 GR_S.CPS                                :   4     Gyro Resolver Sine
 GAZM.DEG                                :   5     Gyro Borehole Azimuth
 NGAM.CPS                                :   6     Natural Gamma
 GR_C.CPS                                :   7     Gyro Resolver Cosine
 GTF.Deg                                 :   8     Gyro Tool Face
 GTOT.CPS                                :   9     Total G Field
#------------------------------------------------------------------------------
~A  DEPTH     TIME          INCL            RB          GR_S          GAZM          NGAM          GR_C           GTF          GTOT
# ...
  217.100  897.516         0.982       229.992     -2013.091       233.084        26.292      -115.636       266.712         0.998
  217.150  897.720         0.942       206.466     -2013.909       223.985        26.590      -112.091       266.814         0.998
  217.200  897.926         0.962       204.918     -2014.364       225.670        28.112      -107.273       266.952         0.995
  217.250  898.121         0.893       188.899     -2014.273       209.098        28.417      -102.455       267.088         0.996
  217.300  898.330         0.906       213.185     -2014.364       217.676        26.514       -97.636       267.225         0.995
  217.350  898.537         0.958       210.149     -2014.818       220.843        27.529       -93.091       267.355         0.997
  217.400  898.727         0.943       211.118     -2015.273       219.990        29.971       -89.000       267.471         0.996
  217.450  898.934         0.968       240.337     -2015.909       223.610        29.907       -85.091       267.583         0.996
  217.500  899.129         0.862       208.807     -2015.636       222.520        28.778       -81.273       267.691         0.997
  217.550  899.326         0.971       233.183     -2016.636       230.986        28.778       -77.273       267.805         0.994
  217.600  899.525         1.067       229.303     -2017.091       234.973        29.221       -73.545       267.912         0.997
  217.650  899.723         1.038       237.808     -2017.727       259.314        29.221       -69.364       268.031         0.996
  217.700  899.910         1.096       261.441     -2018.455       268.535        30.831       -64.909       268.158         0.996
  217.750  900.112         1.057       291.902     -2018.727       270.912        30.482       -61.000       268.269         0.997
  217.800  900.311         1.152       306.060     -2019.273       289.588        29.658       -57.273       268.375         0.994
  217.850  900.497         1.185       299.480     -2019.364       296.294        30.074       -52.818       268.502         0.995
  217.900  900.705         1.185       302.110     -2019.727       293.828        29.122       -47.091       268.665         0.996
  217.950  900.893         1.193       301.781     -2019.727       294.376        26.998       -39.364       268.884         0.996
  218.000  901.087         1.088       274.594     -2018.818       289.054        27.081       -31.636       269.103         0.997
  218.050  901.286         1.088       306.527     -2018.091       290.058        25.559       -24.273       269.312         0.998
  218.100  901.482         1.064       302.908     -2019.000       293.882        23.922       -17.000       269.517         0.997
  218.150  901.674         0.878       276.553     -2019.182       287.709        25.222       -10.000       269.716         0.999
  218.200  901.883         0.857       275.663     -2018.818       288.782        24.746        -3.545       269.900         0.996
  218.250  902.080         0.814       248.027     -2018.818       283.879        22.305         3.091       270.088         0.997
  218.300  902.274         0.859       216.214     -2018.273       283.143        22.749         9.364       270.266         0.996
  218.350  902.486         0.791       218.058     -2017.727       281.501        24.651        16.455       270.467         0.998
  218.400  902.677         0.892       193.407     -2017.545       273.605        24.179        22.818       270.648         0.998
  218.450  902.881         0.825       191.716     -2016.636       275.456        23.736        28.455       270.809         0.996
  218.500  903.084         0.875       163.542     -2016.364       271.040        21.960        33.273       270.946         0.997
  218.550  903.284         0.982       190.416     -2017.273       277.047        19.906        38.727       271.100         0.996
  218.600  903.484         0.980       189.969     -2017.909       277.652        20.255        44.273       271.257         0.996
  218.650  903.690         0.927       192.346     -2015.818       275.412        19.748        49.091       271.395         0.998
  218.700  903.884         1.010       224.479     -2015.545       276.149        18.555        54.091       271.537         0.996
  218.750  904.078         1.000       197.157     -2015.455       270.883        19.803        59.000       271.677         0.999
  218.800  904.289         1.006       226.094     -2014.545       274.798        20.279        63.364       271.801         0.998
  218.850  904.476         0.986       226.890     -2014.455       274.154        21.611        68.727       271.954         0.998
  218.900  904.685         0.992       201.398     -2013.818       267.047        23.831        73.182       272.081         1.000
  218.950  904.882         0.879       201.239     -2013.909       267.345        24.275        78.091       272.221         0.998
  219.000  905.079         0.916       175.522     -2013.636       260.467        23.831        82.727       272.353         0.999
  219.050  905.280         0.913       203.732     -2013.000       265.097        23.236        86.636       272.465         0.997
  219.100  905.479         0.878       199.561     -2012.000       269.349        25.456        89.455       272.546         0.996
  219.150  905.673         0.821       197.381     -2011.545       271.617        25.012        92.545       272.634         0.998
  219.200  905.866         0.867       196.798     -2011.727       272.305        23.823        96.273       272.740         0.997
  219.250  906.076         0.825       167.195     -2010.818       269.289        24.294       100.000       272.847         0.998
  219.300  906.261         0.876       164.445     -2011.455       272.144        24.738       103.727       272.952         0.998
  219.350  906.469         0.868       162.523     -2010.909       274.198        27.236       108.364       273.084         0.998
  219.400  906.669         0.880       191.818     -2010.909       277.736        28.124       112.091       273.190         0.999
  219.450  906.864         0.871       215.787     -2011.000       286.608        27.680       116.091       273.304         0.997
  219.500  907.068         0.910       217.245     -2010.091       285.254        28.900       119.727       273.409         1.000
  219.550  907.265         0.861       243.435     -2009.818       291.891        29.788       123.182       273.507         0.998
  219.600  907.461         0.839       212.262     -2010.273       290.434        29.872       126.636       273.605         1.000
  219.650  907.658         0.826       217.262     -2009.909       285.555        29.634       130.909       273.727         1.001
  219.700  907.862         0.870       188.770     -2010.455       281.446        27.921       135.364       273.852         1.000
  219.750  908.045         0.855       189.619     -2010.273       280.710        26.146       139.364       273.965         1.002
  219.800  908.251         0.857       187.388     -2010.455       283.052        26.590       143.273       274.076         1.001
  219.850  908.444         0.866       190.106     -2009.364       280.452        28.365       147.364       274.194         1.001
  219.900  908.643         0.851       191.531     -2010.091       279.121        30.197       150.727       274.288         1.000
  219.950  908.849         0.837       192.801     -2009.364       277.966        28.040       154.727       274.403         0.999
  220.000  909.041         0.872       165.010     -2009.727       273.142        29.816       158.727       274.516         1.001
  220.050  909.239         0.842       193.379     -2009.273       277.612        28.151       162.636       274.628         1.000
  220.100  909.437         0.867       194.401     -2009.182       276.714        29.166       167.000       274.752         1.003
  220.150  909.643         0.872       225.781     -2009.091       278.180        27.422       171.182       274.870         1.002
