~VERSION INFORMATION
VERS .     2.0     : CWLS LOG ASCII STANDARD - VERSION 2.0
WRAP .     NO      : ONE LINE PER 1 DEPTH STEPS
~WELL INFORMATION
#MNEM.UNIT       DATA                  DESCRIPTION OF MNEMONIC
#---- ----       ----                  -----------------------
STRT .ft            0.100                  :START DEPTH
STOP .ft          250.000                  :STOP DEPTH
STEP .ft            0.050                  :STEP
NULL .          -999.2500                  :NULL VALUE
COMP .     Eaton Pumps Sales & Humility    :COMPANY
WELL .                                     :WELL
FLD  .                                     :FIELD
LOC  .                                     :LOCATION
PROV .                                     :COUNTRY
SRVC .                                     :SERVICE COMPANY
DATE .     02 Nov 16                       :LOG DATE
UWI  .                                     :UNIQUE WELL ID
~OTHER INFORMATION SECTION
#-------------------------
North ref is Magnetic
Mean deviation: 0.56 to N307.40
End deviation components .....
     North: 1.494
     East : -1.954
     Down : 249.825
Azimuth of end: N307.39
Distance start-end: 2.460ft
Comment1: T
Comment2: B
Comment3: p
Comment4: d
Comment5: g
Comment6: 3rd party winch coax
Comment7: RE,RS,JH
~CURVE INFORMATION
#MNEM.UNIT      API CODES       CURVE DESCRIPTION
#---- ----      ---------       -----------------
DEPT .ft                          : 1 DEPTH
DEVN .ft                          : 2 DEVIATION COMPONENT NORTH
DEVE .ft                          : 3 DEVIATION COMPONENT EAST
DEVD .ft                          : 4 DEVIATION COMPONENT DOWN
AZIM .deg                         : 5 DEVIATION AZIMUTH
DEV  .deg                         : 6 DEVIATION FROM VERTICAL DOWN
~A DEPT         DEVN        DEVE        DEVD      AZIM       DEV
    0.100       0.000       0.000       0.000     70.80      0.34
    0.150       0.000       0.000       0.050     73.66      0.48
    0.200       0.000       0.001       0.100     87.79      0.39
    0.250       0.000       0.000       0.150    294.19      0.84
    0.300       0.001      -0.000       0.200    300.21      0.76
    0.350       0.001      -0.001       0.250    295.36      0.69
    0.400       0.001      -0.002       0.300    287.74      0.88
    0.450       0.002      -0.002       0.350    309.66      0.77
    0.500       0.002      -0.003       0.400    298.44      0.82
    0.550       0.002      -0.003       0.450    313.12      0.75
    0.600       0.003      -0.004       0.500    303.44      0.79
    0.650       0.003      -0.004       0.550    311.66      0.53
    0.700       0.004      -0.005       0.600    300.95      1.01
    0.750       0.004      -0.006       0.650    300.13      0.79
    0.800       0.004      -0.006       0.700    297.74      0.81
    0.850       0.005      -0.007       0.750    299.33      0.76
    0.900       0.005      -0.007       0.800    306.10      0.83
    0.950       0.006      -0.008       0.850    321.32      0.69
    1.000       0.006      -0.008       0.900    306.16      0.80
    1.050       0.006      -0.009       0.950    283.83      0.75
    1.100       0.006      -0.009       1.000    302.26      0.51
    1.150       0.007      -0.010       1.050    305.89      0.94
    1.200       0.007      -0.011       1.100    290.47      0.69
    1.250       0.007      -0.011       1.150    302.31      0.58
    1.300       0.008      -0.011       1.200    319.73      0.69
    1.350       0.008      -0.012       1.250    282.26      0.83
    1.400       0.008      -0.013       1.300    304.88      0.64
    1.450       0.008      -0.013       1.350    291.72      0.76
    1.500       0.009      -0.014       1.400    297.61      0.83
    1.550       0.009      -0.015       1.450    281.41      0.87
    1.600       0.009      -0.015       1.500    277.69      0.74
    1.650       0.009      -0.016       1.550    309.33      0.52
    1.700       0.009      -0.016       1.600    277.54      0.97
    1.750       0.010      -0.017       1.650    304.80      0.71
    1.800       0.010      -0.017       1.700    329.68      0.65
    1.850       0.010      -0.018       1.750    285.59      0.70
    1.900       0.011      -0.019       1.800    310.94      1.02
    1.950       0.012      -0.019       1.850    312.20      0.89
    2.000       0.012      -0.020       1.900    298.86      0.63
    2.050       0.012      -0.020       1.950    314.60      0.87
    2.100       0.012      -0.021       2.000    265.30      0.75
    2.150       0.012      -0.021       2.050    280.12      0.65
    2.200       0.012      -0.022       2.100    263.33      0.88
    2.250       0.013      -0.022       2.150    310.34      0.63
    2.300       0.014      -0.023       2.200    333.55      1.17
    2.350       0.014      -0.023       2.250    300.63      0.70
    2.400       0.014      -0.024       2.300    301.72      0.52
    2.450       0.014      -0.024       2.350    299.54      0.72
    2.500       0.015      -0.025       2.400    325.61      0.76
    2.550       0.015      -0.025       2.450    314.55      0.49
    2.600       0.015      -0.025       2.500    292.59      0.51
    2.650       0.015      -0.026       2.550    259.84      0.77
    2.700       0.016      -0.027       2.600    282.76      0.98
    2.750       0.016      -0.028       2.650    293.45      0.98
    2.800       0.016      -0.028       2.700    297.96      0.73
    2.850       0.016      -0.029       2.750    274.17      0.81
    2.900       0.017      -0.029       2.800    325.02      0.57
    2.950       0.017      -0.030       2.850    277.23      0.70
    3.000       0.017      -0.031       2.900    263.10      0.67
    3.050       0.017      -0.031       2.950    261.84      0.73
    3.100       0.017      -0.032       3.000    294.87      0.59
    3.150       0.017      -0.032       3.050    319.03      0.93
    3.200       0.018      -0.033       3.100    288.68      0.68
    3.250       0.018      -0.033       3.150    293.06      0.78
    3.300       0.018      -0.034       3.200    308.55      0.77
    3.350       0.019      -0.034       3.250    303.52      0.79
    3.400       0.019      -0.035       3.300    290.13      0.41
    3.450       0.019      -0.035       3.350    290.57      0.40
    3.500       0.019      -0.035       3.400    324.61      0.51
    3.550       0.020      -0.036       3.450    288.44      1.17
    3.600       0.020      -0.037       3.500    289.10      0.63
    3.650       0.020      -0.037       3.550    295.01      0.59
    3.700       0.020      -0.038       3.600    277.47      0.68
    3.750       0.020      -0.038       3.650    287.70      0.71
    3.800       0.020      -0.039       3.700    308.89      0.42
    3.850       0.020      -0.039       3.750    254.88      0.64
    3.900       0.020      -0.040       3.800    254.22      0.74
    3.950       0.020      -0.040       3.850    315.14      0.47
    4.000       0.020      -0.041       3.900    273.73      0.84
    4.050       0.021      -0.041       3.950    287.17      0.53
    4.100       0.021      -0.042       4.000    336.77      0.71
    4.150       0.021      -0.042       4.050    293.33      0.83
    4.200       0.022      -0.043       4.100    303.60      0.76
    4.250       0.022      -0.044       4.150    301.92      0.92
    4.300       0.022      -0.044       4.200    305.59      0.45
    4.350       0.023      -0.044       4.250    284.20      0.39
    4.400       0.023      -0.044       4.300    306.74      0.36
    4.450       0.023      -0.045       4.350    308.44      0.60
    4.500       0.023      -0.045       4.400    264.45      0.66
    4.550       0.023      -0.046       4.450    277.95      0.97
    4.600       0.023      -0.047       4.500    275.16      0.86
    4.650       0.023      -0.048       4.550    268.65      0.74
    4.700       0.024      -0.048       4.600    308.07      0.66
    4.750       0.024      -0.049       4.650    277.77      1.04
    4.800       0.024      -0.050       4.700    268.34      0.61
    4.850       0.024      -0.050       4.750    265.66      0.66
    4.900       0.024      -0.051       4.800    284.37      1.10
    4.950       0.025      -0.052       4.850    324.52      1.23
    5.000       0.025      -0.052       4.900    324.98      1.00
    5.050       0.026      -0.053       4.950    283.44      1.00
    5.100       0.026      -0.053       5.000    291.09      0.52
    5.150       0.026      -0.054       5.050    283.70      0.90
    5.200       0.026      -0.055       5.100    276.14      1.09
    5.250       0.026      -0.056       5.150    246.72      0.99
    5.300       0.026      -0.057       5.200    278.51      0.68
    5.350       0.026      -0.057       5.250    302.09      0.82
    5.400       0.027      -0.058       5.300    311.81      1.06
    5.450       0.027      -0.058       5.350    285.06      0.68
    5.500       0.027      -0.059       5.400    291.79      0.65
    5.550       0.027      -0.060       5.450    281.34      1.04
    5.600       0.028      -0.060       5.500    293.70      0.77
    5.650       0.028      -0.061       5.550    288.00      0.81
    5.700       0.028      -0.062       5.599    287.38      0.73
    5.750       0.028      -0.062       5.649    300.19      0.73
    5.800       0.029      -0.063       5.699    290.17      0.59
    5.850       0.029      -0.062       5.749     39.50      0.61
    5.900       0.029      -0.063       5.799    247.13      0.94
    5.950       0.028      -0.064       5.849    257.10      1.20
    6.000       0.029      -0.064       5.899    332.94      0.55
    6.050       0.029      -0.065       5.949    310.03      0.81
    6.100       0.029      -0.065       5.999    294.70      0.50
    6.150       0.030      -0.066       6.049    288.68      0.77
