~VERSION INFORMATION
VERS .     2.0     : CWLS LOG ASCII STANDARD - VERSION 2.0
WRAP .     NO      : ONE LINE PER 1 DEPTH STEPS
~WELL INFORMATION
#MNEM.UNIT       DATA                  DESCRIPTION OF MNEMONIC
#---- ----       ----                  -----------------------
STRT .ft            0.100                  :START DEPTH
STOP .ft          250.000                  :STOP DEPTH
STEP .ft            0.050                  :STEP
NULL .          -999.2500                  :NULL VALUE
COMP .     Eaton Pumps Sales & Humility    :COMPANY
WELL .                                     :WELL
FLD  .                                     :FIELD
LOC  .                                     :LOCATION
PROV .                                     :COUNTRY
SRVC .                                     :SERVICE COMPANY
DATE .     02 Nov 16                       :LOG DATE
UWI  .                                     :UNIQUE WELL ID
~OTHER INFORMATION SECTION
#-------------------------
North ref is Magnetic
Mean deviation: 0.56 to N307.40
End deviation components .....
     North: 1.494
     East : -1.954
     Down : 249.825
Azimuth of end: N307.39
Distance start-end: 2.460ft
Comment1: T
Comment2: B
Comment3: p
Comment4: d
Comment5: g
Comment6: 3rd party winch coax
Comment7: RE,RS,JH
~CURVE INFORMATION
#MNEM.UNIT      API CODES       CURVE DESCRIPTION
#---- ----      ---------       -----------------
DEPT .ft                          : 1 DEPTH
DEVN .ft                          : 2 DEVIATION COMPONENT NORTH
DEVE .ft                          : 3 DEVIATION COMPONENT EAST
DEVD .ft                          : 4 DEVIATION COMPONENT DOWN
AZIM .deg                         : 5 DEVIATION AZIMUTH
DEV  .deg                         : 6 DEVIATION FROM VERTICAL DOWN
~A DEPT         DEVN        DEVE        DEVD      AZIM       DEV
# ...
   79.400       0.582      -0.784      79.291    339.74      0.86
   79.450       0.582      -0.784      79.341    345.51      0.69
   79.500       0.583      -0.784      79.391    338.06      0.65
   79.550       0.584      -0.784      79.441    343.47      1.21
   79.600       0.584      -0.785      79.491    324.84      0.65
   79.650       0.585      -0.785      79.541    346.97      0.93
   79.700       0.586      -0.785      79.591    312.19      0.74
   79.750       0.586      -0.786      79.641    309.49      0.86
   79.800       0.587      -0.786      79.691    329.31      0.66
   79.850       0.587      -0.787      79.741    305.89      0.43
   79.900       0.588      -0.787      79.791    327.68      0.87
   79.950       0.588      -0.788      79.841    321.45      0.89
   80.000       0.588      -0.788      79.891    359.20      0.40
   80.050       0.589      -0.788      79.941    329.98      0.86
   80.100       0.589      -0.788      79.991    350.28      0.41
   80.150       0.590      -0.788      80.041     21.81      0.79
   80.200       0.590      -0.788      80.091    322.88      0.56
   80.250       0.591      -0.788      80.141    325.61      0.73
   80.300       0.591      -0.788      80.191    253.75      0.14
   80.350       0.592      -0.788      80.241    358.27      0.87
   80.400       0.592      -0.789      80.291    358.68      0.44
   80.450       0.593      -0.789      80.341    352.49      0.74
   80.500       0.593      -0.789      80.391    318.56      0.87
   80.550       0.594      -0.789      80.441    356.02      0.57
   80.600       0.594      -0.789      80.491    329.78      0.57
   80.650       0.595      -0.789      80.541    353.94      0.42
   80.700       0.595      -0.789      80.591     16.45      0.34
   80.750       0.595      -0.790      80.641    312.89      0.49
   80.800       0.595      -0.790      80.691    293.03      0.83
   80.850       0.596      -0.791      80.741    317.73      0.76
   80.900       0.596      -0.791      80.791    279.65      0.50
   80.950       0.597      -0.791      80.841    349.61      0.54
   81.000       0.597      -0.791      80.891    333.65      0.48
   81.050       0.598      -0.792      80.941    318.70      1.00
   81.100       0.598      -0.792      80.991    319.31      0.75
   81.150       0.598      -0.793      81.041    317.30      0.62
   81.200       0.599      -0.794      81.091    313.07      1.26
   81.250       0.600      -0.794      81.141    353.42      0.81
   81.300       0.601      -0.794      81.191    337.80      1.14
   81.350       0.601      -0.795      81.241    308.67      0.78
   81.400       0.602      -0.795      81.291    329.05      0.81
   81.450       0.602      -0.796      81.341    319.30      0.94
   81.500       0.603      -0.796      81.391    300.55      0.74
   81.550       0.604      -0.797      81.441    341.88      1.56
   81.600       0.604      -0.797      81.491    297.22      0.97
   81.650       0.605      -0.797      81.541    344.59      0.66
   81.700       0.605      -0.798      81.591    265.89      0.54
   81.750       0.606      -0.798      81.641    331.32      0.66
   81.800       0.606      -0.799      81.691    321.70      1.10
   81.850       0.607      -0.798      81.741     45.02      0.71
   81.900       0.607      -0.799      81.791    298.15      1.19
   81.950       0.608      -0.800      81.841    291.59      1.20
   82.000       0.608      -0.801      81.891    327.08      0.82
   82.050       0.609      -0.801      81.941    313.28      0.66
   82.100       0.609      -0.801      81.991     99.73      0.19
   82.150       0.609      -0.801      82.041     17.94      0.46
   82.200       0.609      -0.802      82.091    300.95      1.11
   82.250       0.610      -0.802      82.141    312.07      0.57
   82.300       0.610      -0.802      82.191    351.66      0.61
   82.350       0.611      -0.802      82.241    336.89      0.89
   82.400       0.611      -0.803      82.291    260.73      0.51
   82.450       0.612      -0.803      82.341    338.31      0.85
   82.500       0.612      -0.803      82.391    340.34      0.92
   82.550       0.613      -0.804      82.441    318.06      0.95
   82.600       0.614      -0.804      82.491    329.02      0.87
   82.650       0.614      -0.805      82.541    331.88      1.00
   82.700       0.615      -0.805      82.590    313.67      0.73
   82.750       0.615      -0.805      82.640    327.22      0.77
   82.800       0.616      -0.806      82.690    351.04      0.62
   82.850       0.616      -0.806      82.740    292.85      0.81
   82.900       0.617      -0.807      82.790    316.71      1.04
   82.950       0.617      -0.807      82.840    314.35      0.55
   83.000       0.618      -0.807      82.890    350.11      1.04
   83.050       0.619      -0.808      82.940    340.96      0.74
   83.100       0.619      -0.808      82.990    312.73      0.57
   83.150       0.620      -0.808      83.040    356.45      0.70
   83.200       0.620      -0.808      83.090    321.43      1.00
   83.250       0.621      -0.808      83.140     20.53      0.52
   83.300       0.621      -0.809      83.190    311.48      0.54
   83.350       0.622      -0.809      83.240    337.45      1.01
   83.400       0.623      -0.809      83.290    333.63      1.00
   83.450       0.623      -0.810      83.340    293.25      0.69
   83.500       0.624      -0.810      83.390     18.75      0.80
   83.550       0.624      -0.810      83.440     24.36      0.58
   83.600       0.625      -0.810      83.490    328.15      0.82
   83.650       0.625      -0.810      83.540    323.33      1.08
   83.700       0.626      -0.811      83.590    318.39      0.67
   83.750       0.626      -0.811      83.640    314.07      0.89
   83.800       0.627      -0.812      83.690    337.41      1.04
   83.850       0.628      -0.812      83.740    320.55      1.01
   83.900       0.628      -0.813      83.790    314.33      0.74
   83.950       0.629      -0.813      83.840    329.47      0.95
   84.000       0.630      -0.814      83.890    311.96      0.90
   84.050       0.630      -0.814      83.940    332.01      0.78
   84.100       0.631      -0.814      83.990    346.37      0.76
   84.150       0.632      -0.815      84.040    330.59      0.95
   84.200       0.632      -0.815      84.090    328.63      0.45
   84.250       0.633      -0.814      84.140     34.04      1.09
   84.300       0.633      -0.815      84.190    334.03      0.84
   84.350       0.634      -0.815      84.240    320.51      0.67
   84.400       0.635      -0.815      84.290     18.78      1.14
   84.450       0.635      -0.815      84.340    348.34      0.55
   84.500       0.636      -0.815      84.390    319.39      0.64
   84.550       0.636      -0.815      84.440    354.15      0.65
   84.600       0.637      -0.815      84.490    343.01      0.61
   84.650       0.637      -0.816      84.540    326.72      0.89
   84.700       0.638      -0.816      84.590    356.91      0.54
   84.750       0.638      -0.816      84.640    324.79      0.44
   84.800       0.639      -0.816      84.690    338.95      0.93
   84.850       0.639      -0.817      84.740    329.13      0.44
   84.900       0.640      -0.817      84.790    331.97      0.99
   84.950       0.641      -0.817      84.840    358.41      0.96
   85.000       0.641      -0.817      84.890      8.08      0.29
   85.050       0.642      -0.817      84.940    355.61      1.10
   85.100       0.643      -0.817      84.990    343.55      1.00
   85.150       0.643      -0.818      85.040    314.98      0.89
   85.200       0.644      -0.818      85.090    336.15      0.87
   85.250       0.645      -0.818      85.140    351.23      0.73
   85.300       0.645      -0.818      85.190      7.02      0.75
   85.350       0.646      -0.819      85.240    321.22      0.76
   85.400       0.647      -0.818      85.290     15.70      1.42
   85.450       0.648      -0.819      85.340    329.43      0.95
