#Written by Robertson Geologging WinLogger V1.5/498
~VERSION INFORMATION
#------------------------------------------------------------------------------
 VERS. 2.0 : CWLS LOG ASCII STANDARD - VERSION 2.0
 WRAP. NO  : ONE LINE PER DEPTH STEP
~WELL INFORMATION
#MNEM.UNIT         DATA                                DESCRIPTION OF MNEMONIC
#------------------------------------------------------------------------------
 STRT.FT         0.1000                            :   START DEPTH
 STOP.FT       250.0000                            :   STOP DEPTH
 STEP.FT         0.0500                            :   STEP VALUE
 NULL.        -999.2500                            :   NULL VALUE
 COMP.    Eaton Pumps Sales & Humility             :   COMPANY NAME
 WELL.    N/A                                      :   WELL NAME
 FLD.     N/A                                      :   FIELD NAME
 LOC.     N/A                                      :   LOCATION
 PROV.    N/A                                      :   PROVINCE
 SRVC.    N/A                                      :   SERVICE COMPANY NAME
 DATE.    02 Nov 16                                :   DATE
 UWI.     N/A                                      :   UNIQUE WELL IDENTIFIER
~PARAMETER INFORMATION
#MNEMO.UNIT         VALUE                 DESCRIPTION OF MNEMONIC
#------------------------------------------------------------------------------
~OTHER INFORMATION SECTION
#------------------------------------------------------------------------------
 T=45
 B=125k
 p=25
 d=15
 g=0
 3rd party winch coax
 RE,RS,JH
~CURVE INFORMATION
#MNEMO.UNIT         API CODE              CURVE DESCRIPTION
#------------------------------------------------------------------------------
 DEPTH.FT                                :   0     Depth
 TIME.SEC                                :   1     Time
 INCL.DEG                                :   2     Borehole Inclination
 RB.DEG                                  :   3     Relative Bearing
 GR_S.CPS                                :   4     Gyro Resolver Sine
 GAZM.DEG                                :   5     Gyro Borehole Azimuth
 NGAM.CPS                                :   6     Natural Gamma
 GR_C.CPS                                :   7     Gyro Resolver Cosine
 GTF.Deg                                 :   8     Gyro Tool Face
 GTOT.CPS                                :   9     Total G Field
#------------------------------------------------------------------------------
~A  DEPTH     TIME          INCL            RB          GR_S          GAZM          NGAM          GR_C           GTF          GTOT
# ...
   86.900  368.126         0.743        57.479      1125.636       299.571        19.998      1967.364        29.777         0.997
   86.950  368.333         0.778        61.380      1130.091       328.544        20.225      1963.455        29.924         0.997
   87.000  368.532         0.780        63.224      1137.909       326.880        19.617      1962.636        30.104         0.996
   87.050  368.731         0.753        62.121      1142.182       328.124        19.756      1958.818        30.246         0.996
   87.100  368.929         0.772        62.986      1146.273       327.390        20.533      1955.636        30.375         0.997
   87.150  369.131         0.699        62.499      1150.091       328.008        21.865      1951.909        30.506         0.996
   87.200  369.338         0.711        57.447      1154.091       300.459        22.752      1948.818        30.633         0.997
   87.250  369.532         0.678        59.756      1157.909       298.269        22.364      1946.000        30.753         0.997
   87.300  369.743         0.677        58.648      1161.364       299.489        22.808      1943.182        30.865         0.997
   87.350  369.938         0.611        63.809      1164.091       294.421        20.588      1940.636        30.957         0.997
   87.400  370.146         0.630        61.295      1168.000       297.053        21.032      1938.091        31.075         0.997
   87.450  370.349         0.631        56.611      1171.636       301.851        20.644      1935.455        31.189         0.996
   87.500  370.555         0.620        54.462      1174.727       304.106        18.868      1932.455        31.296         0.998
   87.550  370.759         0.618        54.755      1175.364       303.843        17.536      1931.182        31.326         0.998
   87.600  370.966         0.635        55.160      1178.818       303.553        17.592      1928.182        31.440         0.999
   87.650  371.175         0.609        55.315      1182.909       303.535        17.564      1924.545        31.577         0.997
   87.700  371.373         0.609        55.118      1186.818       303.868        20.450      1920.727        31.713         0.998
   87.750  371.583         0.568        55.730      1190.273       303.380        19.118      1917.000        31.838         0.998
   87.800  371.778         0.562        56.773      1194.000       302.471        19.617      1913.000        31.972         0.998
   87.850  371.985         0.572        59.881      1198.545       299.509        20.505      1909.455        32.118         0.999
   87.900  372.188         0.628        54.218      1203.273       305.325        19.534      1905.727        32.270         0.999
   87.950  372.390         0.594        61.516      1207.545       298.177        18.345      1901.455        32.420         1.000
   88.000  372.591         0.602        62.486      1212.000       297.352        16.569      1897.818        32.566         1.001
   88.050  372.800         0.579        64.338      1216.182       295.639        17.013      1894.273        32.704         1.000
   88.100  373.007         0.591        64.508      1219.909       295.652        17.401      1886.636        32.887         1.001
   88.150  373.203         0.607        67.955      1223.000       292.314        18.448      1883.545        32.996         0.999
   88.200  373.410         0.611        69.200      1226.455       291.178        19.280      1881.000        33.105         1.001
   88.250  373.607         0.688        73.021      1229.636       287.462        17.504      1878.364        33.210         1.001
   88.300  373.812         0.731        75.237      1233.545       318.095        18.392      1875.636        33.332         1.001
   88.350  374.014         0.790        73.090      1236.818       320.359        18.337      1872.273        33.449         1.001
   88.400  374.216         0.786        71.779      1240.000       321.780        17.893      1869.273        33.559         1.002
   88.450  374.422         0.790        70.863      1243.455       322.809        17.893      1866.455        33.672         1.001
   88.500  374.625         0.830        67.360      1246.636       326.413        19.696      1864.091        33.773         1.001
   88.550  374.833         0.849        71.933      1249.727       321.952        18.448      1860.818        33.886         1.001
   88.600  375.033         0.947        71.309      1253.455       322.700        20.224      1857.727        34.009         1.001
   88.650  375.240         0.944        73.385      1256.909       320.747        20.224      1854.273        34.132         1.001
   88.700  375.439         0.935        71.243      1261.364       323.044        19.724      1850.000        34.288         1.002
   88.750  375.646         0.927        76.068      1265.091       318.371        20.854      1845.000        34.439         1.002
   88.800  375.849         0.872        74.554      1269.273       320.029        22.154      1841.182        34.583         1.001
   88.850  376.053         0.899        77.550      1272.909       317.145        22.598      1838.727        34.694         1.001
   88.900  376.261         0.860       104.294      1276.727       290.527        21.211      1835.545        34.822         1.001
   88.950  376.459         0.897       105.387      1280.455       289.571        23.232      1831.636        34.957         0.999
   89.000  376.664         0.933       108.929      1284.273       286.165        21.298      1827.818        35.093         1.000
   89.050  376.864         0.922       108.357      1287.909       286.871        20.882      1823.818        35.229         1.000
   89.100  377.065         0.915       107.328      1291.545       288.028        23.736      1820.364        35.356         1.000
   89.150  377.265         0.790       129.468      1295.182       266.014        23.652      1817.000        35.482         1.000
   89.200  377.470         0.744       122.246      1298.182       240.625        24.723      1813.455        35.598         1.000
   89.250  377.673         0.785       126.324      1301.455       236.657        26.498      1810.636        35.709         1.000
   89.300  377.876         0.788       122.250      1305.182       240.854        26.054      1807.636        35.832         1.000
   89.350  378.079         0.783       120.522      1308.727       242.703        25.166      1804.545        35.952         1.000
   89.400  378.280         0.764       119.286      1312.273       244.083        23.529      1799.818        36.097         1.000
   89.450  378.484         0.746        99.795      1315.727       263.693        23.529      1796.727        36.215         1.000
   89.500  378.686         0.715        96.264      1320.636       267.344        23.030      1795.545        36.334         1.000
   89.550  378.890         0.690        91.966      1324.091       271.775        24.100      1791.455        36.469         0.999
   89.600  379.089         0.702        92.928      1328.182       270.954        23.387      1787.818        36.609         0.999
   89.650  379.294         0.720        91.642      1332.455       272.384        23.387      1784.182        36.753         0.998
   89.700  379.489         0.794        70.671      1335.636       293.488        25.606      1779.818        36.886         0.998
   89.750  379.692         0.819        76.665      1340.182       320.372        24.774      1776.182        37.036         0.998
   89.800  379.898         0.788        74.437      1344.727       322.759        24.140      1771.909        37.196         0.997
   89.850  380.096         0.792        71.040      1348.545       326.302        24.140      1767.636        37.342         0.998
   89.900  380.300         0.811        76.536      1352.455       320.955        24.972      1763.182        37.492         0.996
   89.950  380.501         0.824        78.528      1356.727       319.120        23.450      1758.818        37.648         0.998
