#Written by Robertson Geologging WinLogger V1.5/498
~VERSION INFORMATION
#------------------------------------------------------------------------------
 VERS. 2.0 : CWLS LOG ASCII STANDARD - VERSION 2.0
 WRAP. NO  : ONE LINE PER DEPTH STEP
~WELL INFORMATION
#MNEM.UNIT         DATA                                DESCRIPTION OF MNEMONIC
#------------------------------------------------------------------------------
 STRT.FT         0.1000                            :   START DEPTH
 STOP.FT       250.0000                            :   STOP DEPTH
 STEP.FT         0.0500                            :   STEP VALUE
 NULL.        -999.2500                            :   NULL VALUE
 COMP.    Eaton Pumps Sales & Humility             :   COMPANY NAME
 WELL.    N/A                                      :   WELL NAME
 FLD.     N/A                                      :   FIELD NAME
 LOC.     N/A                                      :   LOCATION
 PROV.    N/A                                      :   PROVINCE
 SRVC.    N/A                                      :   SERVICE COMPANY NAME
 DATE.    02 Nov 16                                :   DATE
 UWI.     N/A                                      :   UNIQUE WELL IDENTIFIER
~PARAMETER INFORMATION
#MNEMO.UNIT         VALUE                 DESCRIPTION OF MNEMONIC
#------------------------------------------------------------------------------
~OTHER INFORMATION SECTION
#------------------------------------------------------------------------------
 T=45
 B=125k
 p=25
 d=15
 g=0
 3rd party winch coax
 RE,RS,JH
~CURVE INFORMATION
#MNEMO.UNIT         API CODE              CURVE DESCRIPTION
#------------------------------------------------------------------------------
 DEPTH.FT                                :   0     Depth
 TIME.SEC                                :   1     Time
 INCL.DEG                                :   2     Borehole Inclination
 RB.DEG                                  :   3     Relative Bearing
 GR_S.CPS                                :   4     Gyro Resolver Sine
 GAZM.DEG                                :   5     Gyro Borehole Azimuth
 NGAM.CPS                                :   6     Natural Gamma
 GR_C.CPS                                :   7     Gyro Resolver Cosine
 GTF.Deg                                 :   8     Gyro Tool Face
 GTOT.CPS                                :   9     Total G Field
#------------------------------------------------------------------------------
~A  DEPTH     TIME          INCL            RB          GR_S          GAZM          NGAM          GR_C           GTF          GTOT
# ...
  232.600  959.376         0.886        97.278     -1779.273       270.275        16.218      1116.091       302.099         0.990
  232.650  959.576         0.930       125.442     -1778.909       274.905        17.677      1118.727       302.165         0.992
  232.700  959.775         0.844       154.150     -1777.000       279.012        18.093      1121.364       302.253         0.993
  232.750  959.993         0.802       127.240     -1776.545       273.254        17.522      1123.636       302.312         0.994
  232.800  960.195         0.835       125.597     -1775.000       274.989        19.488      1126.636       302.404         0.994
  232.850  960.392         0.805       120.507     -1773.364       280.147        19.072      1128.545       302.472         0.992
  232.900  960.606         0.818       118.292     -1772.000       282.426        19.960      1130.455       302.536         0.991
  232.950  960.809         0.830        90.641     -1772.000       277.410        21.006      1133.091       302.597         0.993
  233.000  961.003         0.835       116.955     -1770.273       283.917        22.916      1136.091       302.691         0.992
  233.050  961.223         0.849       117.626     -1769.273       283.339        23.867      1139.455       302.782         0.993
  233.100  961.426         0.793       114.029     -1768.273       287.001        25.802      1141.727       302.849         0.995
  233.150  961.625         0.806       115.106     -1767.000       286.002        25.746      1144.273       302.926         0.993
  233.200  961.838         0.790        86.190     -1768.636       282.277        25.714      1149.182       303.013         0.996
  233.250  962.033         0.807        54.991     -1766.909       280.827        25.809      1151.455       303.090         0.997
  233.300  962.235         0.918        58.426     -1765.273       277.480        26.226      1154.273       303.179         0.996
  233.350  962.446         0.878        72.647     -1765.091       263.332        26.347      1157.364       303.252         1.000
  233.400  962.643         0.905        71.685     -1763.455       264.397        26.822      1160.818       303.355         1.001
  233.450  962.840         0.933        73.896     -1762.091       262.296        25.463      1164.727       303.464         1.001
  233.500  963.053         0.968        74.995     -1759.182       261.318        24.512      1168.182       303.586         1.004
  233.550  963.250         0.969        44.106     -1757.636       259.580        24.623      1171.545       303.685         1.004
  233.600  963.449         0.972        40.969     -1758.182       262.820        24.623      1176.545       303.789         1.003
  233.650  963.661         0.994        41.440     -1756.091       262.461        22.656      1180.091       303.901         1.005
  233.700  963.851         0.943        39.918     -1753.818       264.095        22.684      1183.545       304.013         1.007
  233.750  964.054         1.027        70.057     -1749.091       266.769        21.741      1184.182       304.098         1.006
  233.800  964.260         1.012        76.724     -1747.545       260.197        19.362      1187.364       304.194         1.006
  233.850  964.450         0.962       102.339     -1746.091       267.407        17.508      1190.727       304.292         1.006
  233.900  964.648         1.029        90.339     -1743.636       279.514        18.995      1193.818       304.398         1.004
  233.950  964.856         1.006        93.252     -1742.545       276.675        18.995      1196.364       304.472         1.002
  234.000  965.045         0.925        98.781     -1741.455       271.211        18.162      1198.545       304.538         1.005
  234.050  965.244         0.886        96.846     -1740.545       273.201        18.162      1200.364       304.592         1.002
  234.100  965.450         0.835        98.398     -1739.636       271.700        18.162      1202.000       304.643         1.003
  234.150  965.637         0.913       100.205     -1735.909       269.998        18.717      1204.182       304.748         1.005
  234.200  965.839         0.949        99.790     -1735.273       270.467        19.050      1206.182       304.802         1.002
  234.250  966.044         0.920       119.167     -1735.273       251.130        20.477      1208.000       304.843         1.004
  234.300  966.240         0.827        89.256     -1734.545       248.368        20.949      1209.909       304.897         1.004
  234.350  966.445         0.823        86.885     -1734.455       250.795        20.830      1212.364       304.953         1.003
  234.400  966.654         0.822        58.155     -1733.455       246.849        19.530      1214.000       305.004         1.005
  234.450  966.847         0.775        56.408     -1733.091       248.624        18.198      1215.000       305.032         1.003
  234.500  967.051         0.807        52.468     -1732.636       252.621        18.559      1217.273       305.090         1.004
  234.550  967.259         0.834        47.735     -1732.091       257.401        19.003      1219.000       305.137         1.004
  234.600  967.447         0.930        77.724     -1732.000       260.196        19.419      1221.455       305.192         1.003
  234.650  967.657         0.990        77.636     -1730.909       260.341        20.370      1223.273       305.250         1.003
  234.700  967.854         0.922        74.586     -1730.909       263.371        20.731      1222.364       305.230         1.002
  234.750  968.049         0.870       105.691     -1729.545       265.033        18.705      1223.182       305.269         1.003
  234.800  968.259         0.983        85.115     -1728.455       285.651        17.160      1224.364       305.312         1.001
  234.850  968.455         0.929        92.623     -1727.455       278.183        17.635      1225.455       305.352         1.001
  234.900  968.652         1.003        91.777     -1726.091       279.099        18.758      1227.636       305.421         1.002
  234.950  968.852         0.977        88.772     -1725.909       282.147        18.758      1229.455       305.464         0.999
  235.000  969.053         0.998        93.506     -1724.545       277.474        17.787      1231.273       305.526         1.000
  235.050  969.243         1.029        93.764     -1723.000       277.275        16.955      1232.818       305.584         1.000
  235.100  969.452         1.041        92.121     -1721.364       278.979        15.940      1234.455       305.646         0.999
  235.150  969.647         1.043        63.332     -1719.273       275.110        15.496      1236.091       305.715         1.001
  235.200  969.840         1.049        92.789     -1717.364       278.484        15.496      1239.455       305.819         0.999
  235.250  970.050         1.107        95.775     -1714.909       275.624        15.908      1243.455       305.945         1.001
  235.300  970.243         1.138        65.270     -1712.545       273.537        18.128      1247.909       306.080         0.999
  235.350  970.441         1.091        66.203     -1710.273       272.733        18.544      1252.182       306.209         1.000
  235.400  970.643         1.180        88.826     -1712.909       282.907        18.100      1257.273       306.278         0.997
  235.450  970.848         1.115        90.711     -1711.273       281.103        18.183      1259.818       306.360         0.996
  235.500  971.038         1.095        98.652     -1709.000       273.276        17.648      1263.364       306.473         0.999
  235.550  971.251         1.185        90.292     -1707.545       281.738        17.288      1267.000       306.575         0.997
  235.600  971.441         1.123       103.423     -1705.818       268.714        18.619      1270.636       306.682         0.999
  235.650  971.636         1.172       109.952     -1703.545       262.318        19.452      1275.091       306.815         0.997
