#Written by Robertson Geologging WinLogger V1.5/498
~VERSION INFORMATION
#------------------------------------------------------------------------------
 VERS. 2.0 : CWLS LOG ASCII STANDARD - VERSION 2.0
 WRAP. NO  : ONE LINE PER DEPTH STEP
~WELL INFORMATION
#MNEM.UNIT         DATA                                DESCRIPTION OF MNEMONIC
#------------------------------------------------------------------------------
 STRT.FT         0.1000                            :   START DEPTH
 STOP.FT       250.0000                            :   STOP DEPTH
 STEP.FT         0.0500                            :   STEP VALUE
 NULL.        -999.2500                            :   NULL VALUE
 COMP.    Eaton Pumps Sales & Humility             :   COMPANY NAME
 WELL.    N/A                                      :   WELL NAME
 FLD.     N/A                                      :   FIELD NAME
 LOC.     N/A                                      :   LOCATION
 PROV.    N/A                                      :   PROVINCE
 SRVC.    N/A                                      :   SERVICE COMPANY NAME
 DATE.    02 Nov 16                                :   DATE
 UWI.     N/A                                      :   UNIQUE WELL IDENTIFIER
~PARAMETER INFORMATION
#MNEMO.UNIT         VALUE                 DESCRIPTION OF MNEMONIC
#------------------------------------------------------------------------------
~OTHER INFORMATION SECTION
#------------------------------------------------------------------------------
 T=45
 B=125k
 p=25
 d=15
 g=0
 3rd party winch coax
 RE,RS,JH
~CURVE INFORMATION
#MNEMO.UNIT         API CODE              CURVE DESCRIPTION
#------------------------------------------------------------------------------
 DEPTH.FT                                :   0     Depth
 TIME.SEC                                :   1     Time
 INCL.DEG                                :   2     Borehole Inclination
 RB.DEG                                  :   3     Relative Bearing
 GR_S.CPS                                :   4     Gyro Resolver Sine
 GAZM.DEG                                :   5     Gyro Borehole Azimuth
 NGAM.CPS                                :   6     Natural Gamma
 GR_C.CPS                                :   7     Gyro Resolver Cosine
 GTF.Deg                                 :   8     Gyro Tool Face
 GTOT.CPS                                :   9     Total G Field
#------------------------------------------------------------------------------
~A  DEPTH     TIME          INCL            RB          GR_S          GAZM          NGAM          GR_C           GTF          GTOT
# ...
  167.500  695.890         0.581       171.790       347.273       196.121        16.228     -2336.818       171.547         1.003
  167.550  696.087         0.552       167.543       343.727       200.456        16.950     -2337.545       171.635         1.004
  167.600  696.295         0.571       171.110       340.727       196.959        17.009     -2337.091       171.706         1.002
  167.650  696.493         0.537       172.398       338.727       195.719        16.926     -2337.182       171.754         1.005
  167.700  696.691         0.549       177.670       336.545       190.484        15.856     -2332.909       171.791         1.004
  167.750  696.891         0.572       170.012       334.545       165.463        17.822     -2332.727       171.839         1.004
  167.800  697.106         0.579       175.764       333.182       192.473        18.814     -2333.364       171.874         1.006
  167.850  697.303         0.539       174.660       332.091       193.606        19.702     -2334.091       171.902         1.005
  167.900  697.509         0.515       173.713       330.909       194.582        17.621     -2334.273       171.931         1.004
  167.950  697.718         0.495       177.299       329.636       223.755        15.956     -2334.455       171.963         1.007
  168.000  697.913         0.439       175.132       328.273       225.955        15.956     -2334.545       171.996         1.007
  168.050  698.126         0.415       189.301       326.545       211.829        17.859     -2335.273       172.040         1.006
  168.100  698.327         0.391       194.089       324.091       207.102        18.691     -2335.909       172.101         1.005
  168.150  698.529         0.384       210.352       321.182       223.640        19.673     -2336.636       172.173         1.005
  168.200  698.733         0.377       208.617       317.636       225.463        18.785     -2337.727       172.262         1.002
  168.250  698.944         0.363       215.939       314.455       218.219        18.404     -2338.182       172.340         1.002
  168.300  699.142         0.364       226.135       311.455       240.826        17.960     -2339.091       172.416         1.000
  168.350  699.346         0.369       233.818       307.727       233.235        18.436     -2339.818       172.508         1.001
  168.400  699.557         0.363       240.512       303.909       259.362        18.852     -2340.364       172.601         1.001
  168.450  699.750         0.359       238.366       299.818       261.608        19.264     -2341.000       172.702         1.001
  168.500  699.962         0.343       240.505       295.545       259.575        19.792     -2341.909       172.807         0.999
  168.550  700.160         0.339       239.490       290.818       227.980        20.140     -2343.000       172.924         1.000
  168.600  700.367         0.345       228.807       286.364       238.772        19.784     -2343.364       173.033         0.999
  168.650  700.576         0.344       224.142       282.182       243.539        19.910     -2344.091       173.136         0.999
  168.700  700.793         0.369       214.373       278.091       253.410        19.466     -2345.455       173.238         1.000
  168.750  700.995         0.360       208.909       274.182       226.244        20.715     -2346.545       173.335         0.999
  168.800  701.203         0.359       218.205       270.000       249.779        23.093     -2347.455       173.439         1.001
  168.850  701.418         0.334       217.932       265.727       250.158        22.178     -2348.636       173.545         1.000
  168.900  701.612         0.379       211.557       261.455       256.638        22.939     -2349.273       173.649         0.998
  168.950  701.825         0.364       206.467       256.727       229.117        23.882     -2350.091       173.765         0.998
  169.000  702.027         0.365       206.348       252.091       196.620        24.326     -2350.273       173.878         0.999
  169.050  702.228         0.387       208.292       247.545       194.799        26.102     -2355.636       174.000         1.001
  169.100  702.438         0.400       213.721       243.909       222.187        27.370     -2357.000       174.091         0.999
  169.150  702.643         0.450       211.327       239.545       224.688        29.007     -2357.364       174.197         1.002
  169.200  702.841         0.467       219.321       235.000       216.804        30.308     -2357.545       174.307         1.001
  169.250  703.042         0.450       218.535       230.455       217.700        27.838     -2357.545       174.417         1.002
  169.300  703.253         0.464       224.840       225.909       244.233        27.366     -2358.000       174.527         1.004
  169.350  703.442         0.501       223.137       221.364       246.047        27.255     -2358.727       174.639         1.002
  169.400  703.652         0.517       215.279       217.182       254.007        26.907     -2359.545       174.741         1.005
  169.450  703.853         0.470       225.056       213.364       244.324        26.490     -2360.364       174.835         1.004
  169.500  704.051         0.505       234.296       209.909       267.894        25.420     -2360.000       174.918         1.003
  169.550  704.259         0.497       236.140       206.000       298.875        26.403     -2361.182       175.015         1.005
  169.600  704.455         0.485       229.047       202.000       273.327        27.236     -2357.000       175.102         1.005
  169.650  704.650         0.483       229.657       197.818       272.817        27.771     -2356.182       175.201         1.004
  169.700  704.850         0.418       224.096       194.455       245.733        28.686     -2356.727       175.283         1.003
  169.750  705.061         0.425       218.796       190.818       251.122        28.104     -2357.273       175.372         1.005
  169.800  705.252         0.477       213.615       187.000       223.667        28.548     -2357.182       175.464         1.003
  169.850  705.462         0.455       207.899       183.182       196.749        27.216     -2357.273       175.557         1.001
  169.900  705.659         0.431       203.940       178.455       200.823        26.272     -2358.091       175.672         1.004
  169.950  705.859         0.420       188.726       172.818       183.445        25.004     -2357.364       175.807         1.002
  170.000  706.069         0.409       190.217       167.000       182.095        24.255     -2357.818       175.948         1.006
  170.050  706.271         0.398       185.062       161.091       187.395        23.367     -2358.636       176.093         1.005
  170.100  706.469         0.413       178.081       155.545       161.782        25.004     -2358.818       176.227         1.004
  170.150  706.669         0.433       190.753       150.545       181.959        25.032     -2358.727       176.348         1.002
  170.200  706.880         0.431       182.790       145.182       157.325        24.255     -2358.909       176.478         1.003
  170.250  707.071         0.442       191.110       139.818       181.863        23.660     -2359.909       176.609         1.004
  170.300  707.282         0.461       190.004       134.818       183.090        23.355     -2360.636       176.731         1.001
  170.350  707.486         0.395       192.321       129.727       213.625        24.187     -2361.091       176.855         1.006
  170.400  707.692         0.410       202.050       124.545       236.749        24.980     -2361.364       176.981         1.005
  170.450  707.903         0.440       201.306       119.455       237.616        24.231     -2361.364       177.104         1.004
  170.500  708.109         0.441       217.159       114.727       254.606        23.093     -2361.727       177.219         1.005
  170.550  708.310         0.462       193.582       110.000       245.570        24.675     -2362.545       177.334         1.003
