#Written by Robertson Geologging WinLogger V1.5/498
~VERSION INFORMATION
#------------------------------------------------------------------------------
 VERS. 2.0 : CWLS LOG ASCII STANDARD - VERSION 2.0
 WRAP. NO  : ONE LINE PER DEPTH STEP
~WELL INFORMATION
#MNEM.UNIT         DATA                                DESCRIPTION OF MNEMONIC
#------------------------------------------------------------------------------
 STRT.FT         0.1000                            :   START DEPTH
 STOP.FT       250.0000                            :   STOP DEPTH
 STEP.FT         0.0500                            :   STEP VALUE
 NULL.        -999.2500                            :   NULL VALUE
 COMP.    Eaton Pumps Sales & Humility             :   COMPANY NAME
 WELL.    N/A                                      :   WELL NAME
 FLD.     N/A                                      :   FIELD NAME
 LOC.     N/A                                      :   LOCATION
 PROV.    N/A                                      :   PROVINCE
 SRVC.    N/A                                      :   SERVICE COMPANY NAME
 DATE.    02 Nov 16                                :   DATE
 UWI.     N/A                                      :   UNIQUE WELL IDENTIFIER
~PARAMETER INFORMATION
#MNEMO.UNIT         VALUE                 DESCRIPTION OF MNEMONIC
#------------------------------------------------------------------------------
~OTHER INFORMATION SECTION
#------------------------------------------------------------------------------
 T=45
 B=125k
 p=25
 d=15
 g=0
 3rd party winch coax
 RE,RS,JH
~CURVE INFORMATION
#MNEMO.UNIT         API CODE              CURVE DESCRIPTION
#------------------------------------------------------------------------------
 DEPTH.FT                                :   0     Depth
 TIME.SEC                                :   1     Time
 INCL.DEG                                :   2     Borehole Inclination
 RB.DEG                                  :   3     Relative Bearing
 GR_S.CPS                                :   4     Gyro Resolver Sine
 GAZM.DEG                                :   5     Gyro Borehole Azimuth
 NGAM.CPS                                :   6     Natural Gamma
 GR_C.CPS                                :   7     Gyro Resolver Cosine
 GTF.Deg                                 :   8     Gyro Tool Face
 GTOT.CPS                                :   9     Total G Field
#------------------------------------------------------------------------------
~A  DEPTH     TIME          INCL            RB          GR_S          GAZM          NGAM          GR_C           GTF          GTOT
# ...
   21.800  102.603         0.632       201.895     -1705.364       301.242        27.919      1274.545       306.773         1.000
   21.850  102.802         0.659       179.797     -1704.182       290.665        27.741      1276.091       306.826         0.999
   21.900  103.013         0.631       152.073     -1703.364       285.722        26.135      1278.273       306.886         1.000
   21.950  103.221         0.594       131.418     -1702.364       273.711        25.600      1280.364       306.947         1.000
   22.000  103.425         0.594       132.824     -1701.000       272.369        25.156      1282.273       307.011         0.999
   22.050  103.631         0.683       163.671     -1699.727       274.303        23.381      1283.818       307.065         1.001
   22.100  103.836         0.695       137.521     -1699.182       267.762        22.646      1285.091       307.101         1.000
   22.150  104.035         0.747       111.399     -1698.909       261.192        21.120      1286.545       307.137         1.001
   22.200  104.230         0.755       109.477     -1694.636       263.172        18.742      1286.000       307.194         1.001
   22.250  104.434         0.755       111.261     -1694.182       261.426        18.329      1287.455       307.233         1.000
   22.300  104.627         0.791       107.797     -1690.000       264.989        20.827      1288.909       307.332         1.001
   22.350  104.831         0.840       101.910     -1688.455       270.940        20.771      1290.727       307.396         1.000
   22.400  105.028         0.884       128.210     -1686.909       277.420        19.637      1292.000       307.448         1.000
   22.450  105.228         0.900       128.923     -1686.000       276.755        20.053      1293.545       307.496         1.000
   22.500  105.424         0.993       152.917     -1685.273       285.537        19.165      1295.273       307.545         0.999
   22.550  105.628         1.017       151.989     -1684.273       286.524        18.638      1297.273       307.604         1.000
   22.600  105.829         0.967       149.945     -1684.091       288.606        19.082      1298.909       307.642         0.999
   22.650  106.031         0.949       177.050     -1682.818       294.300        18.971      1301.273       307.714         0.999
   22.700  106.237         0.948       175.450     -1680.727       295.978        21.052      1303.273       307.791         0.998
   22.750  106.439         0.977       152.763     -1679.727       285.979        22.352      1304.455       307.833         0.999
   22.800  106.640         0.911       181.143     -1678.455       290.387        22.352      1306.364       307.894         0.999
   22.850  106.838         0.903       178.581     -1677.545       293.000        23.240      1308.000       307.944         0.998
   22.900  107.043         0.952       182.684     -1676.273       288.958        23.684      1309.909       308.005         0.998
   22.950  107.244         0.949       151.699     -1675.091       287.305        23.327      1313.182       308.094         0.998
   23.000  107.446         0.943       179.162     -1673.091       292.665        22.356      1316.182       308.191         0.999
   23.050  107.650         0.867       150.529     -1670.818       288.684        24.132      1319.727       308.304         0.999
   23.100  107.846         0.961       148.196     -1669.182       291.121        26.986      1323.364       308.408         0.999
   23.150  108.056         0.964       120.552     -1666.636       286.147        24.964      1326.545       308.517         0.998
   23.200  108.259         1.016        92.643     -1666.091       281.390        25.908      1329.000       308.578         0.999
   23.250  108.462         1.009        95.331     -1665.182       278.757        24.925      1330.909       308.634         1.000
   23.300  108.668         0.987       117.193     -1663.545       289.686        23.732      1332.636       308.697         0.998
   23.350  108.866         1.033        87.508     -1662.636       286.694        23.704      1334.273       308.747         0.999
   23.400  109.077         0.966       115.957     -1661.636       291.027        23.992      1336.091       308.802         0.998
   23.450  109.275         0.911       137.077     -1661.273       269.929        22.605      1336.818       308.823         0.999
   23.500  109.485         0.918       163.134     -1661.818       243.856        21.384      1336.545       308.809         0.997
   23.550  109.682         1.006       134.765     -1662.273       239.493        19.830      1336.636       308.803         0.999
   23.600  109.894         1.059       136.311     -1662.636       237.917        21.128      1335.545       308.774         0.999
   23.650  110.095         0.938       166.647     -1663.182       240.271        22.191      1334.182       308.736         1.000
   23.700  110.294         0.891       165.612     -1663.818       241.295        22.191      1334.182       308.725         1.000
   23.750  110.501         0.857       187.146     -1663.273       219.754        22.552      1333.364       308.717         0.999
   23.800  110.693         0.862       213.222     -1663.455       226.385        22.909      1332.545       308.697         1.000
   23.850  110.906         0.919       187.483     -1663.909       219.379        24.324      1332.091       308.680         1.000
   23.900  111.100         0.929       217.464     -1664.182       222.104        23.880      1331.273       308.658         0.998
   23.950  111.312         0.930       186.640     -1664.909       220.173        23.684      1330.545       308.631         1.001
   24.000  111.507         0.851       171.707     -1668.091       235.100        25.111      1332.818       308.625         0.998
   24.050  111.722         0.776       149.358     -1668.727       257.448        25.111      1333.273       308.624         1.001
   24.100  111.925         0.652       145.853     -1668.727       260.947        26.332      1333.000       308.618         0.999
   24.150  112.128         0.676       172.487     -1668.818       267.048        27.220      1333.455       308.626         0.999
   24.200  112.339         0.681       165.503     -1668.545       241.329        28.052      1334.364       308.650         0.998
   24.250  112.537         0.748       195.063     -1668.273       244.506        26.515      1334.636       308.660         0.998
   24.300  112.745         0.768       197.550     -1668.545       242.024        26.515      1335.091       308.665         0.998
   24.350  112.942         0.760       173.639     -1668.909       233.211        26.959      1335.545       308.669         0.998
   24.400  113.147         0.721       175.149     -1669.182       231.703        26.959      1335.818       308.670         0.998
   24.450  113.352         0.667       146.405     -1668.909       227.747        25.662      1336.909       308.697         1.000
   24.500  113.555         0.696       176.780     -1668.636       230.123        25.958      1337.818       308.721         0.997
   24.550  113.759         0.796       198.641     -1664.727       241.020        25.958      1336.182       308.752         1.001
   24.600  113.958         0.823       197.491     -1663.545       242.247        27.373      1338.909       308.828         1.000
   24.650  114.164         0.869       200.332     -1663.273       239.406        27.565      1338.727       308.829         0.998
   24.700  114.362         0.856       169.841     -1663.727       237.151        27.815      1338.182       308.810         1.001
   24.750  114.570         0.839       146.329     -1664.455       260.630        28.564      1337.182       308.777         0.997
   24.800  114.763         0.842       120.031     -1664.636       254.163        25.906      1335.545       308.740         1.000
   24.850  114.969         0.870        94.005     -1664.818       280.193        25.252      1335.909       308.744         0.999
