#Written by Robertson Geologging WinLogger V1.5/498
~VERSION INFORMATION
#------------------------------------------------------------------------------
 VERS. 2.0 : CWLS LOG ASCII STANDARD - VERSION 2.0
 WRAP. NO  : ONE LINE PER DEPTH STEP
~WELL INFORMATION
#MNEM.UNIT         DATA                                DESCRIPTION OF MNEMONIC
#------------------------------------------------------------------------------
 STRT.FT         0.1000                            :   START DEPTH
 STOP.FT       250.0000                            :   STOP DEPTH
 STEP.FT         0.0500                            :   STEP VALUE
 NULL.        -999.2500                            :   NULL VALUE
 COMP.    Eaton Pumps Sales & Humility             :   COMPANY NAME
 WELL.    N/A                                      :   WELL NAME
 FLD.     N/A                                      :   FIELD NAME
 LOC.     N/A                                      :   LOCATION
 PROV.    N/A                                      :   PROVINCE
 SRVC.    N/A                                      :   SERVICE COMPANY NAME
 DATE.    02 Nov 16                                :   DATE
 UWI.     N/A                                      :   UNIQUE WELL IDENTIFIER
~PARAMETER INFORMATION
#MNEMO.UNIT         VALUE                 DESCRIPTION OF MNEMONIC
#------------------------------------------------------------------------------
~OTHER INFORMATION SECTION
#------------------------------------------------------------------------------
 T=45
 B=125k
 p=25
 d=15
 g=0
 3rd party winch coax
 RE,RS,JH
~CURVE INFORMATION
#MNEMO.UNIT         API CODE              CURVE DESCRIPTION
#------------------------------------------------------------------------------
 DEPTH.FT                                :   0     Depth
 TIME.SEC                                :   1     Time
 INCL.DEG                                :   2     Borehole Inclination
 RB.DEG                                  :   3     Relative Bearing
 GR_S.CPS                                :   4     Gyro Resolver Sine
 GAZM.DEG                                :   5     Gyro Borehole Azimuth
 NGAM.CPS                                :   6     Natural Gamma
 GR_C.CPS                                :   7     Gyro Resolver Cosine
 GTF.Deg                                 :   8     Gyro Tool Face
 GTOT.CPS                                :   9     Total G Field
#------------------------------------------------------------------------------
~A  DEPTH     TIME          INCL            RB          GR_S          GAZM          NGAM          GR_C           GTF          GTOT
# ...
  152.000  632.867         0.483       169.618      1401.182       232.919        20.109     -1713.091       140.718         1.000
  152.050  633.073         0.520       166.228      1398.818       236.413        20.109     -1716.545       140.822         0.999
  152.100  633.288         0.509       160.238      1395.364       209.791        19.570     -1719.364       140.938         1.000
  152.150  633.494         0.502       171.556      1393.182       231.320        18.321     -1724.000       141.057         0.999
  152.200  633.699         0.501       171.869      1390.455       231.103        19.153     -1726.545       141.154         1.000
  152.250  633.911         0.520       175.019      1388.091       260.825        19.153     -1732.636       141.299         0.999
  152.300  634.124         0.521       174.716      1385.273       261.171        19.625     -1731.727       141.341         0.999
  152.350  634.323         0.483       166.495      1382.636       236.754        19.542     -1734.000       141.431         1.000
  152.400  634.536         0.514       165.381      1379.545       237.976        20.017     -1736.818       141.539         0.999
  152.450  634.748         0.580       170.652      1376.455       232.818        20.850     -1739.909       141.651         0.998
  152.500  634.945         0.656       166.661      1373.273       236.926        20.406     -1743.182       141.769         0.999
  152.550  635.156         0.636       177.602      1373.000       258.784        22.626     -1747.364       141.840         0.998
  152.600  635.360         0.603       183.650      1369.818       252.863        21.876     -1751.273       141.967         0.998
  152.650  635.565         0.613       185.786      1367.000       283.578        23.236     -1755.455       142.091         0.998
  152.700  635.769         0.607       182.980      1363.545       286.486        23.208     -1757.455       142.193         0.998
  152.750  635.975         0.603       178.056      1360.364       258.799        23.680     -1760.727       142.310         0.997
  152.800  636.165         0.580       177.054      1357.182       259.876        24.568     -1761.364       142.385         0.997
  152.850  636.373         0.543       180.513      1353.273       256.551        23.680     -1764.818       142.519         0.997
  152.900  636.573         0.549       186.372      1349.182       283.562        25.456     -1768.545       142.661         0.996
  152.950  636.765         0.485       177.379      1346.000       259.947        25.900     -1772.000       142.781         0.996
  153.000  636.971         0.461       172.558      1343.455       264.870        25.900     -1775.182       142.883         0.998
  153.050  637.166         0.390       165.896      1341.000       271.635        26.399     -1778.545       142.985         0.996
  153.100  637.369         0.422       164.928      1334.727       272.769        25.511     -1781.091       143.152         0.998
  153.150  637.571         0.430       158.955      1331.455       278.851        25.067     -1783.727       143.260         0.996
  153.200  637.774         0.420       162.565      1327.909       275.357        26.039     -1786.545       143.377         0.997
  153.250  637.967         0.448       168.828      1325.182       269.197        24.612     -1789.545       143.479         0.997
  153.300  638.181         0.466       182.169      1322.182       288.693        24.076     -1792.727       143.590         0.997
  153.350  638.387         0.502       183.500      1319.000       287.471        23.632     -1795.545       143.699         0.999
  153.400  638.581         0.571       182.357      1316.182       288.723        20.969     -1798.818       143.807         0.998
  153.450  638.794         0.560       185.265      1313.545       285.914        19.637     -1801.727       143.906         0.999
  153.500  638.993         0.581       198.862      1311.000       305.140        18.694     -1804.545       144.001         1.000
  153.550  639.197         0.543       202.232      1308.000       301.876        18.721     -1807.455       144.108         0.999
  153.600  639.402         0.590       205.923      1304.636       298.312        18.721     -1811.273       144.235         1.000
  153.650  639.609         0.604       203.994      1301.364       300.330        18.277     -1812.636       144.324         0.997
  153.700  639.805         0.605       202.818      1298.636       301.606        17.806     -1815.545       144.424         1.000
  153.750  640.021         0.594       196.349      1296.000       275.443        17.362     -1818.273       144.520         1.000
  153.800  640.228         0.566       192.660      1293.000       279.234        19.137     -1820.909       144.622         1.000
  153.850  640.424         0.541       187.807      1290.273       284.181        20.497     -1823.364       144.715         1.002
  153.900  640.641         0.501       186.173      1286.818       285.928        19.165     -1826.091       144.828         1.000
  153.950  640.840         0.461       170.798      1283.818       268.680        19.110     -1828.909       144.933         1.003
  154.000  641.048         0.488       167.606      1280.364       271.985        19.554     -1831.636       145.045         1.000
  154.050  641.249         0.470       167.628      1277.182       272.079        19.998     -1835.000       145.161         1.000
  154.100  641.456         0.445       150.300      1273.818       256.804        22.217     -1838.636       145.285         1.001
  154.150  641.651         0.413       146.524      1270.636       227.952        20.671     -1840.909       145.385         0.999
  154.200  641.863         0.382       144.185      1268.000       230.394        23.113     -1844.182       145.488         1.002
  154.250  642.068         0.373       160.774      1264.818       213.909        23.844     -1846.636       145.591         0.999
  154.300  642.259         0.383       165.125      1261.909       242.390        25.176     -1849.727       145.697         1.000
  154.350  642.473         0.410       153.898      1258.727       220.998        25.176     -1852.545       145.805         0.999
  154.400  642.670         0.406       151.592      1256.000       223.410        24.732     -1855.909       145.911         0.998
  154.450  642.873         0.403       153.897      1254.091       221.181        24.732     -1858.364       145.987         1.000
  154.500  643.076         0.373       159.182      1251.545       215.985        24.425     -1860.818       146.076         0.998
  154.550  643.277         0.356       156.023      1249.455       186.501        26.598     -1863.636       146.160         1.001
  154.600  643.481         0.372       154.001      1246.818       188.611        24.739     -1865.909       146.249         1.002
  154.650  643.681         0.402       166.975      1244.364       208.440        24.295     -1867.545       146.324         1.000
  154.700  643.887         0.448       171.390      1241.909       236.824        24.184     -1869.000       146.397         1.002
  154.750  644.082         0.459       175.672      1239.909       232.608        25.017     -1870.545       146.461         1.000
  154.800  644.293         0.459       169.736      1238.273       238.604        27.292     -1872.364       146.522         1.001
  154.850  644.485         0.446       169.972      1236.000       238.437        27.292     -1873.818       146.591         1.000
  154.900  644.687         0.452       181.451      1233.818       259.759        25.461     -1875.818       146.665         1.000
  154.950  644.892         0.488       184.374      1230.909       256.917        24.573     -1877.091       146.745         1.000
  155.000  645.090         0.486       185.629      1228.818       255.754        24.573     -1880.545       146.838         0.999
  155.050  645.295         0.519       193.272      1226.455       280.923        22.575     -1883.000       146.922         0.999
