~VERSION INFORMATION
VERS .     2.0     : CWLS LOG ASCII STANDARD - VERSION 2.0
WRAP .     NO      : ONE LINE PER 1 DEPTH STEPS
~WELL INFORMATION
#MNEM.UNIT       DATA                  DESCRIPTION OF MNEMONIC
#---- ----       ----                  -----------------------
STRT .ft            0.100                  :START DEPTH
STOP .ft          250.000                  :STOP DEPTH
STEP .ft            0.050                  :STEP
NULL .          -999.2500                  :NULL VALUE
COMP .     Eaton Pumps Sales & Humility    :COMPANY
WELL .                                     :WELL
FLD  .                                     :FIELD
LOC  .                                     :LOCATION
PROV .                                     :COUNTRY
SRVC .                                     :SERVICE COMPANY
DATE .     02 Nov 16                       :LOG DATE
UWI  .                                     :UNIQUE WELL ID
~OTHER INFORMATION SECTION
#-------------------------
North ref is Magnetic
Mean deviation: 0.56 to N307.40
End deviation components .....
     North: 1.494
     East : -1.954
     Down : 249.825
Azimuth of end: N307.39
Distance start-end: 2.460ft
Comment1: T
Comment2: B
Comment3: p
Comment4: d
Comment5: g
Comment6: 3rd party winch coax
Comment7: RE,RS,JH
~CURVE INFORMATION
#MNEM.UNIT      API CODES       CURVE DESCRIPTION
#---- ----      ---------       -----------------
DEPT .ft                          : 1 DEPTH
DEVN .ft                          : 2 DEVIATION COMPONENT NORTH
DEVE .ft                          : 3 DEVIATION COMPONENT EAST
DEVD .ft                          : 4 DEVIATION COMPONENT DOWN
AZIM .deg                         : 5 DEVIATION AZIMUTH
DEV  .deg                         : 6 DEVIATION FROM VERTICAL DOWN
~A DEPT         DEVN        DEVE        DEVD      AZIM       DEV
# ...
  225.800       1.446      -1.676     225.678    280.05      0.75
  225.850       1.447      -1.677     225.728    304.17      1.00
  225.900       1.447      -1.677     225.778    288.47      0.62
  225.950       1.448      -1.678     225.828    309.96      0.95
  226.000       1.447      -1.678     225.878    243.82      0.87
  226.050       1.447      -1.679     225.928    295.48      0.52
  226.100       1.448      -1.680     225.978    271.86      1.02
  226.150       1.448      -1.681     226.028    284.29      1.22
  226.200       1.448      -1.681     226.078    298.99      0.66
  226.250       1.447      -1.682     226.128    234.88      1.66
  226.300       1.447      -1.682     226.178    110.20      0.38
  226.350       1.447      -1.683     226.228    291.77      1.05
  226.400       1.448      -1.684     226.278    281.06      1.32
  226.450       1.448      -1.685     226.328    277.72      1.00
  226.500       1.448      -1.686     226.378    290.85      0.96
  226.550       1.448      -1.687     226.428    279.47      0.90
  226.600       1.448      -1.687     226.478    291.54      0.77
  226.650       1.449      -1.688     226.528    289.84      0.46
  226.700       1.450      -1.689     226.578    313.71      2.14
  226.750       1.450      -1.689     226.628    226.71      0.50
  226.800       1.450      -1.690     226.678    314.19      1.11
  226.850       1.450      -1.691     226.728    243.38      1.11
  226.900       1.450      -1.691     226.778    260.54      0.81
  226.950       1.449      -1.692     226.828    220.97      0.42
  227.000       1.450      -1.692     226.878    299.62      0.57
  227.050       1.450      -1.693     226.928    274.33      0.40
  227.100       1.449      -1.694     226.978    260.75      1.76
  227.150       1.450      -1.695     227.028    296.70      1.16
  227.200       1.450      -1.695     227.078     77.15      0.13
  227.250       1.450      -1.696     227.128    283.33      1.12
  227.300       1.450      -1.696     227.178    253.42      0.46
  227.350       1.450      -1.697     227.228    270.79      1.09
  227.400       1.450      -1.698     227.278    262.91      0.60
  227.450       1.451      -1.698     227.328    304.52      1.17
  227.500       1.451      -1.699     227.378    273.55      0.72
  227.550       1.452      -1.700     227.428    330.36      1.62
  227.600       1.452      -1.701     227.478    275.94      1.06
  227.650       1.452      -1.702     227.528    294.08      1.01
  227.700       1.453      -1.702     227.578    314.99      0.59
  227.750       1.453      -1.703     227.628    303.96      1.38
  227.800       1.453      -1.703     227.678    201.19      0.53
  227.850       1.453      -1.704     227.728    263.49      1.28
  227.900       1.453      -1.705     227.778    304.32      0.80
  227.950       1.453      -1.705     227.828    211.52      0.83
  228.000       1.453      -1.706     227.878    302.33      1.51
  228.050       1.454      -1.707     227.928    292.31      0.86
  228.100       1.454      -1.708     227.978    287.81      1.64
  228.150       1.455      -1.709     228.028    313.05      1.12
  228.200       1.454      -1.710     228.078    262.64      1.65
  228.250       1.455      -1.711     228.128    292.03      0.92
  228.300       1.455      -1.712     228.178    295.12      0.86
  228.350       1.456      -1.713     228.228    313.10      1.51
  228.400       1.456      -1.713     228.278    243.66      0.56
  228.450       1.455      -1.714     228.328    218.22      0.58
  228.500       1.456      -1.715     228.378    304.62      1.82
  228.550       1.456      -1.715     228.428    159.06      0.82
  228.600       1.455      -1.715     228.478    221.96      1.39
  228.650       1.455      -1.716     228.528    293.08      1.29
  228.700       1.455      -1.717     228.578    224.91      0.94
  228.750       1.456      -1.718     228.628    310.71      2.15
  228.800       1.456      -1.718     228.678    134.42      0.07
  228.850       1.456      -1.720     228.728    295.28      1.88
  228.900       1.457      -1.720     228.778    287.76      0.71
  228.950       1.456      -1.720     228.828    114.53      0.35
  229.000       1.457      -1.722     228.877    303.46      2.05
  229.050       1.458      -1.723     228.927    302.52      1.22
  229.100       1.458      -1.723     228.977    289.03      0.78
  229.150       1.459      -1.724     229.027    304.08      0.92
  229.200       1.459      -1.725     229.077    289.49      0.78
  229.250       1.459      -1.725     229.127    196.91      0.52
  229.300       1.458      -1.725     229.177    214.35      0.74
  229.350       1.458      -1.726     229.227    259.96      0.97
  229.400       1.458      -1.726     229.277    316.23      0.93
  229.450       1.459      -1.727     229.327    308.89      1.03
  229.500       1.459      -1.728     229.377    283.86      1.03
  229.550       1.459      -1.728     229.427    274.58      0.56
  229.600       1.459      -1.730     229.477    244.87      1.32
  229.650       1.459      -1.730     229.527    315.35      0.70
  229.700       1.460      -1.731     229.577    319.09      1.24
  229.750       1.460      -1.731     229.627    299.28      0.82
  229.800       1.460      -1.732     229.677    270.26      0.57
  229.850       1.460      -1.732     229.727    257.00      0.71
  229.900       1.461      -1.733     229.777    288.49      1.07
  229.950       1.461      -1.734     229.827    295.52      0.90
  230.000       1.461      -1.735     229.877    282.24      0.92
  230.050       1.461      -1.735     229.927    334.90      0.57
  230.100       1.462      -1.736     229.977    301.27      0.78
  230.150       1.462      -1.736     230.027    299.30      0.95
  230.200       1.462      -1.737     230.077    286.16      0.34
  230.250       1.462      -1.737     230.127    278.98      0.59
  230.300       1.463      -1.738     230.177    305.98      0.71
  230.350       1.463      -1.738     230.227    243.61      0.66
  230.400       1.463      -1.739     230.277    302.86      1.01
  230.450       1.463      -1.740     230.327    275.75      1.01
  230.500       1.463      -1.741     230.377    292.14      1.06
  230.550       1.463      -1.741     230.427    272.76      0.93
  230.600       1.463      -1.742     230.477    224.86      1.26
  230.650       1.463      -1.743     230.527    315.09      0.86
  230.700       1.462      -1.743     230.577    207.86      1.08
  230.750       1.463      -1.744     230.627    295.50      1.43
  230.800       1.463      -1.745     230.677    281.88      0.81
  230.850       1.463      -1.745     230.727    228.01      0.66
  230.900       1.463      -1.746     230.777    298.37      0.98
  230.950       1.464      -1.747     230.827    314.55      0.96
  231.000       1.464      -1.747     230.877    290.64      0.55
  231.050       1.464      -1.748     230.927    289.64      0.93
  231.100       1.464      -1.749     230.977    250.88      1.25
  231.150       1.464      -1.750     231.027    294.83      0.93
  231.200       1.464      -1.751     231.077    287.73      1.06
  231.250       1.465      -1.751     231.127    287.86      0.63
  231.300       1.465      -1.752     231.177    302.42      0.80
  231.350       1.465      -1.753     231.227    274.70      1.35
  231.400       1.466      -1.753     231.277    329.60      0.73
  231.450       1.466      -1.754     231.327    265.49      0.65
  231.500       1.466      -1.754     231.377    296.81      0.67
  231.550       1.466      -1.755     231.427    311.61      1.02
  231.600       1.466      -1.756     231.477    228.77      0.92
  231.650       1.466      -1.756     231.527    275.50      1.02
  231.700       1.466      -1.757     231.577    253.83      0.92
  231.750       1.466      -1.758     231.627    313.70      1.07
  231.800       1.467      -1.758     231.677    308.56      0.69
  231.850       1.466      -1.759     231.727    226.29      0.87
