~VERSION INFORMATION
VERS .     2.0     : CWLS LOG ASCII STANDARD - VERSION 2.0
WRAP .     NO      : ONE LINE PER 1 DEPTH STEPS
~WELL INFORMATION
#MNEM.UNIT       DATA                  DESCRIPTION OF MNEMONIC
#---- ----       ----                  -----------------------
STRT .ft            0.100                  :START DEPTH
STOP .ft          250.000                  :STOP DEPTH
STEP .ft            0.050                  :STEP
NULL .          -999.2500                  :NULL VALUE
COMP .     Eaton Pumps Sales & Humility    :COMPANY
WELL .                                     :WELL
FLD  .                                     :FIELD
LOC  .                                     :LOCATION
PROV .                                     :COUNTRY
SRVC .                                     :SERVICE COMPANY
DATE .     02 Nov 16                       :LOG DATE
UWI  .                                     :UNIQUE WELL ID
~OTHER INFORMATION SECTION
#-------------------------
North ref is Magnetic
Mean deviation: 0.56 to N307.40
End deviation components .....
     North: 1.494
     East : -1.954
     Down : 249.825
Azimuth of end: N307.39
Distance start-end: 2.460ft
Comment1: T
Comment2: B
Comment3: p
Comment4: d
Comment5: g
Comment6: 3rd party winch coax
Comment7: RE,RS,JH
~CURVE INFORMATION
#MNEM.UNIT      API CODES       CURVE DESCRIPTION
#---- ----      ---------       -----------------
DEPT .ft                          : 1 DEPTH
DEVN .ft                          : 2 DEVIATION COMPONENT NORTH
DEVE .ft                          : 3 DEVIATION COMPONENT EAST
DEVD .ft                          : 4 DEVIATION COMPONENT DOWN
AZIM .deg                         : 5 DEVIATION AZIMUTH
DEV  .deg                         : 6 DEVIATION FROM VERTICAL DOWN
~A DEPT         DEVN        DEVE        DEVD      AZIM       DEV
# ...
  195.300       1.385      -1.274     195.182    348.77      0.53
  195.350       1.386      -1.275     195.232    288.47      0.68
  195.400       1.387      -1.275     195.282    329.26      1.19
  195.450       1.387      -1.277     195.332    299.01      1.79
  195.500       1.387      -1.277     195.382    276.39      0.65
  195.550       1.387      -1.277     195.432    292.02      0.21
  195.600       1.387      -1.278     195.482    270.83      1.09
  195.650       1.387      -1.278     195.532    211.55      0.18
  195.700       1.388      -1.279     195.582    322.26      1.28
  195.750       1.388      -1.280     195.632    240.65      0.85
  195.800       1.388      -1.281     195.682    294.97      1.15
  195.850       1.388      -1.280     195.732    153.65      0.46
  195.900       1.388      -1.281     195.782    231.21      0.34
  195.950       1.389      -1.282     195.832    314.08      1.54
  196.000       1.389      -1.282     195.882    290.24      0.54
  196.050       1.389      -1.282     195.932    274.62      0.28
  196.100       1.388      -1.282     195.982    187.77      1.24
  196.150       1.388      -1.283     196.032    221.51      0.37
  196.200       1.388      -1.283     196.082    339.10      1.09
  196.250       1.389      -1.283     196.132    295.54      0.42
  196.300       1.389      -1.284     196.182    315.35      1.30
  196.350       1.389      -1.284     196.232    212.68      0.66
  196.400       1.389      -1.285     196.282    274.07      0.89
  196.450       1.390      -1.286     196.332    334.79      1.54
  196.500       1.390      -1.286     196.382    251.41      0.46
  196.550       1.390      -1.286     196.432    256.65      0.32
  196.600       1.390      -1.287     196.482    262.41      0.68
  196.650       1.391      -1.287     196.532    355.61      0.92
  196.700       1.390      -1.288     196.582    249.26      1.17
  196.750       1.390      -1.289     196.632    282.76      0.79
  196.800       1.391      -1.289     196.682    339.90      0.72
  196.850       1.391      -1.289     196.732    234.29      0.82
  196.900       1.391      -1.290     196.782    274.85      0.20
  196.950       1.391      -1.290     196.832    314.61      0.85
  197.000       1.392      -1.291     196.882    320.72      0.65
  197.050       1.392      -1.291     196.932    337.28      1.09
  197.100       1.393      -1.292     196.982    272.62      1.61
  197.150       1.393      -1.293     197.032    302.44      1.44
  197.200       1.393      -1.294     197.082    276.07      1.03
  197.250       1.393      -1.295     197.132    251.90      0.82
  197.300       1.393      -1.295     197.182    334.05      0.38
  197.350       1.393      -1.295     197.232    157.56      0.07
  197.400       1.394      -1.296     197.282    298.08      0.83
  197.450       1.394      -1.296     197.332    279.78      0.74
  197.500       1.394      -1.297     197.382    324.05      0.64
  197.550       1.395      -1.297     197.432    324.66      0.54
  197.600       1.394      -1.297     197.482    207.08      1.10
  197.650       1.395      -1.298     197.532    342.98      1.25
  197.700       1.395      -1.298     197.582    237.11      0.63
  197.750       1.395      -1.299     197.632    315.63      1.02
  197.800       1.396      -1.299     197.682    304.98      0.84
  197.850       1.395      -1.300     197.732    254.75      0.88
  197.900       1.396      -1.300     197.782    302.46      0.48
  197.950       1.395      -1.301     197.832    236.93      0.50
  198.000       1.396      -1.302     197.882    294.97      1.51
  198.050       1.396      -1.303     197.932    253.36      0.71
  198.100       1.395      -1.303     197.982    199.28      0.92
  198.150       1.395      -1.303     198.032    249.30      0.57
  198.200       1.396      -1.304     198.082    318.38      1.12
  198.250       1.395      -1.304     198.132    243.14      0.29
  198.300       1.395      -1.305     198.182    267.56      0.93
  198.350       1.396      -1.306     198.232    290.31      0.81
  198.400       1.396      -1.306     198.282    269.50      0.58
  198.450       1.396      -1.307     198.332    278.21      0.92
  198.500       1.396      -1.308     198.382    295.31      0.72
  198.550       1.396      -1.308     198.432    237.41      0.95
  198.600       1.395      -1.309     198.482    240.22      0.62
  198.650       1.396      -1.309     198.532    344.37      1.15
  198.700       1.396      -1.310     198.582    250.12      1.25
  198.750       1.396      -1.311     198.632    292.81      0.57
  198.800       1.397      -1.311     198.682    314.32      1.42
  198.850       1.397      -1.312     198.732    242.02      0.95
  198.900       1.397      -1.313     198.782    335.67      1.17
  198.950       1.397      -1.313     198.832    236.42      0.45
  199.000       1.398      -1.313     198.882    337.32      1.02
  199.050       1.398      -1.314     198.932    269.15      0.72
  199.100       1.398      -1.314     198.982    230.10      0.47
  199.150       1.398      -1.315     199.032    307.87      1.02
  199.200       1.399      -1.316     199.082    324.80      1.38
  199.250       1.399      -1.316     199.132    252.40      0.23
  199.300       1.399      -1.316     199.182    262.19      0.65
  199.350       1.399      -1.317     199.232    257.77      1.09
  199.400       1.399      -1.318     199.282    280.68      0.61
  199.450       1.399      -1.319     199.332    295.59      0.98
  199.500       1.400      -1.319     199.382    274.38      0.71
  199.550       1.400      -1.320     199.432    326.79      0.96
  199.600       1.400      -1.320     199.482    202.04      0.75
  199.650       1.400      -1.320     199.532    310.36      0.56
  199.700       1.400      -1.321     199.582    285.39      0.77
  199.750       1.401      -1.321     199.632    341.50      0.52
  199.800       1.401      -1.321     199.682    343.79      0.94
  199.850       1.401      -1.322     199.732    262.70      0.69
  199.900       1.401      -1.322     199.782    266.26      0.43
  199.950       1.402      -1.323     199.832    305.56      1.25
  200.000       1.402      -1.324     199.882    271.90      0.78
  200.050       1.403      -1.324     199.932    317.25      1.04
  200.100       1.402      -1.325     199.982    265.05      1.24
  200.150       1.403      -1.326     200.032    297.18      1.09
  200.200       1.403      -1.327     200.082    264.72      1.16
  200.250       1.403      -1.328     200.132    238.70      0.46
  200.300       1.403      -1.329     200.182    313.78      1.31
  200.350       1.403      -1.329     200.232    204.98      0.81
  200.400       1.403      -1.329     200.282    321.16      0.64
  200.450       1.403      -1.330     200.332    261.72      0.94
  200.500       1.404      -1.330     200.382    316.57      0.88
  200.550       1.404      -1.331     200.432    285.49      0.87
  200.600       1.403      -1.332     200.482    218.40      1.43
  200.650       1.404      -1.332     200.532    335.38      1.21
  200.700       1.403      -1.333     200.582    186.17      1.35
  200.750       1.403      -1.333     200.632    288.98      0.64
  200.800       1.404      -1.334     200.682    323.45      1.06
  200.850       1.403      -1.334     200.732    240.48      0.65
  200.900       1.403      -1.334     200.782    260.35      0.31
  200.950       1.403      -1.335     200.832    277.22      0.48
  201.000       1.404      -1.335     200.882    340.27      0.47
  201.050       1.404      -1.336     200.932    285.65      1.49
  201.100       1.404      -1.337     200.982    249.60      0.94
  201.150       1.403      -1.338     201.032    253.36      0.98
  201.200       1.403      -1.338     201.082    254.81      0.79
  201.250       1.404      -1.339     201.132    313.02      1.20
  201.300       1.404      -1.340     201.182    272.62      0.87
  201.350       1.404      -1.340     201.232    228.54      0.18
