#Written by Robertson Geologging WinLogger V1.5/498
~VERSION INFORMATION
#------------------------------------------------------------------------------
 VERS. 2.0 : CWLS LOG ASCII STANDARD - VERSION 2.0
 WRAP. NO  : ONE LINE PER DEPTH STEP
~WELL INFORMATION
#MNEM.UNIT         DATA                                DESCRIPTION OF MNEMONIC
#------------------------------------------------------------------------------
 STRT.FT         0.1000                            :   START DEPTH
 STOP.FT       250.0000                            :   STOP DEPTH
 STEP.FT         0.0500                            :   STEP VALUE
 NULL.        -999.2500                            :   NULL VALUE
 COMP.    Eaton Pumps Sales & Humility             :   COMPANY NAME
 WELL.    N/A                                      :   WELL NAME
 FLD.     N/A                                      :   FIELD NAME
 LOC.     N/A                                      :   LOCATION
 PROV.    N/A                                      :   PROVINCE
 SRVC.    N/A                                      :   SERVICE COMPANY NAME
 DATE.    02 Nov 16                                :   DATE
 UWI.     N/A                                      :   UNIQUE WELL IDENTIFIER
~PARAMETER INFORMATION
#MNEMO.UNIT         VALUE                 DESCRIPTION OF MNEMONIC
#------------------------------------------------------------------------------
~OTHER INFORMATION SECTION
#------------------------------------------------------------------------------
 T=45
 B=125k
 p=25
 d=15
 g=0
 3rd party winch coax
 RE,RS,JH
~CURVE INFORMATION
#MNEMO.UNIT         API CODE              CURVE DESCRIPTION
#------------------------------------------------------------------------------
 DEPTH.FT                                :   0     Depth
 TIME.SEC                                :   1     Time
 INCL.DEG                                :   2     Borehole Inclination
 RB.DEG                                  :   3     Relative Bearing
 GR_S.CPS                                :   4     Gyro Resolver Sine
 GAZM.DEG                                :   5     Gyro Borehole Azimuth
 NGAM.CPS                                :   6     Natural Gamma
 GR_C.CPS                                :   7     Gyro Resolver Cosine
 GTF.Deg                                 :   8     Gyro Tool Face
 GTOT.CPS                                :   9     Total G Field
#------------------------------------------------------------------------------
~A  DEPTH     TIME          INCL            RB          GR_S          GAZM          NGAM          GR_C           GTF          GTOT
# ...
  117.900  494.327         0.621        99.815      2015.000       222.604        25.971      -117.182        93.328         1.001
  117.950  494.522         0.631       103.415      2015.545       219.075        27.407      -119.727        93.399         1.000
  118.000  494.731         0.639       102.829      2015.909       186.998        26.963      -122.000        93.463         1.003
  118.050  494.933         0.646        98.342      2016.000       158.809        26.131      -123.818        93.514         1.002
  118.100  495.140         0.684        93.853      2015.727       130.612        25.243      -125.273        93.556         1.002
  118.150  495.345         0.664        95.810      2016.182       128.696        24.410      -126.727        93.597         1.001
  118.200  495.552         0.673       103.310      2016.545       153.969        24.172      -128.364        93.642         1.002
  118.250  495.755         0.690       102.996      2016.455       154.349        24.062      -130.727        93.709         1.002
  118.300  495.962         0.706       107.861      2015.455       182.266        24.240      -132.545        93.763         1.000
  118.350  496.174         0.729       103.986      2020.818       153.476        25.849      -135.182        93.826         1.002
  118.400  496.372         0.750       104.003      2021.455       153.527        24.778      -137.636        93.894         0.999
  118.450  496.579         0.751       102.366      2022.000       122.501        24.778      -139.909        93.957         1.000
  118.500  496.775         0.728       107.372      2021.364       150.300        24.778      -142.636        94.036         0.998
  118.550  496.980         0.752       107.484      2020.636       150.279        25.222      -145.818        94.127         0.999
  118.600  497.182         0.739       108.446      2020.455       182.149        24.778      -149.455        94.230         0.998
  118.650  497.388         0.701       112.914      2020.818       210.484        25.484      -152.182        94.307         0.998
  118.700  497.587         0.695       106.924      2020.364       183.845        24.830      -155.636        94.406         0.999
  118.750  497.794         0.671       101.417      2020.455       189.416        26.245      -157.909        94.470         0.997
  118.800  498.007         0.619       102.951      2020.000       220.655        26.245      -159.455        94.514         0.998
  118.850  498.205         0.624       105.075      2020.091       218.561        26.689      -160.545        94.545         0.998
  118.900  498.418         0.654       104.544      2014.273       219.109        27.521      -160.727        94.562         0.996
  118.950  498.625         0.646       110.139      2013.273       213.517        26.633      -160.727        94.564         0.997
  119.000  498.833         0.657       111.874      2012.818       244.513        26.300      -160.818        94.568         0.996
  119.050  499.042         0.664       106.998      2013.182       216.658        25.265      -160.727        94.565         0.996
  119.100  499.252         0.570       118.574      2014.273       237.796        24.551      -160.364        94.552         0.995
  119.150  499.454         0.583       117.423      2014.455       206.209        25.205      -160.000        94.541         0.996
  119.200  499.670         0.601       116.400      2014.364       207.230        23.152      -159.909        94.539         0.995
  119.250  499.880         0.649       119.145      2014.818       237.206        23.596      -159.727        94.533         0.995
  119.300  500.083         0.641       118.278      2014.818       238.085        24.040      -160.182        94.546         0.994
  119.350  500.297         0.653       121.463      2015.273       234.902        24.040      -160.273        94.547         0.994
  119.400  500.500         0.647       116.866      2015.182       206.783        22.708      -160.636        94.558         0.995
  119.450  500.708         0.619       117.284      2014.909       206.385        21.820      -161.364        94.579         0.995
  119.500  500.914         0.620       110.975      2015.364       179.981        20.044      -161.909        94.593         0.997
  119.550  501.121         0.619       111.540      2015.636       179.432        20.128      -162.455        94.608         0.996
  119.600  501.328         0.619       113.268      2016.273       210.437        18.296      -162.727        94.614         0.996
  119.650  501.531         0.664       103.768      2014.909       219.953        18.296      -163.182        94.630         0.995
  119.700  501.736         0.635       105.477      2015.091       250.976        17.852      -163.364        94.635         0.996
  119.750  501.938         0.638       104.178      2015.000       252.290        17.520      -163.909        94.650         0.996
  119.800  502.147         0.607       106.298      2014.636       250.179        17.963      -164.182        94.659         0.995
  119.850  502.349         0.605       106.190      2015.273       250.298        18.296      -164.636        94.670         0.997
  119.900  502.560         0.619       106.421      2015.636       250.084        19.681      -165.273        94.687         0.996
  119.950  502.759         0.605       114.302      2015.636       274.949        20.061      -165.909        94.705         0.997
  120.000  502.966         0.578       114.401      2015.909       274.870        17.980      -166.636        94.725         0.998
  120.050  503.171         0.586       116.912      2015.909       305.124        17.980      -168.000        94.764         0.996
  120.100  503.375         0.573       114.392      2015.818       274.961        17.092      -169.545        94.808         0.997
  120.150  503.581         0.598       118.417      2014.818       270.995        16.648      -171.545        94.867         0.997
  120.200  503.775         0.566       125.090      2015.455       264.359        17.064      -172.909        94.904         0.998
  120.250  503.984         0.592       123.455      2015.636       233.307        17.064      -174.364        94.944         0.998
  120.300  504.180         0.605       121.796      2015.727       202.280        18.729      -175.818        94.985         0.999
  120.350  504.390         0.622       126.656      2016.182       197.453        18.285      -177.000        95.017         0.999
  120.400  504.591         0.620       127.003      2014.818       197.145        17.841      -178.273        95.056         0.999
  120.450  504.795         0.631       123.068      2014.545       201.124        17.425      -179.818        95.101         0.999
  120.500  505.004         0.612       116.040      2014.000       175.472        16.093      -181.455        95.148         0.998
  120.550  505.205         0.596       111.261      2013.000       180.300        15.205      -183.091        95.197         0.997
  120.600  505.412         0.594       111.628      2013.091       179.956        14.317      -183.909        95.220         0.998
  120.650  505.613         0.639       114.629      2012.727       209.711        15.899      -184.909        95.249         0.998
  120.700  505.822         0.632       107.601      2012.636       184.028        14.678      -185.455        95.265         0.998
  120.750  506.018         0.660       100.025      2012.727       191.626        14.234      -186.273        95.288         0.998
  120.800  506.226         0.628       102.382      2012.909       222.037        14.234      -187.727        95.328         0.998
  120.850  506.426         0.610       106.052      2012.818       251.136        15.566      -189.182        95.369         0.996
  120.900  506.632         0.613        98.026      2012.455       226.471        18.230      -190.455        95.406         0.998
  120.950  506.840         0.674        94.988      2013.182       196.808        19.867      -191.455        95.432         0.997
