~VERSION INFORMATION
VERS .     2.0     : CWLS LOG ASCII STANDARD - VERSION 2.0
WRAP .     NO      : ONE LINE PER 5 DEPTH STEPS
~WELL INFORMATION
#MNEM.UNIT       DATA                  DESCRIPTION OF MNEMONIC
#---- ----       ----                  -----------------------
STRT .ft            0.000                  :START DEPTH
STOP .ft          252.000                  :STOP DEPTH
STEP .ft            0.050                  :STEP
NULL .          -999.2500                  :NULL VALUE
COMP .     Eaton Well Surveys              :COMPANY
WELL .     15                              :WELL
FLD  .     Gated pumphouse in park         :FIELD
LOC  .                                     :LOCATION
PROV .     United States of America        :COUNTRY
SRVC .                                     :SERVICE COMPANY
DATE .     21 Mar 17                       :LOG DATE
UWI  .     15                              :UNIQUE WELL ID
~OTHER INFORMATION SECTION
#-------------------------
North ref is Magnetic
Mean deviation: 1.02 to N245.93
End deviation components .....
     North: -1.821
     East : -4.078
     Down : 251.897
Azimuth of end: N245.94
Distance start-end: 4.466ft
Comment1: T
Comment2: B
Comment3: p
Comment4: d
Comment5: g
Comment6: 3rd party winch coax
Comment7: RE,RS,JH
~CURVE INFORMATION
#MNEM.UNIT      API CODES       CURVE DESCRIPTION
#---- ----      ---------       -----------------
DEPT .ft                          : 1 DEPTH
DEVN .ft                          : 2 DEVIATION COMPONENT NORTH
DEVE .ft                          : 3 DEVIATION COMPONENT EAST
DEVD .ft                          : 4 DEVIATION COMPONENT DOWN
AZIM .deg                         : 5 DEVIATION AZIMUTH
DEV  .deg                         : 6 DEVIATION FROM VERTICAL DOWN
~A DEPT         DEVN        DEVE        DEVD      AZIM       DEV
    0.000       0.000       0.000       0.000    209.68      0.52
    0.200      -0.001      -0.001       0.200    223.96      0.46
    0.500      -0.004      -0.002       0.500    215.98      0.68
    0.750      -0.007      -0.004       0.750    209.75      0.94
    1.000      -0.009      -0.005       1.000    229.96      0.59
    1.200      -0.011      -0.007       1.200    236.44      0.69
    1.450      -0.013      -0.008       1.450    231.24      0.80
    1.700      -0.015      -0.010       1.700    219.76      0.89
    1.950      -0.018      -0.012       1.950    224.11      0.77
    2.200      -0.020      -0.014       2.200    238.61      0.65
    2.450      -0.022      -0.016       2.450    215.83      0.72
    2.700      -0.023      -0.018       2.700    236.50      0.64
    2.950      -0.024      -0.019       2.950    191.84      0.14
    3.200      -0.024      -0.021       3.200    195.58      0.32
    3.450      -0.026      -0.022       3.450    244.60      0.45
    3.700      -0.026      -0.024       3.700    264.89      0.37
    3.950      -0.028      -0.026       3.950    191.74      0.47
    4.250      -0.030      -0.028       4.250    211.15      0.68
    4.500      -0.033      -0.029       4.500    214.74      0.84
    4.750      -0.035      -0.030       4.750    206.67      0.56
    5.000      -0.036      -0.032       5.000    283.14      0.78
    5.250      -0.038      -0.034       5.250    220.25      0.71
    5.500      -0.041      -0.034       5.500    190.34      0.76
    5.750      -0.043      -0.035       5.750    250.93      0.40
    6.000      -0.045      -0.036       6.000    190.37      0.65
    6.250      -0.047      -0.037       6.250    226.36      0.68
    6.500      -0.049      -0.037       6.500    192.75      0.81
    6.750      -0.051      -0.039       6.750    232.71      0.69
    7.000      -0.053      -0.041       7.000    191.27      0.88
    7.250      -0.056      -0.043       7.250    213.67      0.55
    7.500      -0.058      -0.044       7.500    217.46      0.47
    7.750      -0.059      -0.047       7.750    264.25      1.21
    8.000      -0.063      -0.050       7.999    227.74      0.85
    8.250      -0.064      -0.054       8.249    241.69      0.90
    8.500      -0.065      -0.058       8.499    245.30      0.57
    8.750      -0.067      -0.061       8.749    224.52      1.11
    9.000      -0.069      -0.064       8.999    238.45      0.97
    9.250      -0.071      -0.068       9.249    236.68      0.91
    9.500      -0.074      -0.071       9.499    237.02      0.60
    9.750      -0.076      -0.076       9.749    248.05      1.42
   10.000      -0.078      -0.079       9.999    217.91      0.97
   10.250      -0.080      -0.082      10.249    252.01      0.66
   10.500      -0.081      -0.085      10.499    252.78      0.56
   10.750      -0.082      -0.088      10.749    229.54      1.26
   11.000      -0.084      -0.090      10.999    244.79      1.26
   11.250      -0.085      -0.094      11.249    254.92      0.86
   11.500      -0.087      -0.098      11.499    241.65      1.15
   11.750      -0.089      -0.101      11.749    239.93      0.83
   12.000      -0.091      -0.105      11.999    254.00      1.04
   12.250      -0.093      -0.108      12.249    236.23      1.09
   12.500      -0.096      -0.112      12.499    219.33      1.19
   12.750      -0.098      -0.115      12.749    222.31      0.99
   13.000      -0.100      -0.117      12.999    220.01      0.54
   13.250      -0.101      -0.118      13.249    226.40      0.66
   13.500      -0.104      -0.120      13.499    201.34      0.79
   13.750      -0.106      -0.123      13.749    233.74      0.98
   14.000      -0.109      -0.126      13.999    229.87      1.02
   14.250      -0.111      -0.128      14.249    203.33      0.82
   14.500      -0.112      -0.130      14.499    248.64      0.55
   14.750      -0.113      -0.133      14.749    223.62      0.45
   15.000      -0.114      -0.135      14.999    172.46      0.53
   15.250      -0.116      -0.137      15.249    220.50      0.97
   15.500      -0.118      -0.139      15.499    239.33      0.40
   15.750      -0.119      -0.141      15.749    217.60      0.97
   16.000      -0.122      -0.144      15.998    239.08      0.61
   16.200      -0.123      -0.146      16.198    244.04      0.94
   16.450      -0.123      -0.148      16.448    221.73      0.45
   16.700      -0.125      -0.151      16.698    240.21      0.84
   16.950      -0.127      -0.153      16.948    228.28      0.39
   17.200      -0.129      -0.155      17.198    199.31      0.32
   17.450      -0.131      -0.157      17.448    232.03      0.74
   17.700      -0.133      -0.159      17.698    210.46      0.86
   17.950      -0.135      -0.162      17.948    257.21      0.77
   18.200      -0.137      -0.165      18.198    247.06      0.72
   18.450      -0.139      -0.167      18.448    236.67      0.70
   18.700      -0.141      -0.170      18.698    238.69      0.63
   18.950      -0.143      -0.172      18.948    221.27      0.60
   19.200      -0.145      -0.175      19.198    241.75      0.73
   19.450      -0.147      -0.177      19.448    212.44      0.74
   19.700      -0.150      -0.180      19.698    222.58      1.22
   19.950      -0.150      -0.181      19.948    250.82      0.34
   20.200      -0.153      -0.184      20.198    229.18      0.90
   20.450      -0.155      -0.185      20.448    234.87      0.65
   20.700      -0.157      -0.188      20.698    194.26      0.61
   20.950      -0.159      -0.190      20.948    195.17      0.53
   21.200      -0.161      -0.193      21.198    235.85      0.94
   21.450      -0.163      -0.195      21.448    230.24      0.79
   21.700      -0.164      -0.197      21.698     30.41      0.33
   21.950      -0.166      -0.199      21.948    224.42      0.66
   22.200      -0.166      -0.200      22.198     42.42      1.84
   22.450      -0.168      -0.202      22.448    228.03      0.79
   22.700      -0.170      -0.204      22.698    233.16      0.96
   22.950      -0.172      -0.206      22.948    237.56      0.75
   23.200      -0.173      -0.208      23.198    243.21      0.55
   23.450      -0.175      -0.210      23.448    260.30      0.41
   23.700      -0.176      -0.212      23.698    265.97      0.89
   23.950      -0.177      -0.215      23.948    272.23      0.81
   24.200      -0.178      -0.217      24.198    228.01      0.31
   24.450      -0.178      -0.219      24.448    279.44      0.59
   24.700      -0.180      -0.221      24.698    247.03      0.32
   24.950      -0.181      -0.224      24.948    247.83      0.79
   25.200      -0.183      -0.226      25.198    216.86      0.71
   25.450      -0.184      -0.229      25.448    245.92      0.82
   25.700      -0.185      -0.231      25.698    234.27      0.62
   25.950      -0.187      -0.233      25.948    189.93      0.68
   26.200      -0.188      -0.236      26.198    258.16      0.81
   26.450      -0.189      -0.238      26.448    207.03      0.41
   26.700      -0.190      -0.240      26.698    276.42      0.31
   26.950      -0.191      -0.242      26.948    262.06      0.73
   27.200      -0.192      -0.244      27.198    238.16      0.57
   27.450      -0.194      -0.248      27.448    228.31      1.08
   27.700      -0.196      -0.251      27.698    233.44      1.22
   27.950      -0.199      -0.253      27.947    269.38      0.82
   28.200      -0.199      -0.255      28.197    244.45      0.44
   28.450      -0.201      -0.258      28.447    279.40      0.65
   28.700      -0.203      -0.261      28.697    238.91      0.68
   28.950      -0.203      -0.264      28.947    280.92      1.02
   29.200      -0.204      -0.267      29.197    227.66      0.57
   29.450      -0.205      -0.270      29.447    254.20      0.67
   29.700      -0.206      -0.273      29.697    233.54      0.59
   29.950      -0.209      -0.275      29.947    223.00      0.82
   30.200      -0.209      -0.278      30.197    298.23      0.26
