~VERSION INFORMATION
VERS .     2.0     : CWLS LOG ASCII STANDARD - VERSION 2.0
WRAP .     NO      : ONE LINE PER 1 DEPTH STEPS
~WELL INFORMATION
#MNEM.UNIT       DATA                  DESCRIPTION OF MNEMONIC
#---- ----       ----                  -----------------------
STRT .ft           14.885                  :START DEPTH
STOP .ft          397.185                  :STOP DEPTH
STEP .ft            0.050                  :STEP
NULL .          -999.2500                  :NULL VALUE
COMP .     Eaton Well Surveys              :COMPANY
WELL .     EDC Well                        :WELL
FLD  .     CR-103 & CR-17                  :FIELD
LOC  .                                     :LOCATION
PROV .     United States of America        :COUNTRY
SRVC .                                     :SERVICE COMPANY
DATE .     06 Apr 17                       :LOG DATE
UWI  .     EDC Well                        :UNIQUE WELL ID
~OTHER INFORMATION SECTION
#-------------------------
North ref is Magnetic
Mean deviation: 0.72 to N357.14
End deviation components .....
     North: 4.767
     East : -0.238
     Down : 382.119
Azimuth of end: N357.14
Distance start-end: 4.773ft
Comment1: T
Comment2: B
Comment3: p
Comment4: d
Comment5: g
Comment6: 3rd party winch coax
Comment7: RE,RS,JH
~CURVE INFORMATION
#MNEM.UNIT      API CODES       CURVE DESCRIPTION
#---- ----      ---------       -----------------
DEPT .ft                          : 1 DEPTH
DEVN .ft                          : 2 DEVIATION COMPONENT NORTH
DEVE .ft                          : 3 DEVIATION COMPONENT EAST
DEVD .ft                          : 4 DEVIATION COMPONENT DOWN
AZIM .deg                         : 5 DEVIATION AZIMUTH
DEV  .deg                         : 6 DEVIATION FROM VERTICAL DOWN
~A DEPT         DEVN        DEVE        DEVD      AZIM       DEV
# ...
   39.385       0.174      -0.150      24.398    318.60      0.68
   39.435       0.174      -0.150      24.448    316.13      0.37
   39.485       0.174      -0.150      24.498    153.54      0.48
   39.535       0.173      -0.149      24.548    153.54      0.48
   39.585       0.173      -0.149      24.598    154.77      0.13
   39.635       0.173      -0.149      24.648    154.77      0.13
   39.685       0.173      -0.149      24.698    223.87      0.25
   39.735       0.173      -0.149      24.748     70.92      0.15
   39.785       0.173      -0.150      24.798    291.59      0.38
   39.835       0.173      -0.150      24.848    291.59      0.38
   39.885       0.173      -0.150      24.898    257.47      0.51
   39.935       0.173      -0.151      24.948    252.68      1.14
   39.985       0.174      -0.152      24.998    340.33      1.42
   40.035       0.174      -0.152      25.048    288.73      0.86
   40.085       0.174      -0.153      25.098    288.73      0.86
   40.135       0.175      -0.153      25.148    349.72      0.72
   40.185       0.175      -0.154      25.198    298.49      0.77
   40.235       0.176      -0.153      25.248     75.39      0.68
   40.285       0.176      -0.154      25.298    320.92      0.73
   40.335       0.177      -0.154      25.348    348.36      0.77
   40.385       0.177      -0.154      25.398    121.93      0.34
   40.435       0.177      -0.153      25.448     44.25      0.78
   40.485       0.177      -0.154      25.498    294.20      0.81
   40.535       0.177      -0.154      25.548     73.31      0.15
   40.585       0.177      -0.154      25.598     73.31      0.15
   40.635       0.178      -0.154      25.648    298.35      0.68
   40.685       0.178      -0.155      25.698    298.35      0.68
   40.735       0.178      -0.154      25.748    114.63      0.30
   40.785       0.178      -0.155      25.798    331.38      0.72
   40.835       0.179      -0.155      25.848    305.18      0.25
   40.885       0.179      -0.155      25.898    335.91      0.96
   40.935       0.179      -0.155      25.948     45.99      0.37
   40.985       0.180      -0.155      25.998    340.54      0.66
   41.035       0.180      -0.154      26.048     86.90      0.79
   41.085       0.180      -0.154      26.098     86.90      0.79
   41.135       0.180      -0.154      26.148    256.41      0.53
   41.185       0.180      -0.155      26.198    256.41      0.53
   41.235       0.180      -0.154      26.248     49.41      0.53
   41.285       0.181      -0.155      26.298    329.75      0.79
   41.335       0.181      -0.155      26.348    357.91      0.60
   41.385       0.181      -0.155      26.398    265.98      0.86
   41.435       0.181      -0.156      26.448    265.98      0.86
   41.485       0.181      -0.157      26.498    266.22      1.03
   41.535       0.181      -0.157      26.548    225.00      0.16
   41.585       0.181      -0.157      26.598    301.84      0.36
   41.635       0.181      -0.158      26.648    301.84      0.36
   41.685       0.181      -0.158      26.698    238.18      1.07
   41.735       0.181      -0.159      26.748    294.20      0.74
   41.785       0.182      -0.160      26.798    301.35      0.89
   41.835       0.182      -0.160      26.848    355.17      0.76
   41.885       0.182      -0.160      26.898    295.45      0.24
   41.935       0.182      -0.160      26.948    295.45      0.24
   41.985       0.183      -0.160      26.998    332.31      0.66
   42.035       0.183      -0.160      27.048     36.61      0.43
   42.085       0.183      -0.160      27.098    306.35      0.23
   42.135       0.184      -0.161      27.148    299.83      0.47
   42.185       0.184      -0.161      27.198    299.83      0.47
   42.235       0.183      -0.161      27.248    190.40      1.38
   42.285       0.183      -0.162      27.298    293.39      0.44
   42.335       0.183      -0.162      27.348    293.39      0.44
   42.385       0.183      -0.163      27.398    286.42      0.81
   42.435       0.184      -0.163      27.448    339.75      0.89
   42.485       0.185      -0.163      27.498    339.75      0.89
   42.535       0.185      -0.163      27.548     35.31      0.77
   42.585       0.185      -0.163      27.598    284.79      0.66
   42.635       0.185      -0.164      27.648    228.86      0.75
   42.685       0.185      -0.165      27.698    265.12      1.50
   42.735       0.185      -0.166      27.748    270.81      0.99
   42.785       0.185      -0.167      27.798    270.81      0.99
   42.835       0.185      -0.167      27.848    314.59      0.67
   42.885       0.186      -0.168      27.898    314.59      0.67
   42.935       0.186      -0.168      27.948    341.33      0.78
   42.985       0.187      -0.168      27.998    345.48      0.41
   43.035       0.187      -0.168      28.048    277.11      0.28
   43.085       0.186      -0.169      28.098    252.70      0.85
   43.135       0.187      -0.169      28.148    337.97      0.92
   43.185       0.188      -0.170      28.198    337.97      0.92
   43.235       0.188      -0.170      28.248    258.92      0.54
   43.285       0.188      -0.171      28.298    290.90      0.58
   43.335       0.188      -0.170      28.348     77.64      0.40
   43.385       0.188      -0.170      28.398     77.64      0.40
   43.435       0.188      -0.171      28.448    279.50      1.19
   43.485       0.189      -0.171      28.498    326.67      0.95
   43.535       0.189      -0.172      28.548    258.12      0.73
   43.585       0.189      -0.172      28.598    272.11      0.47
   43.635       0.189      -0.173      28.648    270.75      0.57
   43.685       0.189      -0.173      28.698    270.75      0.57
   43.735       0.189      -0.174      28.748    251.80      0.52
   43.785       0.189      -0.174      28.798    286.16      0.48
   43.835       0.189      -0.175      28.848    276.12      0.88
   43.885       0.189      -0.176      28.898    276.12      0.88
   43.935       0.189      -0.176      28.948    329.48      0.18
   43.985       0.189      -0.175      28.998     54.78      0.49
   44.035       0.189      -0.175      29.048    115.87      0.34
   44.085       0.190      -0.175      29.098    344.21      0.53
   44.135       0.190      -0.175      29.148    344.21      0.53
   44.185       0.190      -0.175      29.198    128.12      0.25
   44.235       0.190      -0.176      29.248    272.75      0.54
   44.285       0.190      -0.176      29.298     89.81      0.14
   44.335       0.190      -0.176      29.348     89.81      0.14
   44.385       0.190      -0.176      29.398    316.14      0.47
   44.435       0.190      -0.176      29.448    170.10      0.15
   44.485       0.191      -0.176      29.498    327.91      0.85
   44.535       0.191      -0.176      29.548     28.62      0.47
   44.585       0.191      -0.176      29.598    266.08      0.52
   44.635       0.191      -0.177      29.648    242.55      0.37
   44.685       0.191      -0.177      29.698     14.92      0.45
   44.735       0.192      -0.177      29.748     14.92      0.45
   44.785       0.192      -0.177      29.798      3.30      0.39
   44.835       0.192      -0.177      29.848    311.06      0.65
   44.885       0.193      -0.177      29.898     11.21      0.64
   44.935       0.194      -0.177      29.948     11.21      0.64
   44.985       0.194      -0.176      29.998     66.32      1.07
   45.035       0.195      -0.176      30.048    328.94      0.82
   45.085       0.195      -0.177      30.098    314.16      0.67
   45.135       0.196      -0.176      30.148     61.88      1.44
   45.185       0.196      -0.174      30.198     61.88      1.44
   45.235       0.196      -0.174      30.248     52.25      0.61
   45.285       0.197      -0.174      30.298     52.25      0.61
   45.335       0.197      -0.174      30.348    325.86      0.43
   45.385       0.197      -0.174      30.398     89.23      0.26
   45.435       0.197      -0.174      30.448     49.54      0.11
