~VERSION INFORMATION
VERS .     2.0     : CWLS LOG ASCII STANDARD - VERSION 2.0
WRAP .     NO      : ONE LINE PER 5 DEPTH STEPS
~WELL INFORMATION
#MNEM.UNIT       DATA                  DESCRIPTION OF MNEMONIC
#---- ----       ----                  -----------------------
STRT .ft            0.000                  :START DEPTH
STOP .ft          252.000                  :STOP DEPTH
STEP .ft            0.050                  :STEP
NULL .          -999.2500                  :NULL VALUE
COMP .     Eaton Well Surveys              :COMPANY
WELL .     15                              :WELL
FLD  .     Gated pumphouse in park         :FIELD
LOC  .                                     :LOCATION
PROV .     United States of America        :COUNTRY
SRVC .                                     :SERVICE COMPANY
DATE .     21 Mar 17                       :LOG DATE
UWI  .     15                              :UNIQUE WELL ID
~OTHER INFORMATION SECTION
#-------------------------
North ref is Magnetic
Mean deviation: 1.02 to N245.93
End deviation components .....
     North: -1.821
     East : -4.078
     Down : 251.897
Azimuth of end: N245.94
Distance start-end: 4.466ft
Comment1: T
Comment2: B
Comment3: p
Comment4: d
Comment5: g
Comment6: 3rd party winch coax
Comment7: RE,RS,JH
~CURVE INFORMATION
#MNEM.UNIT      API CODES       CURVE DESCRIPTION
#---- ----      ---------       -----------------
DEPT .ft                          : 1 DEPTH
DEVN .ft                          : 2 DEVIATION COMPONENT NORTH
DEVE .ft                          : 3 DEVIATION COMPONENT EAST
DEVD .ft                          : 4 DEVIATION COMPONENT DOWN
AZIM .deg                         : 5 DEVIATION AZIMUTH
DEV  .deg                         : 6 DEVIATION FROM VERTICAL DOWN
~A DEPT         DEVN        DEVE        DEVD      AZIM       DEV
# ...
  183.000      -1.645      -2.414     182.970    273.58      1.40
  183.250      -1.645      -2.419     183.220    297.86      1.14
  183.500      -1.647      -2.425     183.470    269.79      1.04
  183.750      -1.649      -2.429     183.720    249.13      1.42
  184.000      -1.650      -2.433     183.970    231.50      1.42
  184.250      -1.650      -2.439     184.220    269.55      1.43
  184.500      -1.652      -2.445     184.470    243.30      1.76
  184.750      -1.653      -2.449     184.719    255.18      0.97
  185.000      -1.652      -2.455     184.969    237.38      1.17
  185.250      -1.654      -2.461     185.219    266.91      1.15
  185.500      -1.655      -2.466     185.469    254.73      1.42
  185.750      -1.655      -2.472     185.719    272.03      1.22
  186.000      -1.657      -2.477     185.969    246.99      1.66
  186.250      -1.658      -2.483     186.219    254.37      1.30
  186.500      -1.658      -2.488     186.469    268.89      1.03
  186.750      -1.659      -2.493     186.719    254.88      1.44
  187.000      -1.660      -2.499     186.969    251.46      1.29
  187.250      -1.661      -2.504     187.219    258.66      1.36
  187.500      -1.662      -2.510     187.469    264.86      1.32
  187.750      -1.663      -2.515     187.719    253.93      1.53
  188.000      -1.663      -2.521     187.969    263.88      1.65
  188.250      -1.663      -2.527     188.219    276.56      1.28
  188.500      -1.664      -2.533     188.468    267.41      1.54
  188.750      -1.665      -2.538     188.718    249.48      1.43
  189.000      -1.665      -2.544     188.968    268.73      1.47
  189.250      -1.666      -2.548     189.218    288.15      1.17
  189.500      -1.666      -2.553     189.468    303.03      1.19
  189.750      -1.667      -2.558     189.718    247.36      1.24
  190.000      -1.668      -2.563     189.968    266.09      1.38
  190.250      -1.670      -2.568     190.218    259.82      1.36
  190.500      -1.671      -2.573     190.468    274.28      1.07
  190.750      -1.673      -2.578     190.718    246.01      1.17
  191.000      -1.672      -2.584     190.968    289.09      1.33
  191.250      -1.672      -2.588     191.218    270.51      1.18
  191.500      -1.673      -2.594     191.468    261.21      1.32
  191.750      -1.674      -2.600     191.718    264.90      1.32
  192.000      -1.673      -2.606     191.968    298.13      1.36
  192.250      -1.671      -2.610     192.217    310.04      2.21
  192.500      -1.670      -2.614     192.467    276.28      0.48
  192.750      -1.672      -2.619     192.717    257.57      1.57
  193.000      -1.672      -2.624     192.967    281.48      1.65
  193.250      -1.673      -2.628     193.217    231.63      1.28
  193.500      -1.672      -2.632     193.467    304.44      0.73
  193.750      -1.673      -2.636     193.717    269.57      1.35
  194.000      -1.674      -2.642     193.967    237.16      1.35
  194.250      -1.675      -2.647     194.217    265.01      1.18
  194.500      -1.676      -2.651     194.467    270.04      1.09
  194.750      -1.676      -2.657     194.717    244.92      1.39
  195.000      -1.677      -2.662     194.967    288.03      0.68
  195.250      -1.678      -2.666     195.217    277.48      1.16
  195.500      -1.679      -2.671     195.467    256.60      1.29
  195.750      -1.682      -2.675     195.717    240.65      1.09
  196.000      -1.682      -2.681     195.967    272.40      2.18
  196.250      -1.683      -2.686     196.217    274.28      1.13
  196.500      -1.682      -2.692     196.467    275.13      1.73
  196.750      -1.683      -2.696     196.716    274.52      1.39
  197.000      -1.684      -2.702     196.966    224.53      1.59
  197.250      -1.685      -2.707     197.216    289.06      1.09
  197.500      -1.686      -2.712     197.466    259.70      1.18
  197.750      -1.687      -2.718     197.716    268.16      0.97
  198.000      -1.687      -2.722     197.966    274.46      0.30
  198.250      -1.689      -2.728     198.216    264.23      1.32
  198.500      -1.689      -2.733     198.466    272.70      1.48
  198.750      -1.690      -2.739     198.716    267.90      1.32
  199.000      -1.691      -2.744     198.966    272.07      1.29
  199.250      -1.692      -2.748     199.216    256.66      1.20
  199.500      -1.693      -2.753     199.466    254.84      1.64
  199.750      -1.693      -2.759     199.716    270.66      1.23
  200.000      -1.694      -2.764     199.966    290.88      1.31
  200.250      -1.694      -2.769     200.216    251.91      1.11
  200.500      -1.697      -2.773     200.465    231.62      0.92
  200.750      -1.699      -2.777     200.715    263.90      1.52
  201.000      -1.700      -2.782     200.965    231.16      1.22
  201.250      -1.700      -2.787     201.215    345.57      0.70
  201.500      -1.702      -2.792     201.465    265.59      1.34
  201.750      -1.703      -2.798     201.715    247.19      1.82
  202.000      -1.703      -2.801     201.965    271.24      1.05
  202.250      -1.704      -2.806     202.215    237.43      1.22
  202.500      -1.705      -2.812     202.465    263.24      0.94
  202.750      -1.705      -2.817     202.715    227.86      1.03
  203.000      -1.705      -2.822     202.965    279.13      1.14
  203.250      -1.705      -2.827     203.215    233.62      1.62
  203.500      -1.705      -2.832     203.465    274.89      1.28
  203.750      -1.707      -2.839     203.715    258.86      2.12
  204.000      -1.707      -2.844     203.965    259.63      0.99
  204.250      -1.706      -2.849     204.215    314.65      0.74
  204.500      -1.707      -2.854     204.464    282.65      0.76
  204.750      -1.709      -2.859     204.714    242.08      1.38
  205.000      -1.710      -2.864     204.964    257.16      0.87
  205.250      -1.711      -2.869     205.214    257.69      1.07
  205.500      -1.712      -2.874     205.464    345.01      1.01
  205.750      -1.712      -2.879     205.714    275.49      1.28
  206.000      -1.713      -2.883     205.964    279.72      0.98
  206.250      -1.713      -2.887     206.214    227.02      1.10
  206.500      -1.713      -2.893     206.464    282.09      1.48
  206.750      -1.715      -2.898     206.714    244.70      1.58
  207.000      -1.715      -2.903     206.964    259.31      1.32
  207.250      -1.715      -2.908     207.214    266.48      1.28
  207.500      -1.715      -2.912     207.464    267.81      1.16
  207.750      -1.715      -2.917     207.714    294.70      1.23
  208.000      -1.715      -2.922     207.964    240.58      1.62
  208.250      -1.715      -2.926     208.214    262.23      1.04
  208.500      -1.715      -2.932     208.464    254.92      1.20
  208.750      -1.716      -2.937     208.714    240.29      1.05
  209.000      -1.718      -2.941     208.963    242.73      0.59
  209.250      -1.717      -2.945     209.213    329.96      0.56
  209.500      -1.718      -2.950     209.463    263.94      1.66
  209.750      -1.718      -2.954     209.713    293.84      1.07
  210.000      -1.718      -2.960     209.963    243.69      1.19
  210.250      -1.720      -2.964     210.213    270.58      0.89
  210.500      -1.719      -2.969     210.463    297.54      0.99
  210.750      -1.719      -2.973     210.713    240.90      0.85
  211.000      -1.719      -2.978     210.963    264.33      0.65
  211.250      -1.718      -2.983     211.213    230.26      1.22
  211.500      -1.719      -2.988     211.463    252.75      1.28
  211.750      -1.719      -2.992     211.713    260.83      1.21
  212.000      -1.719      -2.996     211.963    315.71      1.27
  212.250      -1.720      -3.000     212.213    243.55      0.96
  212.500      -1.721      -3.005     212.463    246.43      1.14
  212.750      -1.721      -3.009     212.713    263.23      1.48
  213.000      -1.722      -3.013     212.963    286.65      0.96
  213.250      -1.722      -3.018     213.213    288.01      1.01
