~VERSION INFORMATION
VERS .     2.0     : CWLS LOG ASCII STANDARD - VERSION 2.0
WRAP .     NO      : ONE LINE PER 5 DEPTH STEPS
~WELL INFORMATION
#MNEM.UNIT       DATA                  DESCRIPTION OF MNEMONIC
#---- ----       ----                  -----------------------
STRT .ft            0.000                  :START DEPTH
STOP .ft          265.000                  :STOP DEPTH
STEP .ft            0.050                  :STEP
NULL .          -999.2500                  :NULL VALUE
COMP .     Eaton Well Surveys              :COMPANY
WELL .     Fire supply well                :WELL
FLD  .     Pump house                      :FIELD
LOC  .                                     :LOCATION
PROV .     United States of America        :COUNTRY
SRVC .                                     :SERVICE COMPANY
DATE .     10 Mar 17                       :LOG DATE
UWI  .     Fire supply well                :UNIQUE WELL ID
~OTHER INFORMATION SECTION
#-------------------------
North ref is Magnetic
Mean deviation: 0.96 to N273.86
End deviation components .....
     North: 0.297
     East : -4.412
     Down : 264.902
Azimuth of end: N273.86
Distance start-end: 4.422ft
Comment1: T
Comment2: B
Comment3: p
Comment4: d
Comment5: g
Comment6: 3rd party winch coax
Comment7: RE,RS,JH
~CURVE INFORMATION
#MNEM.UNIT      API CODES       CURVE DESCRIPTION
#---- ----      ---------       -----------------
DEPT .ft                          : 1 DEPTH
DEVN .ft                          : 2 DEVIATION COMPONENT NORTH
DEVE .ft                          : 3 DEVIATION COMPONENT EAST
DEVD .ft                          : 4 DEVIATION COMPONENT DOWN
AZIM .deg                         : 5 DEVIATION AZIMUTH
DEV  .deg                         : 6 DEVIATION FROM VERTICAL DOWN
~A DEPT         DEVN        DEVE        DEVD      AZIM       DEV
# ...
   60.950       0.474      -0.828      60.941    299.13      1.20
   61.200       0.476      -0.832      61.191    292.16      0.93
   61.450       0.478      -0.837      61.441    278.60      1.42
   61.700       0.478      -0.842      61.691    281.11      1.61
   61.950       0.480      -0.847      61.941    284.79      1.49
   62.200       0.482      -0.851      62.191    298.01      1.07
   62.450       0.484      -0.856      62.441    296.60      1.16
   62.700       0.486      -0.861      62.691    302.35      1.14
   62.950       0.489      -0.864      62.941    306.28      1.24
   63.200       0.492      -0.868      63.191    321.53      1.25
   63.450       0.494      -0.872      63.441    294.05      0.93
   63.700       0.496      -0.876      63.691    305.38      0.71
   63.950       0.498      -0.881      63.941    293.87      1.19
   64.250       0.500      -0.886      64.240    279.28      1.28
   64.500       0.503      -0.891      64.490    313.92      1.10
   64.750       0.505      -0.896      64.740    282.43      1.24
   65.000       0.507      -0.900      64.990    288.02      1.11
   65.250       0.509      -0.905      65.240    282.80      1.20
   65.500       0.510      -0.909      65.490    290.78      0.94
   65.750       0.512      -0.914      65.740    303.03      0.98
   66.000       0.515      -0.918      65.990    253.24      0.66
   66.250       0.517      -0.923      66.240    296.64      1.29
   66.500       0.518      -0.927      66.490    310.12      1.45
   66.750       0.521      -0.932      66.740    288.73      1.26
   67.000       0.522      -0.936      66.990    263.89      0.70
   67.250       0.523      -0.941      67.240    279.89      1.60
   67.500       0.525      -0.946      67.490    280.09      1.48
   67.750       0.527      -0.951      67.740    297.53      1.29
   68.000       0.529      -0.956      67.990    289.04      1.16
   68.250       0.530      -0.961      68.240    283.32      1.14
   68.500       0.533      -0.965      68.490    293.88      1.04
   68.750       0.534      -0.969      68.739    277.39      1.22
   69.000       0.537      -0.973      68.989    303.57      1.35
   69.250       0.539      -0.978      69.239    290.69      1.07
   69.500       0.541      -0.983      69.489    283.00      1.63
   69.750       0.543      -0.988      69.739    290.10      0.95
   70.000       0.546      -0.993      69.989    290.99      0.91
   70.250       0.547      -0.997      70.239    312.71      1.29
   70.500       0.547      -1.001      70.489    269.91      1.40
   70.750       0.549      -1.005      70.739    300.41      0.98
   71.000       0.551      -1.009      70.989    288.08      1.11
   71.250       0.552      -1.015      71.239    293.88      1.65
   71.500       0.554      -1.020      71.489    302.50      1.21
   71.750       0.556      -1.025      71.739    276.87      0.82
   72.000       0.558      -1.029      71.989    289.29      1.14
   72.250       0.561      -1.034      72.239    312.01      1.54
   72.500       0.563      -1.038      72.489    300.97      1.06
   72.750       0.564      -1.043      72.739    294.29      1.28
   73.000       0.567      -1.048      72.989    289.70      0.93
   73.250       0.569      -1.052      73.238    287.45      0.92
   73.500       0.572      -1.057      73.488    312.76      1.24
   73.750       0.574      -1.061      73.738    296.26      1.00
   74.000       0.576      -1.066      73.988    302.96      1.21
   74.250       0.579      -1.071      74.238    306.03      1.54
   74.500       0.581      -1.076      74.488    287.85      1.30
   74.750       0.583      -1.080      74.738    309.28      0.88
   75.000       0.585      -1.085      74.988    275.81      1.12
   75.250       0.586      -1.090      75.238    254.36      0.81
   75.500       0.589      -1.095      75.488    297.79      1.30
   75.750       0.591      -1.099      75.738    298.66      1.28
   76.000       0.594      -1.104      75.988    303.77      1.25
   76.250       0.596      -1.109      76.238    295.88      1.14
   76.500       0.598      -1.114      76.488    284.87      0.89
   76.750       0.600      -1.118      76.738    308.12      1.50
   77.000       0.602      -1.123      76.988    291.80      1.27
   77.250       0.604      -1.128      77.238    291.18      1.36
   77.500       0.606      -1.133      77.488    281.29      1.43
   77.750       0.609      -1.138      77.737    294.31      0.89
   78.000       0.611      -1.143      77.987    279.86      1.32
   78.250       0.613      -1.148      78.237    294.29      1.08
   78.500       0.615      -1.153      78.487    293.38      1.28
   78.750       0.617      -1.158      78.737    299.94      1.18
   79.000       0.619      -1.162      78.987    278.19      0.71
   79.250       0.621      -1.167      79.237    298.86      1.45
   79.500       0.623      -1.172      79.487    288.88      1.18
   79.750       0.625      -1.177      79.737    297.43      0.89
   80.000       0.627      -1.181      79.987    285.13      1.19
   80.250       0.629      -1.187      80.237    296.57      1.16
   80.500       0.631      -1.192      80.487    303.48      1.07
   80.750       0.633      -1.197      80.737    292.15      1.18
   81.000       0.634      -1.202      80.987    288.93      1.22
   81.250       0.636      -1.207      81.237    283.25      1.22
   81.500       0.638      -1.212      81.487    281.72      1.10
   81.750       0.640      -1.217      81.737    291.48      1.50
   82.000       0.641      -1.222      81.986    284.79      1.20
   82.250       0.643      -1.227      82.236    296.74      0.94
   82.500       0.645      -1.232      82.486    290.45      1.26
   82.750       0.647      -1.236      82.736    290.44      0.82
   83.000       0.649      -1.242      82.986    297.69      1.46
   83.250       0.650      -1.246      83.236    284.06      1.36
   83.500       0.652      -1.251      83.486    292.71      1.34
   83.750       0.653      -1.255      83.736    293.54      0.96
   84.000       0.655      -1.260      83.986    295.86      1.31
   84.250       0.656      -1.264      84.236    282.64      1.45
   84.500       0.658      -1.270      84.486    279.06      1.25
   84.750       0.659      -1.275      84.736    277.82      0.83
   85.000       0.661      -1.279      84.986    308.23      1.03
   85.250       0.663      -1.283      85.236    289.64      1.05
   85.500       0.664      -1.288      85.486    290.47      1.01
   85.750       0.666      -1.292      85.736    286.62      0.83
   86.000       0.667      -1.297      85.986    289.52      1.08
   86.250       0.668      -1.302      86.236    280.79      0.96
   86.500       0.670      -1.306      86.486    291.44      1.06
   86.750       0.672      -1.311      86.735    286.14      0.91
   87.000       0.673      -1.316      86.985    282.39      1.36
   87.250       0.674      -1.320      87.235    302.46      1.19
   87.500       0.676      -1.325      87.485    273.62      1.38
   87.750       0.678      -1.330      87.735    295.18      1.03
   88.000       0.680      -1.335      87.985    288.49      1.08
   88.250       0.682      -1.340      88.235    285.79      1.21
   88.500       0.684      -1.345      88.485    284.41      0.82
   88.750       0.685      -1.349      88.735    278.48      1.06
   89.000       0.686      -1.354      88.985    295.04      1.13
   89.250       0.687      -1.359      89.235    280.93      0.98
   89.500       0.689      -1.364      89.485    283.52      1.23
   89.750       0.691      -1.369      89.735    280.22      1.15
   90.000       0.692      -1.373      89.985    283.41      1.00
   90.250       0.694      -1.377      90.235    293.21      1.06
   90.500       0.696      -1.382      90.485    300.68      1.20
   90.750       0.698      -1.387      90.735    306.14      1.38
   91.000       0.698      -1.391      90.985    292.76      1.18
   91.250       0.700      -1.396      91.235    292.67      1.24
