~VERSION INFORMATION
VERS .     2.0     : CWLS LOG ASCII STANDARD - VERSION 2.0
WRAP .     NO      : ONE LINE PER 5 DEPTH STEPS
~WELL INFORMATION
#MNEM.UNIT       DATA                  DESCRIPTION OF MNEMONIC
#---- ----       ----                  -----------------------
STRT .ft            0.000                  :START DEPTH
STOP .ft          252.000                  :STOP DEPTH
STEP .ft            0.050                  :STEP
NULL .          -999.2500                  :NULL VALUE
COMP .     Eaton Well Surveys              :COMPANY
WELL .     15                              :WELL
FLD  .     Gated pumphouse in park         :FIELD
LOC  .                                     :LOCATION
PROV .     United States of America        :COUNTRY
SRVC .                                     :SERVICE COMPANY
DATE .     21 Mar 17                       :LOG DATE
UWI  .     15                              :UNIQUE WELL ID
~OTHER INFORMATION SECTION
#-------------------------
North ref is Magnetic
Mean deviation: 1.02 to N245.93
End deviation components .....
     North: -1.821
     East : -4.078
     Down : 251.897
Azimuth of end: N245.94
Distance start-end: 4.466ft
Comment1: T
Comment2: B
Comment3: p
Comment4: d
Comment5: g
Comment6: 3rd party winch coax
Comment7: RE,RS,JH
~CURVE INFORMATION
#MNEM.UNIT      API CODES       CURVE DESCRIPTION
#---- ----      ---------       -----------------
DEPT .ft                          : 1 DEPTH
DEVN .ft                          : 2 DEVIATION COMPONENT NORTH
DEVE .ft                          : 3 DEVIATION COMPONENT EAST
DEVD .ft                          : 4 DEVIATION COMPONENT DOWN
AZIM .deg                         : 5 DEVIATION AZIMUTH
DEV  .deg                         : 6 DEVIATION FROM VERTICAL DOWN
~A DEPT         DEVN        DEVE        DEVD      AZIM       DEV
# ...
   30.450      -0.210      -0.280      30.447    234.71      0.50
   30.700      -0.212      -0.283      30.697    230.38      1.07
   30.950      -0.212      -0.286      30.947    254.33      0.63
   31.200      -0.214      -0.288      31.197    269.48      0.64
   31.450      -0.216      -0.291      31.447    257.12      0.66
   31.700      -0.218      -0.294      31.697    248.87      1.02
   31.950      -0.219      -0.297      31.947    246.37      0.52
   32.200      -0.221      -0.298      32.197    199.42      0.69
   32.450      -0.222      -0.302      32.447    236.41      0.84
   32.700      -0.223      -0.305      32.697    262.68      0.73
   32.950      -0.224      -0.308      32.947    244.83      0.79
   33.200      -0.225      -0.310      33.197    244.60      1.16
   33.450      -0.225      -0.313      33.447    235.58      0.71
   33.700      -0.227      -0.315      33.697    260.71      0.74
   33.950      -0.228      -0.317      33.947    275.28      0.73
   34.200      -0.229      -0.319      34.197    211.92      0.53
   34.450      -0.231      -0.322      34.447    232.14      0.58
   34.700      -0.231      -0.325      34.697    249.67      1.20
   34.950      -0.233      -0.327      34.947    254.21      0.64
   35.200      -0.233      -0.330      35.197    255.75      0.79
   35.450      -0.234      -0.332      35.447    274.79      0.53
   35.700      -0.236      -0.335      35.697    240.57      0.70
   35.950      -0.238      -0.337      35.947    250.73      0.65
   36.200      -0.239      -0.340      36.197    240.55      0.39
   36.450      -0.241      -0.342      36.447    250.14      0.85
   36.700      -0.242      -0.345      36.697    205.29      0.81
   36.950      -0.244      -0.347      36.947    231.93      0.97
   37.200      -0.245      -0.350      37.197    238.22      0.95
   37.450      -0.247      -0.352      37.447    250.76      0.92
   37.700      -0.248      -0.355      37.697    261.73      1.16
   37.950      -0.249      -0.358      37.947    236.80      0.59
   38.200      -0.250      -0.360      38.197    266.92      0.51
   38.450      -0.252      -0.363      38.447    242.72      1.07
   38.700      -0.253      -0.366      38.697    241.87      0.75
   38.950      -0.255      -0.369      38.947    221.08      0.86
   39.200      -0.256      -0.371      39.197    270.02      0.42
   39.450      -0.259      -0.374      39.446    247.97      0.69
   39.700      -0.261      -0.377      39.696    226.95      0.51
   39.950      -0.262      -0.380      39.946    243.59      0.43
   40.200      -0.264      -0.382      40.196    248.09      0.63
   40.450      -0.265      -0.385      40.446    222.48      0.45
   40.700      -0.267      -0.388      40.696    252.47      0.88
   40.950      -0.269      -0.391      40.946    211.94      0.98
   41.200      -0.271      -0.393      41.196    224.44      0.76
   41.450      -0.274      -0.396      41.446    235.18      0.97
   41.700      -0.275      -0.399      41.696    264.86      0.53
   41.950      -0.276      -0.401      41.946    293.57      0.55
   42.200      -0.277      -0.403      42.196    226.67      0.77
   42.450      -0.279      -0.406      42.446    223.81      0.96
   42.700      -0.281      -0.409      42.696    228.71      0.57
   42.950      -0.283      -0.410      42.946    225.24      0.32
   43.200      -0.286      -0.412      43.196    143.60      0.39
   43.450      -0.288      -0.415      43.446    219.21      0.99
   43.700      -0.290      -0.418      43.696    242.90      0.66
   43.950      -0.292      -0.420      43.946    259.50      0.46
   44.200      -0.293      -0.422      44.196    188.60      0.35
   44.450      -0.295      -0.424      44.446    224.41      0.55
   44.700      -0.297      -0.427      44.696    232.79      0.65
   44.950      -0.299      -0.429      44.946    238.31      0.79
   45.200      -0.302      -0.432      45.196    223.06      0.84
   45.450      -0.304      -0.435      45.446    232.31      0.90
   45.700      -0.307      -0.437      45.696    228.13      0.68
   45.950      -0.309      -0.439      45.946    236.91      0.68
   46.200      -0.311      -0.442      46.196    239.90      0.74
   46.450      -0.313      -0.444      46.446    209.43      1.03
   46.700      -0.316      -0.447      46.696    241.54      1.19
   46.950      -0.317      -0.450      46.946    227.73      0.86
   47.200      -0.319      -0.452      47.196    228.67      0.63
   47.450      -0.321      -0.455      47.446    239.32      0.57
   47.700      -0.323      -0.457      47.696    220.57      0.63
   47.950      -0.325      -0.459      47.946    237.57      0.95
   48.200      -0.327      -0.462      48.196    227.60      1.21
   48.450      -0.330      -0.465      48.446    200.86      1.10
   48.700      -0.332      -0.467      48.696    213.39      1.00
   48.950      -0.334      -0.470      48.946    250.87      0.81
   49.200      -0.336      -0.473      49.196    236.71      0.95
   49.450      -0.338      -0.476      49.446    216.27      1.00
   49.700      -0.340      -0.479      49.695    219.23      0.88
   49.950      -0.343      -0.481      49.945    234.49      1.00
   50.200      -0.345      -0.485      50.195    238.20      0.95
   50.450      -0.347      -0.488      50.445    196.66      0.55
   50.700      -0.350      -0.491      50.695    223.20      1.28
   50.950      -0.352      -0.494      50.945    244.91      0.95
   51.200      -0.354      -0.496      51.195    158.01      0.47
   51.450      -0.356      -0.498      51.445    204.79      0.53
   51.700      -0.358      -0.500      51.695    206.29      0.68
   51.950      -0.360      -0.502      51.945    218.24      0.43
   52.200      -0.362      -0.505      52.195    247.26      0.85
   52.450      -0.364      -0.509      52.445    224.95      0.73
   52.700      -0.366      -0.511      52.695    215.96      0.84
   52.950      -0.368      -0.514      52.945    207.08      0.60
   53.200      -0.370      -0.516      53.195    241.19      0.78
   53.450      -0.371      -0.518      53.445    245.03      0.91
   53.700      -0.374      -0.520      53.695    245.83      0.75
   53.950      -0.376      -0.523      53.945    192.51      0.79
   54.200      -0.378      -0.526      54.195    249.65      0.70
   54.450      -0.380      -0.529      54.445    235.08      0.53
   54.700      -0.381      -0.531      54.695    230.68      0.64
   54.950      -0.383      -0.533      54.945    224.43      0.69
   55.200      -0.385      -0.535      55.195    230.28      0.91
   55.450      -0.387      -0.538      55.445    231.64      0.57
   55.700      -0.389      -0.540      55.695    190.54      0.75
   55.950      -0.392      -0.543      55.945    222.40      0.84
   56.200      -0.394      -0.545      56.195    223.04      0.85
   56.450      -0.396      -0.549      56.445    248.76      0.90
   56.700      -0.398      -0.551      56.695    241.42      0.90
   56.950      -0.399      -0.555      56.945    244.26      0.93
   57.200      -0.402      -0.558      57.195    237.90      1.12
   57.450      -0.404      -0.562      57.445    238.61      0.91
   57.700      -0.408      -0.565      57.695    208.88      1.01
   57.950      -0.411      -0.568      57.945    235.65      0.87
   58.200      -0.414      -0.572      58.195    232.88      1.12
   58.450      -0.417      -0.575      58.444    260.20      1.45
   58.700      -0.420      -0.579      58.694    225.80      1.12
   58.950      -0.423      -0.583      58.944    230.66      1.56
   59.200      -0.426      -0.587      59.194    241.91      1.60
   59.450      -0.429      -0.590      59.444    221.72      0.84
   59.700      -0.431      -0.593      59.694    232.86      0.86
   59.950      -0.434      -0.596      59.944    221.50      0.79
   60.200      -0.437      -0.598      60.194    212.49      1.35
   60.450      -0.438      -0.601      60.444    267.97      1.17
   60.700      -0.440      -0.604      60.694    256.33      0.96
