~VERSION INFORMATION
VERS .     2.0     : CWLS LOG ASCII STANDARD - VERSION 2.0
WRAP .     NO      : ONE LINE PER 1 DEPTH STEPS
~WELL INFORMATION
#MNEM.UNIT       DATA                  DESCRIPTION OF MNEMONIC
#---- ----       ----                  -----------------------
STRT .ft           14.885                  :START DEPTH
STOP .ft          397.185                  :STOP DEPTH
STEP .ft            0.050                  :STEP
NULL .          -999.2500                  :NULL VALUE
COMP .     Eaton Well Surveys              :COMPANY
WELL .     EDC Well                        :WELL
FLD  .     CR-103 & CR-17                  :FIELD
LOC  .                                     :LOCATION
PROV .     United States of America        :COUNTRY
SRVC .                                     :SERVICE COMPANY
DATE .     06 Apr 17                       :LOG DATE
UWI  .     EDC Well                        :UNIQUE WELL ID
~OTHER INFORMATION SECTION
#-------------------------
North ref is Magnetic
Mean deviation: 0.72 to N357.14
End deviation components .....
     North: 4.767
     East : -0.238
     Down : 382.119
Azimuth of end: N357.14
Distance start-end: 4.773ft
Comment1: T
Comment2: B
Comment3: p
Comment4: d
Comment5: g
Comment6: 3rd party winch coax
Comment7: RE,RS,JH
~CURVE INFORMATION
#MNEM.UNIT      API CODES       CURVE DESCRIPTION
#---- ----      ---------       -----------------
DEPT .ft                          : 1 DEPTH
DEVN .ft                          : 2 DEVIATION COMPONENT NORTH
DEVE .ft                          : 3 DEVIATION COMPONENT EAST
DEVD .ft                          : 4 DEVIATION COMPONENT DOWN
AZIM .deg                         : 5 DEVIATION AZIMUTH
DEV  .deg                         : 6 DEVIATION FROM VERTICAL DOWN
~A DEPT         DEVN        DEVE        DEVD      AZIM       DEV
# ...
  319.985       2.804      -0.657     304.956     21.66      2.01
  320.035       2.805      -0.657     305.006    349.82      1.17
  320.085       2.806      -0.657     305.056     42.39      0.60
  320.135       2.804      -0.655     305.106    144.09      2.60
  320.185       2.806      -0.656     305.156    347.66      2.19
  320.235       2.807      -0.656     305.206      4.21      1.69
  320.285       2.808      -0.656     305.256     10.07      0.74
  320.335       2.809      -0.656     305.306    355.63      1.45
  320.385       2.810      -0.655     305.356     23.15      1.48
  320.435       2.811      -0.655     305.406    348.59      0.98
  320.485       2.812      -0.655     305.456    350.86      1.21
  320.535       2.813      -0.656     305.506    350.86      1.21
  320.585       2.814      -0.656     305.556    358.56      0.92
  320.635       2.815      -0.656     305.606    355.18      1.51
  320.685       2.816      -0.655     305.656     14.63      1.14
  320.735       2.818      -0.655     305.706      1.43      1.45
  320.785       2.819      -0.655     305.756      4.30      1.22
  320.835       2.821      -0.655     305.806      4.80      2.27
  320.885       2.822      -0.655     305.856      1.11      1.11
  320.935       2.823      -0.655     305.906    348.22      1.50
  320.985       2.823      -0.655     305.956     54.54      0.34
  321.035       2.824      -0.655     306.006    352.01      0.86
  321.085       2.825      -0.655     306.056    352.01      0.86
  321.135       2.825      -0.655     306.106      4.48      0.88
  321.185       2.827      -0.654     306.156     29.02      2.18
  321.235       2.829      -0.655     306.206    348.30      2.52
  321.285       2.831      -0.655     306.256    352.53      1.79
  321.335       2.832      -0.655     306.306    355.64      1.83
  321.385       2.834      -0.655     306.356      3.76      1.57
  321.435       2.834      -0.655     306.406     72.90      0.56
  321.485       2.836      -0.655     306.456    353.41      2.02
  321.535       2.837      -0.655     306.506    351.16      1.38
  321.585       2.838      -0.655     306.556     12.82      0.84
  321.635       2.839      -0.655     306.606      2.72      1.10
  321.685       2.839      -0.654     306.656     64.09      0.78
  321.735       2.840      -0.654     306.706    348.39      1.56
  321.785       2.841      -0.655     306.756    348.39      1.56
  321.835       2.843      -0.655     306.806    352.64      1.37
  321.885       2.844      -0.655     306.856    359.82      1.20
  321.935       2.845      -0.655     306.906     10.28      1.58
  321.985       2.845      -0.654     306.956    112.14      0.30
  322.035       2.845      -0.654     307.006    112.14      0.30
  322.085       2.846      -0.654     307.056    355.56      1.17
  322.135       2.847      -0.654     307.106    359.45      1.31
  322.185       2.848      -0.654     307.156     24.39      1.55
  322.235       2.852      -0.654     307.206    350.77      4.72
  322.285       2.849      -0.653     307.255    153.23      4.66
  322.335       2.851      -0.653     307.305      1.24      2.06
  322.385       2.851      -0.653     307.355    342.33      0.88
  322.435       2.852      -0.653     307.405    356.52      1.42
  322.485       2.853      -0.653     307.455      8.52      0.84
  322.535       2.854      -0.652     307.505     24.54      0.66
  322.585       2.855      -0.653     307.555    344.68      1.49
  322.635       2.856      -0.652     307.605     39.11      1.90
  322.685       2.858      -0.652     307.655    355.17      1.97
  322.735       2.858      -0.652     307.705    185.50      0.11
  322.785       2.859      -0.652     307.755    354.10      1.00
  322.835       2.860      -0.652     307.805     10.49      0.95
  322.885       2.862      -0.652     307.855    351.08      2.25
  322.935       2.862      -0.651     307.905     76.64      0.88
  322.985       2.863      -0.652     307.955    348.15      1.93
  323.035       2.864      -0.652     308.005      0.15      1.25
  323.085       2.865      -0.652     308.055     11.11      1.18
  323.135       2.867      -0.652     308.105    346.37      2.07
  323.185       2.868      -0.652     308.155     41.55      0.74
  323.235       2.869      -0.652     308.205    356.19      1.36
  323.285       2.870      -0.652     308.255    348.55      1.62
  323.335       2.871      -0.652     308.305      4.93      1.34
  323.385       2.872      -0.652     308.355      3.97      0.95
  323.435       2.873      -0.651     308.405     26.15      0.91
  323.485       2.874      -0.652     308.455    350.74      1.34
  323.535       2.875      -0.652     308.505    357.35      0.99
  323.585       2.876      -0.652     308.555      1.31      0.90
  323.635       2.877      -0.651     308.605     11.82      1.16
  323.685       2.878      -0.652     308.655    353.74      1.02
  323.735       2.879      -0.652     308.705    359.28      1.12
  323.785       2.880      -0.652     308.755    359.15      1.75
  323.835       2.881      -0.652     308.805      2.20      1.26
  323.885       2.882      -0.652     308.855    359.15      1.24
  323.935       2.883      -0.651     308.905     24.97      1.03
  323.985       2.884      -0.651     308.955     24.97      1.03
  324.035       2.885      -0.651     309.005    356.15      1.02
  324.085       2.886      -0.650     309.055     27.80      1.91
  324.135       2.888      -0.650     309.105    353.78      1.79
  324.185       2.889      -0.650     309.155    353.78      1.79
  324.235       2.891      -0.650     309.205      6.99      1.74
  324.285       2.892      -0.650     309.255      4.68      1.16
  324.335       2.893      -0.650     309.305      0.25      1.16
  324.385       2.894      -0.650     309.355     18.06      1.40
  324.435       2.896      -0.650     309.405    350.82      1.64
  324.485       2.896      -0.650     309.455     37.78      0.46
  324.535       2.897      -0.649     309.505     41.58      1.51
  324.585       2.898      -0.649     309.555    353.10      0.94
  324.635       2.898      -0.649     309.605      2.73      0.94
  324.685       2.900      -0.649     309.655      5.59      1.30
  324.735       2.900      -0.648     309.705     71.34      0.45
  324.785       2.901      -0.649     309.755    353.13      1.71
  324.835       2.903      -0.648     309.805     18.84      1.93
  324.885       2.904      -0.648     309.855    351.20      1.53
  324.935       2.905      -0.648     309.905     26.08      0.95
  324.985       2.906      -0.648     309.955    357.30      1.52
  325.035       2.907      -0.648     310.005     29.97      1.05
  325.085       2.907      -0.647     310.055     10.44      0.61
  325.135       2.909      -0.647     310.105      8.85      1.72
  325.185       2.910      -0.647     310.155     22.70      1.69
  325.235       2.912      -0.647     310.205    341.72      2.59
  325.285       2.914      -0.648     310.255    348.10      1.94
  325.335       2.915      -0.647     310.305     24.65      0.98
  325.385       2.916      -0.647     310.355    357.82      0.87
  325.435       2.917      -0.647     310.405      2.21      1.28
  325.485       2.918      -0.647     310.454    357.16      1.38
  325.535       2.919      -0.647     310.504    357.16      1.38
  325.585       2.921      -0.647     310.554      8.41      1.67
  325.635       2.922      -0.648     310.604    345.98      1.39
  325.685       2.923      -0.648     310.654    342.88      1.09
  325.735       2.924      -0.647     310.704     15.80      1.87
  325.785       2.924      -0.647     310.754    138.30      0.46
  325.835       2.925      -0.646     310.804     39.74      2.14
  325.885       2.926      -0.646     310.854    340.63      0.55
  325.935       2.928      -0.646     310.904    349.19      1.95
  325.985       2.929      -0.646     310.954      1.62      1.49
  326.035       2.930      -0.646     311.004    352.41      1.47
