~VERSION INFORMATION
VERS .     2.0     : CWLS LOG ASCII STANDARD - VERSION 2.0
WRAP .     NO      : ONE LINE PER 5 DEPTH STEPS
~WELL INFORMATION
#MNEM.UNIT       DATA                  DESCRIPTION OF MNEMONIC
#---- ----       ----                  -----------------------
STRT .ft            0.000                  :START DEPTH
STOP .ft          265.000                  :STOP DEPTH
STEP .ft            0.050                  :STEP
NULL .          -999.2500                  :NULL VALUE
COMP .     Eaton Well Surveys              :COMPANY
WELL .     Fire supply well                :WELL
FLD  .     Pump house                      :FIELD
LOC  .                                     :LOCATION
PROV .     United States of America        :COUNTRY
SRVC .                                     :SERVICE COMPANY
DATE .     10 Mar 17                       :LOG DATE
UWI  .     Fire supply well                :UNIQUE WELL ID
~OTHER INFORMATION SECTION
#-------------------------
North ref is Magnetic
Mean deviation: 0.96 to N273.86
End deviation components .....
     North: 0.297
     East : -4.412
     Down : 264.902
Azimuth of end: N273.86
Distance start-end: 4.422ft
Comment1: T
Comment2: B
Comment3: p
Comment4: d
Comment5: g
Comment6: 3rd party winch coax
Comment7: RE,RS,JH
~CURVE INFORMATION
#MNEM.UNIT      API CODES       CURVE DESCRIPTION
#---- ----      ---------       -----------------
DEPT .ft                          : 1 DEPTH
DEVN .ft                          : 2 DEVIATION COMPONENT NORTH
DEVE .ft                          : 3 DEVIATION COMPONENT EAST
DEVD .ft                          : 4 DEVIATION COMPONENT DOWN
AZIM .deg                         : 5 DEVIATION AZIMUTH
DEV  .deg                         : 6 DEVIATION FROM VERTICAL DOWN
~A DEPT         DEVN        DEVE        DEVD      AZIM       DEV
# ...
   30.450       0.239      -0.325      30.447    299.13      1.11
   30.700       0.241      -0.328      30.697    292.90      0.98
   30.950       0.243      -0.332      30.947    301.37      1.12
   31.200       0.244      -0.336      31.197    297.37      0.91
   31.450       0.246      -0.339      31.447    316.61      0.78
   31.700       0.248      -0.343      31.697    300.88      0.93
   31.950       0.250      -0.346      31.947    317.85      1.04
   32.200       0.251      -0.350      32.197    275.68      0.87
   32.450       0.253      -0.353      32.447    302.50      0.69
   32.700       0.255      -0.356      32.696    315.84      1.08
   32.950       0.255      -0.360      32.946    300.49      0.67
   33.200       0.258      -0.363      33.196    315.32      1.87
   33.450       0.260      -0.368      33.446    294.39      1.13
   33.700       0.262      -0.372      33.696    314.47      1.15
   33.950       0.263      -0.375      33.946    305.77      1.13
   34.200       0.266      -0.379      34.196    312.64      1.21
   34.450       0.268      -0.383      34.446    275.16      1.19
   34.700       0.271      -0.387      34.696    302.16      1.23
   34.950       0.273      -0.391      34.946    289.99      0.93
   35.200       0.275      -0.395      35.196    317.69      1.11
   35.450       0.278      -0.400      35.446    309.49      1.64
   35.700       0.280      -0.404      35.696    304.52      1.49
   35.950       0.281      -0.407      35.946    281.57      1.13
   36.200       0.284      -0.412      36.196    298.81      1.04
   36.450       0.286      -0.415      36.446    289.42      0.84
   36.700       0.288      -0.419      36.696    292.57      0.74
   36.950       0.289      -0.422      36.946    292.27      0.85
   37.200       0.291      -0.425      37.196    321.39      0.88
   37.450       0.294      -0.429      37.446    305.86      1.11
   37.700       0.295      -0.432      37.696    302.33      0.83
   37.950       0.297      -0.435      37.946    290.30      1.04
   38.200       0.300      -0.438      38.196    297.18      0.67
   38.450       0.302      -0.442      38.446    291.72      0.92
   38.700       0.304      -0.446      38.695    305.99      1.37
   38.950       0.307      -0.451      38.945    308.00      1.52
   39.200       0.308      -0.455      39.195    298.67      1.04
   39.450       0.310      -0.460      39.445    284.89      1.26
   39.700       0.312      -0.463      39.695    303.45      1.27
   39.950       0.313      -0.467      39.945    300.92      0.91
   40.200       0.314      -0.471      40.195    284.22      0.76
   40.450       0.317      -0.476      40.445    316.95      1.81
   40.700       0.319      -0.481      40.695    297.93      1.35
   40.950       0.320      -0.485      40.945    288.09      1.12
   41.200       0.322      -0.489      41.195    285.69      0.87
   41.450       0.324      -0.493      41.445    271.97      0.81
   41.700       0.326      -0.497      41.695    302.37      1.10
   41.950       0.326      -0.500      41.945    298.52      1.12
   42.200       0.328      -0.505      42.195    279.93      0.57
   42.450       0.329      -0.509      42.445    274.11      1.00
   42.700       0.331      -0.513      42.695    308.68      1.23
   42.950       0.333      -0.517      42.945    294.04      0.98
   43.200       0.334      -0.521      43.195    299.76      1.07
   43.450       0.335      -0.525      43.445    265.50      0.69
   43.700       0.337      -0.529      43.695    306.20      1.24
   43.950       0.340      -0.534      43.945    300.84      0.83
   44.200       0.342      -0.538      44.194    291.62      1.03
   44.450       0.344      -0.543      44.444    286.76      1.19
   44.700       0.347      -0.548      44.694    286.04      1.27
   44.950       0.349      -0.552      44.944    297.32      1.21
   45.200       0.351      -0.556      45.194    294.74      0.94
   45.450       0.352      -0.560      45.444    282.34      1.13
   45.700       0.354      -0.564      45.694    298.76      1.05
   45.950       0.356      -0.569      45.944    281.08      0.87
   46.200       0.358      -0.573      46.194    290.09      1.23
   46.450       0.360      -0.577      46.444    309.83      1.17
   46.700       0.362      -0.581      46.694    293.67      1.06
   46.950       0.364      -0.585      46.944    288.50      0.86
   47.200       0.366      -0.590      47.194    297.19      1.41
   47.450       0.368      -0.594      47.444    314.57      0.79
   47.700       0.369      -0.598      47.694    277.12      1.33
   47.950       0.372      -0.603      47.944    310.70      1.29
   48.200       0.374      -0.607      48.194    298.21      1.16
   48.450       0.376      -0.612      48.444    292.06      1.23
   48.700       0.378      -0.616      48.694    298.13      1.15
   48.950       0.381      -0.620      48.944    297.41      1.21
   49.200       0.382      -0.625      49.193    286.73      1.00
   49.450       0.385      -0.629      49.443    305.83      1.15
   49.700       0.386      -0.634      49.693    282.84      0.84
   49.950       0.387      -0.638      49.943    285.57      0.96
   50.200       0.389      -0.642      50.193    311.92      0.56
   50.450       0.392      -0.647      50.443    296.19      1.23
   50.700       0.394      -0.651      50.693    296.97      1.27
   50.950       0.396      -0.656      50.943    300.00      1.48
   51.200       0.398      -0.660      51.193    275.77      0.92
   51.450       0.399      -0.665      51.443    276.94      1.60
   51.700       0.401      -0.670      51.693    281.95      0.97
   51.950       0.403      -0.674      51.943    277.72      0.99
   52.200       0.405      -0.678      52.193    304.05      0.88
   52.450       0.407      -0.682      52.443    298.69      0.96
   52.700       0.409      -0.686      52.693    292.91      1.14
   52.950       0.411      -0.690      52.943    305.59      1.16
   53.200       0.412      -0.694      53.193    247.37      1.08
   53.450       0.415      -0.698      53.443    294.14      1.04
   53.700       0.417      -0.702      53.693    299.08      1.34
   53.950       0.420      -0.706      53.943    300.85      1.07
   54.200       0.423      -0.711      54.192    313.56      0.94
   54.450       0.426      -0.714      54.442    316.01      1.09
   54.700       0.427      -0.719      54.692    274.40      1.33
   54.950       0.428      -0.723      54.942    304.66      1.28
   55.200       0.430      -0.727      55.192    279.16      1.35
   55.450       0.433      -0.731      55.442    314.64      1.27
   55.700       0.435      -0.735      55.692    317.34      1.32
   55.950       0.437      -0.739      55.942    281.95      1.18
   56.200       0.439      -0.743      56.192    301.85      1.11
   56.450       0.442      -0.747      56.442    301.95      1.19
   56.700       0.442      -0.751      56.692    261.28      0.76
   56.950       0.446      -0.756      56.942    290.93      0.92
   57.200       0.447      -0.760      57.192    302.80      1.04
   57.450       0.448      -0.765      57.442    273.27      0.89
   57.700       0.451      -0.770      57.692    302.24      1.35
   57.950       0.453      -0.774      57.942    296.38      1.14
   58.200       0.455      -0.779      58.192    285.87      1.01
   58.450       0.457      -0.783      58.442    288.91      1.11
   58.700       0.459      -0.788      58.692    302.56      1.45
   58.950       0.461      -0.792      58.942    278.91      1.13
   59.200       0.462      -0.796      59.192    301.74      1.12
   59.450       0.466      -0.801      59.441    318.94      1.76
   59.700       0.468      -0.806      59.691    291.05      1.20
   59.950       0.469      -0.810      59.941    255.76      0.76
   60.200       0.470      -0.815      60.191    273.54      1.02
   60.450       0.470      -0.819      60.441    245.98      0.85
   60.700       0.472      -0.823      60.691    306.90      1.41
