~VERSION INFORMATION
VERS .     2.0     : CWLS LOG ASCII STANDARD - VERSION 2.0
WRAP .     NO      : ONE LINE PER 5 DEPTH STEPS
~WELL INFORMATION
#MNEM.UNIT       DATA                  DESCRIPTION OF MNEMONIC
#---- ----       ----                  -----------------------
STRT .ft            0.000                  :START DEPTH
STOP .ft          265.000                  :STOP DEPTH
STEP .ft            0.050                  :STEP
NULL .          -999.2500                  :NULL VALUE
COMP .     Eaton Well Surveys              :COMPANY
WELL .     Fire supply well                :WELL
FLD  .     Pump house                      :FIELD
LOC  .                                     :LOCATION
PROV .     United States of America        :COUNTRY
SRVC .                                     :SERVICE COMPANY
DATE .     10 Mar 17                       :LOG DATE
UWI  .     Fire supply well                :UNIQUE WELL ID
~OTHER INFORMATION SECTION
#-------------------------
North ref is Magnetic
Mean deviation: 0.96 to N273.86
End deviation components .....
     North: 0.297
     East : -4.412
     Down : 264.902
Azimuth of end: N273.86
Distance start-end: 4.422ft
Comment1: T
Comment2: B
Comment3: p
Comment4: d
Comment5: g
Comment6: 3rd party winch coax
Comment7: RE,RS,JH
~CURVE INFORMATION
#MNEM.UNIT      API CODES       CURVE DESCRIPTION
#---- ----      ---------       -----------------
DEPT .ft                          : 1 DEPTH
DEVN .ft                          : 2 DEVIATION COMPONENT NORTH
DEVE .ft                          : 3 DEVIATION COMPONENT EAST
DEVD .ft                          : 4 DEVIATION COMPONENT DOWN
AZIM .deg                         : 5 DEVIATION AZIMUTH
DEV  .deg                         : 6 DEVIATION FROM VERTICAL DOWN
~A DEPT         DEVN        DEVE        DEVD      AZIM       DEV
# ...
  122.000       0.845      -2.012     121.977    295.44      1.25
  122.250       0.847      -2.017     122.227    295.04      1.52
  122.500       0.847      -2.021     122.477    283.58      1.26
  122.750       0.848      -2.026     122.727    288.62      1.20
  123.000       0.849      -2.032     122.977    281.22      1.48
  123.250       0.851      -2.036     123.227    302.36      0.97
  123.500       0.852      -2.041     123.477    290.93      1.66
  123.750       0.854      -2.047     123.727    301.66      1.86
  124.000       0.855      -2.051     123.977    280.44      1.20
  124.250       0.856      -2.056     124.227    285.77      1.18
  124.500       0.857      -2.061     124.477    282.14      0.93
  124.750       0.858      -2.065     124.727    274.95      0.84
  125.000       0.860      -2.070     124.977    292.86      1.15
  125.250       0.861      -2.074     125.227    284.88      1.09
  125.500       0.862      -2.078     125.477    290.52      1.10
  125.750       0.864      -2.083     125.727    296.84      1.44
  126.000       0.865      -2.087     125.977    271.48      0.57
  126.250       0.866      -2.092     126.227    269.21      1.28
  126.500       0.869      -2.096     126.477    290.32      0.98
  126.750       0.871      -2.100     126.726    291.48      0.99
  127.000       0.871      -2.104     126.976    263.04      0.90
  127.250       0.872      -2.107     127.226    302.89      0.34
  127.500       0.873      -2.111     127.476    294.71      1.01
  127.750       0.874      -2.115     127.726    268.75      0.83
  128.000       0.875      -2.119     127.976    275.88      0.88
  128.250       0.876      -2.123     128.226    289.77      0.94
  128.500       0.877      -2.127     128.476    271.39      1.04
  128.750       0.877      -2.131     128.726    253.86      0.70
  129.000       0.878      -2.135     128.976    250.59      0.78
  129.250       0.879      -2.139     129.226    313.96      1.16
  129.500       0.880      -2.143     129.476    305.03      1.21
  129.750       0.880      -2.146     129.726    258.97      0.70
  130.000       0.881      -2.150     129.976    283.31      1.09
  130.250       0.882      -2.154     130.226    266.53      0.56
  130.500       0.884      -2.158     130.476    297.37      0.71
  130.750       0.885      -2.162     130.726    305.73      1.23
  131.000       0.886      -2.166     130.976    281.55      1.03
  131.250       0.888      -2.170     131.226    276.36      0.91
  131.500       0.889      -2.175     131.476    253.05      0.82
  131.750       0.890      -2.179     131.726    288.09      1.02
  132.000       0.891      -2.184     131.976    290.85      1.61
  132.250       0.891      -2.186     132.226    251.71      0.89
  132.500       0.891      -2.190     132.476    285.72      0.59
  132.750       0.892      -2.193     132.726    279.01      0.99
  133.000       0.893      -2.197     132.976    312.81      0.88
  133.250       0.892      -2.200     133.226    237.20      0.94
  133.500       0.893      -2.204     133.476    264.91      1.21
  133.750       0.893      -2.207     133.725    278.16      0.83
  134.000       0.893      -2.210     133.975    308.85      1.02
  134.250       0.892      -2.213     134.225    272.54      0.97
  134.500       0.892      -2.217     134.475    266.36      0.94
  134.750       0.892      -2.221     134.725    272.32      0.96
  135.000       0.893      -2.224     134.975    269.21      0.22
  135.250       0.893      -2.228     135.225    276.98      0.80
  135.500       0.893      -2.232     135.475    264.97      0.93
  135.750       0.893      -2.237     135.725    280.06      0.71
  136.000       0.893      -2.241     135.975    282.60      0.98
  136.250       0.894      -2.244     136.225    292.06      0.72
  136.500       0.893      -2.248     136.475    270.88      0.56
  136.750       0.893      -2.252     136.725    256.96      0.80
  137.000       0.894      -2.255     136.975    312.95      0.74
  137.250       0.894      -2.260     137.225    256.95      1.17
  137.500       0.893      -2.263     137.475    263.48      0.58
  137.750       0.893      -2.267     137.725    283.03      0.98
  138.000       0.893      -2.271     137.975    261.47      0.81
  138.250       0.893      -2.274     138.225    309.65      0.60
  138.500       0.893      -2.278     138.475    257.30      0.66
  138.750       0.893      -2.282     138.725    269.48      0.58
  139.000       0.893      -2.287     138.975    268.62      0.90
  139.250       0.893      -2.290     139.225    278.78      1.06
  139.500       0.892      -2.294     139.475    260.21      0.80
  139.750       0.892      -2.298     139.725    274.57      0.77
  140.000       0.891      -2.300     139.975    257.99      0.15
  140.250       0.892      -2.304     140.225    271.07      0.85
  140.500       0.892      -2.307     140.475    272.57      1.02
  140.750       0.892      -2.311     140.725    280.09      0.50
  141.000       0.892      -2.315     140.975    261.21      0.76
  141.250       0.892      -2.318     141.225    267.04      0.53
  141.500       0.893      -2.322     141.475    273.62      0.87
  141.750       0.893      -2.325     141.725    260.45      0.71
  142.000       0.893      -2.328     141.974    287.52      0.62
  142.250       0.893      -2.331     142.224    276.23      0.88
  142.500       0.893      -2.334     142.474    283.23      0.82
  142.750       0.893      -2.337     142.724    277.82      0.69
  143.000       0.893      -2.341     142.974    291.65      0.69
  143.250       0.892      -2.343     143.224    223.31      0.71
  143.500       0.891      -2.345     143.474    254.37      0.64
  143.750       0.891      -2.348     143.724    249.85      0.58
  144.000       0.891      -2.350     143.974    212.12      0.74
  144.250       0.891      -2.353     144.224    274.24      0.66
  144.500       0.890      -2.355     144.474    226.54      0.67
  144.750       0.890      -2.358     144.724    259.72      0.53
  145.000       0.889      -2.360     144.974    278.63      0.69
  145.250       0.888      -2.363     145.224    211.38      0.60
  145.500       0.887      -2.366     145.474    249.11      0.68
  145.750       0.886      -2.368     145.724    237.18      0.58
  146.000       0.885      -2.371     145.974    240.65      1.10
  146.250       0.885      -2.375     146.224    284.50      1.30
  146.500       0.883      -2.379     146.474    236.94      1.01
  146.750       0.882      -2.382     146.724    245.08      0.62
  147.000       0.880      -2.385     146.974    253.61      1.13
  147.250       0.880      -2.389     147.224    234.56      0.73
  147.500       0.878      -2.393     147.474    256.09      1.20
  147.750       0.877      -2.396     147.724    234.63      0.99
  148.000       0.876      -2.400     147.974    239.47      1.27
  148.250       0.874      -2.404     148.224    234.48      1.02
  148.500       0.873      -2.408     148.474    250.75      0.80
  148.750       0.872      -2.411     148.724    239.95      0.95
  149.000       0.870      -2.415     148.974    230.86      0.95
  149.250       0.868      -2.419     149.224    217.06      0.85
  149.500       0.866      -2.421     149.474    246.62      0.76
  149.750       0.866      -2.425     149.724    271.85      1.04
  150.000       0.864      -2.429     149.974    253.57      0.70
  150.250       0.862      -2.434     150.224    245.25      1.54
  150.500       0.861      -2.438     150.474    252.83      0.93
  150.750       0.860      -2.441     150.724    258.97      0.69
  151.000       0.857      -2.445     150.973    253.21      1.49
  151.250       0.855      -2.450     151.223    217.43      0.97
  151.500       0.853      -2.455     151.473    255.22      1.04
  151.750       0.851      -2.458     151.723    246.47      0.85
  152.000       0.849      -2.462     151.973    260.74      0.87
  152.250       0.847      -2.466     152.223    221.65      0.79
