~VERSION INFORMATION
VERS .     2.0     : CWLS LOG ASCII STANDARD - VERSION 2.0
WRAP .     NO      : ONE LINE PER 1 DEPTH STEPS
~WELL INFORMATION
#MNEM.UNIT       DATA                  DESCRIPTION OF MNEMONIC
#---- ----       ----                  -----------------------
STRT .ft           14.885                  :START DEPTH
STOP .ft          397.185                  :STOP DEPTH
STEP .ft            0.050                  :STEP
NULL .          -999.2500                  :NULL VALUE
COMP .     Eaton Well Surveys              :COMPANY
WELL .     EDC Well                        :WELL
FLD  .     CR-103 & CR-17                  :FIELD
LOC  .                                     :LOCATION
PROV .     United States of America        :COUNTRY
SRVC .                                     :SERVICE COMPANY
DATE .     06 Apr 17                       :LOG DATE
UWI  .     EDC Well                        :UNIQUE WELL ID
~OTHER INFORMATION SECTION
#-------------------------
North ref is Magnetic
Mean deviation: 0.72 to N357.14
End deviation components .....
     North: 4.767
     East : -0.238
     Down : 382.119
Azimuth of end: N357.14
Distance start-end: 4.773ft
Comment1: T
Comment2: B
Comment3: p
Comment4: d
Comment5: g
Comment6: 3rd party winch coax
Comment7: RE,RS,JH
~CURVE INFORMATION
#MNEM.UNIT      API CODES       CURVE DESCRIPTION
#---- ----      ---------       -----------------
DEPT .ft                          : 1 DEPTH
DEVN .ft                          : 2 DEVIATION COMPONENT NORTH
DEVE .ft                          : 3 DEVIATION COMPONENT EAST
DEVD .ft                          : 4 DEVIATION COMPONENT DOWN
AZIM .deg                         : 5 DEVIATION AZIMUTH
DEV  .deg                         : 6 DEVIATION FROM VERTICAL DOWN
~A DEPT         DEVN        DEVE        DEVD      AZIM       DEV
   14.985       0.000       0.000       0.000    298.29      0.47
   15.035       0.000      -0.001       0.050    304.12      0.93
   15.085       0.001      -0.001       0.100    300.33      0.88
   15.135       0.001      -0.002       0.150    302.52      0.78
   15.185       0.002      -0.002       0.200    301.11      0.72
   15.235       0.002      -0.003       0.250    300.29      0.72
   15.285       0.002      -0.004       0.300    294.53      0.92
   15.335       0.003      -0.004       0.350    317.63      0.78
   15.385       0.003      -0.005       0.400    317.56      0.84
   15.435       0.004      -0.005       0.450    307.97      0.78
   15.485       0.004      -0.006       0.500    308.10      0.86
   15.535       0.005      -0.007       0.550    306.40      1.04
   15.585       0.005      -0.007       0.600    323.53      0.76
   15.635       0.006      -0.008       0.650    312.44      0.91
   15.685       0.006      -0.008       0.700    304.05      0.74
   15.735       0.006      -0.009       0.750    299.84      0.85
   15.785       0.007      -0.009       0.800    306.84      0.96
   15.835       0.007      -0.010       0.850    307.37      0.89
   15.885       0.008      -0.010       0.900    315.74      0.84
   15.935       0.008      -0.011       0.950    309.36      0.75
   15.985       0.009      -0.012       1.000    307.78      0.80
   16.035       0.009      -0.012       1.050    306.51      0.84
   16.085       0.010      -0.013       1.100    311.23      0.80
   16.135       0.010      -0.013       1.150    310.77      0.84
   16.185       0.011      -0.014       1.200    307.97      1.04
   16.235       0.011      -0.014       1.250    310.37      0.86
   16.285       0.012      -0.015       1.300    311.17      0.79
   16.335       0.012      -0.016       1.350    310.95      0.84
   16.385       0.012      -0.016       1.400    302.90      0.72
   16.435       0.013      -0.017       1.450    310.96      0.85
   16.485       0.013      -0.017       1.500    315.87      0.70
   16.535       0.014      -0.017       1.550    311.91      0.62
   16.585       0.014      -0.018       1.600    309.82      0.83
   16.635       0.015      -0.019       1.650    308.22      0.76
   16.685       0.015      -0.019       1.700    308.25      0.68
   16.735       0.016      -0.020       1.750    308.87      1.05
   16.785       0.016      -0.020       1.800    307.68      0.95
   16.835       0.017      -0.021       1.850    312.78      1.05
   16.885       0.017      -0.021       1.900    327.56      0.75
   16.935       0.018      -0.022       1.950    310.81      0.72
   16.985       0.018      -0.022       2.000    323.94      0.70
   17.035       0.019      -0.023       2.050    313.98      0.90
   17.085       0.019      -0.023       2.100    291.39      0.77
   17.135       0.019      -0.024       2.150    308.98      0.64
   17.185       0.020      -0.024       2.200    305.32      0.72
   17.235       0.020      -0.025       2.250    312.26      0.78
   17.285       0.021      -0.025       2.300    307.40      0.71
   17.335       0.021      -0.026       2.350    302.05      0.77
   17.385       0.021      -0.027       2.400    312.78      0.90
   17.435       0.022      -0.027       2.450    321.49      0.87
   17.485       0.022      -0.028       2.500    308.51      0.75
   17.535       0.023      -0.028       2.550    309.58      0.67
   17.585       0.023      -0.029       2.600    301.89      0.80
   17.635       0.024      -0.029       2.650    327.02      0.67
   17.685       0.024      -0.030       2.700    303.46      0.88
   17.735       0.024      -0.030       2.750    315.03      0.58
   17.785       0.025      -0.030       2.800    328.04      0.57
   17.835       0.025      -0.031       2.850    303.73      0.71
   17.885       0.026      -0.031       2.900    303.93      0.66
   17.935       0.026      -0.032       2.950    317.44      1.24
   17.985       0.027      -0.033       3.000    298.27      1.01
   18.035       0.027      -0.033       3.050    290.95      0.81
   18.085       0.027      -0.034       3.100    316.55      0.72
   18.135       0.028      -0.034       3.150    320.60      0.92
   18.185       0.028      -0.035       3.200    306.59      0.76
   18.235       0.029      -0.035       3.250    335.49      0.54
   18.285       0.029      -0.036       3.300    296.75      0.68
   18.335       0.030      -0.036       3.350    316.64      0.83
   18.385       0.030      -0.036       3.400    299.51      0.16
   18.435       0.030      -0.037       3.450    302.62      0.86
   18.485       0.031      -0.038       3.500    304.20      1.32
   18.535       0.031      -0.039       3.550    300.71      1.20
   18.585       0.032      -0.039       3.600    323.28      1.03
   18.635       0.033      -0.039       3.650    332.95      0.63
   18.685       0.033      -0.040       3.700    325.20      0.94
   18.735       0.034      -0.040       3.750    319.95      0.95
   18.785       0.034      -0.041       3.800    301.34      0.81
   18.835       0.035      -0.042       3.850    310.13      0.92
   18.885       0.035      -0.042       3.900    316.54      0.97
   18.935       0.036      -0.043       3.950    314.92      0.56
   18.985       0.036      -0.043       4.000    300.28      0.59
   19.035       0.036      -0.044       4.050    307.16      0.74
   19.085       0.037      -0.044       4.100    314.74      0.99
   19.135       0.037      -0.045       4.150    311.52      0.92
   19.185       0.038      -0.045       4.200    300.40      0.98
   19.235       0.038      -0.046       4.250    305.35      0.59
   19.285       0.039      -0.046       4.300    327.01      0.83
   19.335       0.039      -0.047       4.350    294.62      0.65
   19.385       0.040      -0.047       4.400    325.13      0.75
   19.435       0.040      -0.048       4.450    302.97      0.54
   19.485       0.040      -0.048       4.500    317.24      0.47
   19.535       0.041      -0.048       4.550    316.97      0.98
   19.585       0.041      -0.049       4.600    315.34      0.65
   19.635       0.042      -0.049       4.650    307.19      0.62
   19.685       0.042      -0.050       4.700    301.94      0.43
   19.735       0.042      -0.050       4.750    316.31      0.80
   19.785       0.043      -0.051       4.800    298.34      0.80
   19.835       0.043      -0.051       4.850    332.40      0.86
   19.885       0.044      -0.051       4.900      0.58      0.54
   19.935       0.044      -0.051       4.950    294.41      0.43
   19.985       0.044      -0.052       5.000    294.55      0.46
   20.035       0.044      -0.052       5.049    321.34      0.71
   20.085       0.045      -0.053       5.099    317.33      0.86
   20.135       0.046      -0.053       5.149    335.52      0.63
   20.185       0.046      -0.053       5.199    306.79      0.43
   20.235       0.046      -0.054       5.249    306.25      0.88
   20.285       0.046      -0.054       5.299    291.01      0.72
   20.335       0.047      -0.055       5.349    334.26      0.94
   20.385       0.048      -0.055       5.399    308.96      0.72
   20.435       0.048      -0.056       5.449    276.20      0.75
   20.485       0.048      -0.056       5.499    330.31      0.47
   20.535       0.048      -0.056       5.549    295.29      0.42
   20.585       0.049      -0.056       5.599    349.36      0.76
   20.635       0.049      -0.057       5.649    296.44      0.79
   20.685       0.049      -0.057       5.699    319.23      0.48
   20.735       0.050      -0.058       5.749    321.80      0.97
   20.785       0.051      -0.058       5.799    354.06      0.92
   20.835       0.051      -0.058       5.849    326.99      0.62
   20.885       0.052      -0.058       5.899      2.74      0.33
   20.935       0.052      -0.058       5.949    343.74      0.08
   20.985       0.052      -0.058       5.999    343.74      0.08
   21.035       0.052      -0.059       6.049    302.94      0.45
