~VERSION INFORMATION
VERS .     2.0     : CWLS LOG ASCII STANDARD - VERSION 2.0
WRAP .     NO      : ONE LINE PER 1 DEPTH STEPS
~WELL INFORMATION
#MNEM.UNIT       DATA                  DESCRIPTION OF MNEMONIC
#---- ----       ----                  -----------------------
STRT .ft           14.885                  :START DEPTH
STOP .ft          397.185                  :STOP DEPTH
STEP .ft            0.050                  :STEP
NULL .          -999.2500                  :NULL VALUE
COMP .     Eaton Well Surveys              :COMPANY
WELL .     EDC Well                        :WELL
FLD  .     CR-103 & CR-17                  :FIELD
LOC  .                                     :LOCATION
PROV .     United States of America        :COUNTRY
SRVC .                                     :SERVICE COMPANY
DATE .     06 Apr 17                       :LOG DATE
UWI  .     EDC Well                        :UNIQUE WELL ID
~OTHER INFORMATION SECTION
#-------------------------
North ref is Magnetic
Mean deviation: 0.72 to N357.14
End deviation components .....
     North: 4.767
     East : -0.238
     Down : 382.119
Azimuth of end: N357.14
Distance start-end: 4.773ft
Comment1: T
Comment2: B
Comment3: p
Comment4: d
Comment5: g
Comment6: 3rd party winch coax
Comment7: RE,RS,JH
~CURVE INFORMATION
#MNEM.UNIT      API CODES       CURVE DESCRIPTION
#---- ----      ---------       -----------------
DEPT .ft                          : 1 DEPTH
DEVN .ft                          : 2 DEVIATION COMPONENT NORTH
DEVE .ft                          : 3 DEVIATION COMPONENT EAST
DEVD .ft                          : 4 DEVIATION COMPONENT DOWN
AZIM .deg                         : 5 DEVIATION AZIMUTH
DEV  .deg                         : 6 DEVIATION FROM VERTICAL DOWN
~A DEPT         DEVN        DEVE        DEVD      AZIM       DEV
# ...
  289.485       2.254      -0.723     274.464     39.38      1.91
  289.535       2.254      -0.723     274.514    353.97      0.76
  289.585       2.255      -0.722     274.564     35.94      0.74
  289.635       2.256      -0.723     274.614    305.00      1.74
  289.685       2.257      -0.722     274.664     48.11      1.87
  289.735       2.257      -0.722     274.714     42.77      0.33
  289.785       2.257      -0.722     274.764    353.95      0.66
  289.835       2.258      -0.722     274.814    353.95      0.66
  289.885       2.259      -0.722     274.864    359.30      1.52
  289.935       2.261      -0.722     274.914    352.26      1.40
  289.985       2.262      -0.723     274.964    318.72      1.63
  290.035       2.262      -0.723     275.014    350.47      0.94
  290.085       2.264      -0.723     275.064     19.26      1.51
  290.135       2.265      -0.722     275.114     23.49      2.04
  290.185       2.267      -0.722     275.164     23.49      2.04
  290.235       2.268      -0.722     275.214    359.02      0.88
  290.285       2.268      -0.720     275.264     85.07      1.68
  290.335       2.269      -0.720     275.314    355.84      1.28
  290.385       2.269      -0.720     275.364    325.97      0.43
  290.435       2.270      -0.720     275.414      9.91      1.25
  290.485       2.272      -0.719     275.464     24.14      2.51
  290.535       2.274      -0.718     275.514     24.14      2.51
  290.585       2.275      -0.718     275.564      7.17      0.64
  290.635       2.275      -0.718     275.614      7.17      0.64
  290.685       2.276      -0.718     275.664     40.71      1.03
  290.735       2.277      -0.717     275.713     41.16      0.64
  290.785       2.276      -0.717     275.764    108.83      0.29
  290.835       2.277      -0.717     275.813    337.06      0.73
  290.885       2.278      -0.718     275.864    337.06      0.73
  290.935       2.280      -0.717     275.913     17.73      3.09
  290.985       2.280      -0.716     275.963     94.68      0.57
  291.035       2.280      -0.717     276.013    274.98      0.80
  291.085       2.281      -0.717     276.063    346.22      0.45
  291.135       2.281      -0.717     276.113     32.75      0.77
  291.185       2.282      -0.716     276.163     32.75      0.77
  291.235       2.282      -0.717     276.213    316.33      1.10
  291.285       2.283      -0.717     276.263     45.33      0.65
  291.335       2.283      -0.716     276.313     45.33      0.65
  291.385       2.284      -0.716     276.363      7.23      0.79
  291.435       2.285      -0.716     276.413     23.23      1.05
  291.485       2.285      -0.715     276.463     30.17      0.75
  291.535       2.286      -0.715     276.513     30.17      0.75
  291.585       2.287      -0.715     276.563      8.85      0.99
  291.635       2.288      -0.716     276.613    333.43      1.97
  291.685       2.289      -0.716     276.663    320.46      0.72
  291.735       2.289      -0.716     276.713    334.77      0.40
  291.785       2.290      -0.717     276.763    318.96      1.58
  291.835       2.291      -0.717     276.813    357.26      1.29
  291.885       2.292      -0.717     276.863     17.39      0.47
  291.935       2.293      -0.717     276.913    358.10      1.28
  291.985       2.294      -0.717     276.963      0.45      1.17
  292.035       2.295      -0.717     277.013      0.45      1.17
  292.085       2.296      -0.717     277.063    352.97      1.40
  292.135       2.296      -0.717     277.113     75.70      0.73
  292.185       2.297      -0.716     277.163      9.32      1.52
  292.235       2.298      -0.716     277.213    357.20      0.98
  292.285       2.299      -0.717     277.263    357.20      0.98
  292.335       2.300      -0.717     277.313    357.67      1.01
  292.385       2.301      -0.716     277.363     35.27      0.90
  292.435       2.302      -0.716     277.413    349.49      1.30
  292.485       2.303      -0.717     277.463    349.59      1.16
  292.535       2.303      -0.718     277.513    298.45      1.50
  292.585       2.305      -0.718     277.563    332.63      1.65
  292.635       2.304      -0.717     277.613    101.18      1.86
  292.685       2.304      -0.718     277.663    263.25      1.13
  292.735       2.305      -0.718     277.713    329.62      1.36
  292.785       2.306      -0.718     277.763     16.51      0.95
  292.835       2.307      -0.718     277.813     25.52      0.63
  292.885       2.307      -0.718     277.863     25.52      0.63
  292.935       2.308      -0.718     277.913    354.42      0.84
  292.985       2.309      -0.717     277.963     11.73      1.04
  293.035       2.310      -0.717     278.013     23.02      1.40
  293.085       2.311      -0.717     278.063      7.26      1.04
  293.135       2.311      -0.717     278.113    351.34      0.64
  293.185       2.311      -0.717     278.163    295.11      0.55
  293.235       2.312      -0.717     278.213    358.38      0.87
  293.285       2.313      -0.717     278.263     17.90      1.36
  293.335       2.315      -0.717     278.313     16.70      1.41
  293.385       2.315      -0.717     278.363      2.44      0.60
  293.435       2.316      -0.717     278.413    329.26      0.75
  293.485       2.316      -0.717     278.463    329.26      0.75
  293.535       2.317      -0.717     278.513    351.74      0.94
  293.585       2.318      -0.718     278.563    335.05      1.43
  293.635       2.319      -0.718     278.613     13.50      1.25
  293.685       2.320      -0.718     278.663    328.67      0.85
  293.735       2.320      -0.719     278.713    328.67      0.85
  293.785       2.320      -0.718     278.763     88.37      0.53
  293.835       2.322      -0.718     278.813     24.48      1.44
  293.885       2.322      -0.718     278.863    351.36      0.68
  293.935       2.323      -0.717     278.913     22.86      1.19
  293.985       2.324      -0.717     278.963    358.27      1.40
  294.035       2.326      -0.717     279.013      9.41      1.37
  294.085       2.327      -0.717     279.063      9.41      1.37
  294.135       2.327      -0.717     279.113    341.50      0.66
  294.185       2.328      -0.718     279.163    318.35      1.16
  294.235       2.329      -0.718     279.213    345.60      0.85
  294.285       2.330      -0.718     279.263      2.24      1.63
  294.335       2.331      -0.718     279.313      0.18      1.28
  294.385       2.332      -0.717     279.363     43.04      0.71
  294.435       2.332      -0.717     279.413     43.04      0.71
  294.485       2.333      -0.717     279.463      6.38      1.11
  294.535       2.334      -0.717     279.513     24.69      0.89
  294.585       2.335      -0.716     279.563     27.27      1.59
  294.635       2.336      -0.715     279.613     27.27      1.59
  294.685       2.337      -0.715     279.663     12.51      0.76
  294.735       2.338      -0.715     279.713     12.51      0.76
  294.785       2.339      -0.715     279.763    351.81      1.04
  294.835       2.340      -0.715     279.813    349.71      1.50
  294.885       2.340      -0.715     279.863     10.70      0.23
  294.935       2.341      -0.715     279.913    346.72      0.79
  294.985       2.341      -0.715     279.963      2.71      0.56
  295.035       2.342      -0.715     280.013      9.65      1.06
  295.085       2.343      -0.716     280.063    345.32      1.30
  295.135       2.344      -0.715     280.113     32.60      1.13
  295.185       2.345      -0.715     280.163      8.56      0.99
  295.235       2.345      -0.716     280.213    317.01      0.97
  295.285       2.346      -0.715     280.263     12.31      0.75
  295.335       2.347      -0.716     280.313    348.38      1.22
  295.385       2.348      -0.716     280.363    348.56      1.02
  295.435       2.349      -0.716     280.413    355.48      0.99
  295.485       2.350      -0.716     280.463    343.48      0.98
  295.535       2.351      -0.716     280.513    343.48      0.98
