~VERSION INFORMATION
VERS .     2.0     : CWLS LOG ASCII STANDARD - VERSION 2.0
WRAP .     NO      : ONE LINE PER 1 DEPTH STEPS
~WELL INFORMATION
#MNEM.UNIT       DATA                  DESCRIPTION OF MNEMONIC
#---- ----       ----                  -----------------------
STRT .ft           14.885                  :START DEPTH
STOP .ft          397.185                  :STOP DEPTH
STEP .ft            0.050                  :STEP
NULL .          -999.2500                  :NULL VALUE
COMP .     Eaton Well Surveys              :COMPANY
WELL .     EDC Well                        :WELL
FLD  .     CR-103 & CR-17                  :FIELD
LOC  .                                     :LOCATION
PROV .     United States of America        :COUNTRY
SRVC .                                     :SERVICE COMPANY
DATE .     06 Apr 17                       :LOG DATE
UWI  .     EDC Well                        :UNIQUE WELL ID
~OTHER INFORMATION SECTION
#-------------------------
North ref is Magnetic
Mean deviation: 0.72 to N357.14
End deviation components .....
     North: 4.767
     East : -0.238
     Down : 382.119
Azimuth of end: N357.14
Distance start-end: 4.773ft
Comment1: T
Comment2: B
Comment3: p
Comment4: d
Comment5: g
Comment6: 3rd party winch coax
Comment7: RE,RS,JH
~CURVE INFORMATION
#MNEM.UNIT      API CODES       CURVE DESCRIPTION
#---- ----      ---------       -----------------
DEPT .ft                          : 1 DEPTH
DEVN .ft                          : 2 DEVIATION COMPONENT NORTH
DEVE .ft                          : 3 DEVIATION COMPONENT EAST
DEVD .ft                          : 4 DEVIATION COMPONENT DOWN
AZIM .deg                         : 5 DEVIATION AZIMUTH
DEV  .deg                         : 6 DEVIATION FROM VERTICAL DOWN
~A DEPT         DEVN        DEVE        DEVD      AZIM       DEV
# ...
  191.885       0.993      -0.680     176.880    141.75      0.50
  191.935       0.994      -0.681     176.930    307.93      0.68
  191.985       0.994      -0.681     176.980    307.93      0.68
  192.035       0.994      -0.681     177.030    115.69      0.20
  192.085       0.994      -0.682     177.080    273.80      0.50
  192.135       0.994      -0.682     177.130    313.15      0.32
  192.185       0.994      -0.682     177.180    313.15      0.32
  192.235       0.995      -0.683     177.230    316.76      0.85
  192.285       0.996      -0.683     177.280    336.87      1.04
  192.335       0.996      -0.684     177.330    286.46      0.82
  192.385       0.997      -0.684     177.380    342.67      0.76
  192.435       0.997      -0.684     177.430     20.70      0.82
  192.485       0.998      -0.683     177.480     25.50      0.84
  192.535       0.999      -0.683     177.530     25.50      0.84
  192.585       0.999      -0.683     177.580    341.19      0.43
  192.635       0.999      -0.683     177.630    241.23      0.34
  192.685       0.999      -0.683     177.680    283.38      0.25
  192.735       0.999      -0.684     177.730    318.12      0.22
  192.785       1.000      -0.683     177.780     27.99      1.25
  192.835       1.001      -0.683     177.830     27.99      1.25
  192.885       1.002      -0.683     177.880      1.86      1.00
  192.935       1.002      -0.682     177.930     38.62      0.49
  192.985       1.003      -0.682     177.980      2.30      0.82
  193.035       1.004      -0.682     178.030      2.30      0.82
  193.085       1.005      -0.682     178.080     17.11      1.39
  193.135       1.005      -0.682     178.130    259.50      0.67
  193.185       1.005      -0.683     178.180    339.99      0.94
  193.235       1.005      -0.683     178.230    318.96      0.05
  193.285       1.005      -0.683     178.280    318.96      0.05
  193.335       1.006      -0.682     178.330     74.64      0.94
  193.385       1.007      -0.682     178.380    338.96      1.39
  193.435       1.008      -0.683     178.430    321.19      1.08
  193.485       1.007      -0.683     178.480    163.63      0.36
  193.535       1.007      -0.683     178.530    163.63      0.36
  193.585       1.007      -0.683     178.580    110.21      0.33
  193.635       1.008      -0.682     178.630     24.84      1.11
  193.685       1.008      -0.682     178.680     36.79      0.43
  193.735       1.008      -0.682     178.730     36.79      0.43
  193.785       1.009      -0.682     178.780    311.15      0.70
  193.835       1.009      -0.682     178.830    352.66      0.76
  193.885       1.010      -0.682     178.880    334.41      0.18
  193.935       1.010      -0.682     178.930    334.41      0.18
  193.985       1.010      -0.682     178.980     36.81      1.17
  194.035       1.012      -0.681     179.030     31.43      1.49
  194.085       1.013      -0.681     179.080      6.87      1.72
  194.135       1.015      -0.681     179.130      6.87      1.72
  194.185       1.015      -0.681     179.180    318.83      0.48
  194.235       1.015      -0.681     179.230    318.83      0.48
  194.285       1.016      -0.681     179.280     15.98      0.66
  194.335       1.016      -0.682     179.330    296.57      0.73
  194.385       1.016      -0.682     179.380    272.22      0.34
  194.435       1.016      -0.682     179.430     53.97      0.47
  194.485       1.017      -0.681     179.480     53.97      0.47
  194.535       1.017      -0.681     179.530      8.12      0.33
  194.585       1.017      -0.681     179.580      8.12      0.33
  194.635       1.017      -0.682     179.630    301.09      0.44
  194.685       1.018      -0.682     179.680    313.75      0.49
  194.735       1.018      -0.682     179.730     28.51      0.58
  194.785       1.018      -0.681     179.780     28.51      0.58
  194.835       1.019      -0.682     179.830    330.83      0.80
  194.885       1.019      -0.681     179.879     62.42      0.47
  194.935       1.020      -0.681     179.929    355.98      0.78
  194.985       1.021      -0.681     179.979    355.98      0.78
  195.035       1.021      -0.682     180.029    294.45      0.92
  195.085       1.020      -0.682     180.079    160.82      0.67
  195.135       1.021      -0.682     180.129     49.15      0.55
  195.185       1.021      -0.681     180.179     49.15      0.55
  195.235       1.022      -0.681     180.229     33.42      0.80
  195.285       1.023      -0.681     180.279    351.73      1.12
  195.335       1.022      -0.681     180.329    216.29      0.15
  195.385       1.023      -0.681     180.379    336.14      0.89
  195.435       1.024      -0.682     180.429    336.14      0.89
  195.485       1.025      -0.681     180.479     50.58      1.13
  195.535       1.025      -0.680     180.529     74.60      0.98
  195.585       1.025      -0.680     180.579    346.94      0.08
  195.635       1.026      -0.680     180.629    343.19      0.88
  195.685       1.026      -0.681     180.679    343.19      0.88
  195.735       1.027      -0.681     180.729    353.14      1.11
  195.785       1.028      -0.681     180.779    354.37      0.43
  195.835       1.028      -0.681     180.829    323.11      0.47
  195.885       1.028      -0.681     180.879    337.62      0.42
  195.935       1.029      -0.681     180.929    337.61      0.42
  195.985       1.029      -0.681     180.979     89.23      0.33
  196.035       1.029      -0.681     181.029    337.66      0.99
  196.085       1.029      -0.681     181.079     72.61      0.15
  196.135       1.030      -0.681     181.129    310.18      0.32
  196.185       1.030      -0.682     181.179    310.18      0.32
  196.235       1.031      -0.682     181.229    335.07      1.02
  196.285       1.032      -0.682     181.279      9.08      1.74
  196.335       1.032      -0.683     181.329    275.88      0.96
  196.385       1.032      -0.683     181.379    219.80      1.03
  196.435       1.032      -0.683     181.429     90.43      0.60
  196.485       1.032      -0.683     181.479    295.99      0.92
  196.535       1.032      -0.683     181.529      9.00      0.19
  196.585       1.032      -0.684     181.579    309.53      0.50
  196.635       1.033      -0.684     181.629    343.07      0.56
  196.685       1.033      -0.684     181.679    343.07      0.56
  196.735       1.034      -0.684     181.729      6.08      1.21
  196.785       1.034      -0.684     181.779    291.78      0.18
  196.835       1.035      -0.684     181.829    346.02      0.30
  196.885       1.035      -0.684     181.879      8.68      0.65
  196.935       1.036      -0.684     181.929      8.68      0.65
  196.985       1.037      -0.684     181.979    337.84      1.14
  197.035       1.037      -0.684     182.029    337.58      0.27
  197.085       1.037      -0.684     182.079     77.07      0.49
  197.135       1.038      -0.684     182.129    345.40      0.71
  197.185       1.038      -0.685     182.179    329.46      0.85
  197.235       1.039      -0.685     182.229    352.07      1.12
  197.285       1.040      -0.685     182.279    352.07      1.12
  197.335       1.040      -0.685     182.329    309.67      0.35
  197.385       1.041      -0.685     182.379     28.25      0.80
  197.435       1.041      -0.685     182.429    201.89      0.49
  197.485       1.041      -0.685     182.479      1.74      1.03
  197.535       1.042      -0.685     182.529      1.74      1.03
  197.585       1.042      -0.685     182.579    207.05      0.13
  197.635       1.043      -0.685     182.629      1.49      1.31
  197.685       1.044      -0.685     182.679    359.03      0.59
  197.735       1.044      -0.684     182.729     61.61      1.01
  197.785       1.045      -0.684     182.779     43.22      0.39
  197.835       1.046      -0.684     182.829      3.93      1.19
  197.885       1.046      -0.684     182.879    320.85      0.92
  197.935       1.047      -0.685     182.929    344.45      1.14
