~VERSION INFORMATION
VERS .     2.0     : CWLS LOG ASCII STANDARD - VERSION 2.0
WRAP .     NO      : ONE LINE PER 1 DEPTH STEPS
~WELL INFORMATION
#MNEM.UNIT       DATA                  DESCRIPTION OF MNEMONIC
#---- ----       ----                  -----------------------
STRT .ft           14.885                  :START DEPTH
STOP .ft          397.185                  :STOP DEPTH
STEP .ft            0.050                  :STEP
NULL .          -999.2500                  :NULL VALUE
COMP .     Eaton Well Surveys              :COMPANY
WELL .     EDC Well                        :WELL
FLD  .     CR-103 & CR-17                  :FIELD
LOC  .                                     :LOCATION
PROV .     United States of America        :COUNTRY
SRVC .                                     :SERVICE COMPANY
DATE .     06 Apr 17                       :LOG DATE
UWI  .     EDC Well                        :UNIQUE WELL ID
~OTHER INFORMATION SECTION
#-------------------------
North ref is Magnetic
Mean deviation: 0.72 to N357.14
End deviation components .....
     North: 4.767
     East : -0.238
     Down : 382.119
Azimuth of end: N357.14
Distance start-end: 4.773ft
Comment1: T
Comment2: B
Comment3: p
Comment4: d
Comment5: g
Comment6: 3rd party winch coax
Comment7: RE,RS,JH
~CURVE INFORMATION
#MNEM.UNIT      API CODES       CURVE DESCRIPTION
#---- ----      ---------       -----------------
DEPT .ft                          : 1 DEPTH
DEVN .ft                          : 2 DEVIATION COMPONENT NORTH
DEVE .ft                          : 3 DEVIATION COMPONENT EAST
DEVD .ft                          : 4 DEVIATION COMPONENT DOWN
AZIM .deg                         : 5 DEVIATION AZIMUTH
DEV  .deg                         : 6 DEVIATION FROM VERTICAL DOWN
~A DEPT         DEVN        DEVE        DEVD      AZIM       DEV
# ...
  265.085       1.877      -0.731     250.069    288.29      0.58
  265.135       1.878      -0.732     250.119    305.47      1.27
  265.185       1.878      -0.732     250.169     26.24      0.65
  265.235       1.879      -0.731     250.219     26.24      0.65
  265.285       1.880      -0.731     250.269     10.73      1.19
  265.335       1.880      -0.731     250.319     74.17      0.81
  265.385       1.880      -0.731     250.369    325.57      0.50
  265.435       1.881      -0.732     250.419    311.27      1.13
  265.485       1.882      -0.732     250.469    354.24      0.80
  265.535       1.882      -0.732     250.519    354.24      0.80
  265.585       1.884      -0.732     250.569    352.25      1.31
  265.635       1.884      -0.731     250.619     45.18      0.59
  265.685       1.884      -0.732     250.669    310.10      0.30
  265.735       1.885      -0.731     250.719     29.76      0.87
  265.785       1.885      -0.731     250.769     29.76      0.87
  265.835       1.886      -0.731     250.819      7.53      1.22
  265.885       1.887      -0.730     250.869     59.19      1.03
  265.935       1.888      -0.730     250.919      5.68      1.70
  265.985       1.889      -0.730     250.969      3.01      0.77
  266.035       1.890      -0.730     251.019      3.01      0.77
  266.085       1.890      -0.730     251.069    167.05      0.11
  266.135       1.891      -0.730     251.119    352.90      1.10
  266.185       1.891      -0.730     251.169    348.21      0.72
  266.235       1.892      -0.730     251.219    348.21      0.72
  266.285       1.893      -0.730     251.269    340.41      1.04
  266.335       1.893      -0.730     251.319    356.77      0.56
  266.385       1.894      -0.731     251.369    354.26      1.13
  266.435       1.895      -0.731     251.419    355.31      0.91
  266.485       1.896      -0.731     251.469    355.30      0.91
  266.535       1.896      -0.731     251.519    330.17      0.31
  266.585       1.896      -0.730     251.569     59.68      0.55
  266.635       1.898      -0.730     251.619      9.14      1.63
  266.685       1.898      -0.730     251.669    358.15      0.67
  266.735       1.899      -0.730     251.719    358.15      0.67
  266.785       1.899      -0.730     251.769    353.80      0.45
  266.835       1.900      -0.730     251.818    349.96      0.91
  266.885       1.900      -0.731     251.869    332.35      0.58
  266.935       1.901      -0.731     251.919    332.35      0.58
  266.985       1.902      -0.731     251.968    358.41      0.78
  267.035       1.902      -0.731     252.018     18.77      0.87
  267.085       1.903      -0.731     252.068      2.52      1.12
  267.135       1.905      -0.731     252.118    330.42      1.81
  267.185       1.906      -0.732     252.168    330.42      1.81
  267.235       1.908      -0.731     252.218     24.00      2.44
  267.285       1.909      -0.732     252.268    348.84      1.70
  267.335       1.911      -0.731     252.318     28.11      2.00
  267.385       1.911      -0.730     252.368     36.19      0.64
  267.435       1.912      -0.731     252.418    347.38      0.98
  267.485       1.913      -0.731     252.468    334.67      0.88
  267.535       1.914      -0.731     252.518      7.64      0.94
  267.585       1.914      -0.731     252.568      7.64      0.94
  267.635       1.915      -0.731     252.618    329.86      0.97
  267.685       1.916      -0.732     252.668    309.49      1.47
  267.735       1.917      -0.733     252.718    309.49      1.47
  267.785       1.918      -0.733     252.768    358.65      0.95
  267.835       1.918      -0.734     252.818    311.77      0.74
  267.885       1.919      -0.734     252.868    311.77      0.74
  267.935       1.919      -0.734     252.918      1.16      0.67
  267.985       1.920      -0.734     252.968    353.31      0.76
  268.035       1.920      -0.734     253.018    354.64      0.69
  268.085       1.921      -0.734     253.068     30.48      0.84
  268.135       1.922      -0.734     253.118     16.40      1.12
  268.185       1.923      -0.734     253.168    354.90      0.74
  268.235       1.923      -0.734     253.218    308.26      0.49
  268.285       1.924      -0.734     253.268      2.03      1.39
  268.335       1.925      -0.735     253.318    322.94      1.08
  268.385       1.925      -0.735     253.368    330.08      0.46
  268.435       1.925      -0.735     253.418    266.56      0.41
  268.485       1.926      -0.735     253.468    325.28      0.71
  268.535       1.926      -0.736     253.518    332.60      0.97
  268.585       1.927      -0.736     253.568    332.60      0.97
  268.635       1.928      -0.737     253.618    337.74      0.89
  268.685       1.928      -0.737     253.668    285.25      0.44
  268.735       1.929      -0.737     253.718    318.30      0.90
  268.785       1.929      -0.738     253.768    351.19      0.91
  268.835       1.930      -0.738     253.818    351.19      0.91
  268.885       1.931      -0.737     253.868     21.39      1.37
  268.935       1.932      -0.738     253.918    339.60      1.01
  268.985       1.933      -0.737     253.968     26.18      1.20
  269.035       1.934      -0.737     254.018      3.89      0.92
  269.085       1.935      -0.737     254.068     15.77      1.03
  269.135       1.936      -0.737     254.118     15.77      1.03
  269.185       1.936      -0.736     254.168      4.50      1.07
  269.235       1.938      -0.736     254.218     14.46      1.41
  269.285       1.939      -0.736     254.268     19.14      2.01
  269.335       1.940      -0.735     254.318      5.52      1.23
  269.385       1.941      -0.735     254.368      5.08      1.00
  269.435       1.942      -0.736     254.418    336.72      0.64
  269.485       1.943      -0.735     254.468     20.20      1.71
  269.535       1.945      -0.735     254.518     20.20      1.71
  269.585       1.945      -0.735     254.568    324.93      0.53
  269.635       1.946      -0.735     254.618    349.73      1.17
  269.685       1.947      -0.734     254.668     42.76      0.95
  269.735       1.948      -0.734     254.718      9.12      1.52
  269.785       1.948      -0.734     254.768     14.84      0.37
  269.835       1.950      -0.735     254.818    334.90      1.81
  269.885       1.951      -0.736     254.868    334.90      1.81
  269.935       1.952      -0.735     254.918     24.18      1.67
  269.985       1.953      -0.735     254.968    351.73      1.20
  270.035       1.954      -0.735     255.018    350.49      1.17
  270.085       1.955      -0.736     255.068    318.18      1.47
  270.135       1.956      -0.736     255.118      8.05      1.31
  270.185       1.957      -0.736     255.168    351.51      0.82
  270.235       1.958      -0.736     255.218    340.59      1.09
  270.285       1.959      -0.736     255.268     12.40      0.68
  270.335       1.959      -0.737     255.318    326.26      0.72
  270.385       1.960      -0.737     255.368    326.26      0.72
  270.435       1.960      -0.736     255.418     61.11      0.60
  270.485       1.961      -0.736     255.468     50.16      1.10
  270.535       1.961      -0.736     255.518      2.14      0.99
  270.585       1.962      -0.735     255.568     28.45      1.14
  270.635       1.963      -0.735     255.618     28.45      1.14
  270.685       1.964      -0.735     255.668    325.05      0.66
  270.735       1.964      -0.735     255.718    278.79      0.44
  270.785       1.965      -0.735     255.768      9.25      1.38
  270.835       1.965      -0.736     255.818    323.46      0.63
  270.885       1.965      -0.736     255.868    249.16      0.87
  270.935       1.966      -0.737     255.918    339.26      1.12
  270.985       1.966      -0.737     255.968    348.13      0.32
  271.035       1.967      -0.736     256.018     47.29      1.19
  271.085       1.968      -0.736     256.068    329.82      1.14
  271.135       1.969      -0.737     256.118    329.82      1.14
