~VERSION INFORMATION
VERS .     2.0     : CWLS LOG ASCII STANDARD - VERSION 2.0
WRAP .     NO      : ONE LINE PER 5 DEPTH STEPS
~WELL INFORMATION
#MNEM.UNIT       DATA                  DESCRIPTION OF MNEMONIC
#---- ----       ----                  -----------------------
STRT .ft            0.000                  :START DEPTH
STOP .ft          252.000                  :STOP DEPTH
STEP .ft            0.050                  :STEP
NULL .          -999.2500                  :NULL VALUE
COMP .     Eaton Well Surveys              :COMPANY
WELL .     15                              :WELL
FLD  .     Gated pumphouse in park         :FIELD
LOC  .                                     :LOCATION
PROV .     United States of America        :COUNTRY
SRVC .                                     :SERVICE COMPANY
DATE .     21 Mar 17                       :LOG DATE
UWI  .     15                              :UNIQUE WELL ID
~OTHER INFORMATION SECTION
#-------------------------
North ref is Magnetic
Mean deviation: 1.02 to N245.93
End deviation components .....
     North: -1.821
     East : -4.078
     Down : 251.897
Azimuth of end: N245.94
Distance start-end: 4.466ft
Comment1: T
Comment2: B
Comment3: p
Comment4: d
Comment5: g
Comment6: 3rd party winch coax
Comment7: RE,RS,JH
~CURVE INFORMATION
#MNEM.UNIT      API CODES       CURVE DESCRIPTION
#---- ----      ---------       -----------------
DEPT .ft                          : 1 DEPTH
DEVN .ft                          : 2 DEVIATION COMPONENT NORTH
DEVE .ft                          : 3 DEVIATION COMPONENT EAST
DEVD .ft                          : 4 DEVIATION COMPONENT DOWN
AZIM .deg                         : 5 DEVIATION AZIMUTH
DEV  .deg                         : 6 DEVIATION FROM VERTICAL DOWN
~A DEPT         DEVN        DEVE        DEVD      AZIM       DEV
# ...
  122.000      -1.012      -1.319     121.986    212.89      0.79
  122.250      -1.014      -1.323     122.236    244.85      0.93
  122.500      -1.017      -1.327     122.486    234.24      1.25
  122.750      -1.019      -1.331     122.736    229.23      0.99
  123.000      -1.020      -1.334     122.986    229.96      0.83
  123.250      -1.023      -1.338     123.236    210.80      0.86
  123.500      -1.026      -1.341     123.486    232.11      0.73
  123.750      -1.028      -1.345     123.736    231.32      1.63
  124.000      -1.031      -1.348     123.986    229.60      0.80
  124.250      -1.034      -1.351     124.236    221.08      0.80
  124.500      -1.036      -1.354     124.485    226.11      0.95
  124.750      -1.040      -1.357     124.735    216.67      1.26
  125.000      -1.041      -1.361     124.985    261.69      0.75
  125.250      -1.043      -1.364     125.235    227.64      1.06
  125.500      -1.045      -1.368     125.485    228.05      1.21
  125.750      -1.048      -1.372     125.735    249.48      0.94
  126.000      -1.050      -1.376     125.985    236.19      1.16
  126.250      -1.052      -1.380     126.235    219.33      0.75
  126.500      -1.053      -1.383     126.485    251.05      1.03
  126.750      -1.055      -1.387     126.735    249.11      1.40
  127.000      -1.057      -1.390     126.985    240.33      1.03
  127.250      -1.059      -1.393     127.235    240.66      0.92
  127.500      -1.062      -1.396     127.485    237.51      0.86
  127.750      -1.064      -1.399     127.735    237.23      0.81
  128.000      -1.065      -1.402     127.985    240.51      0.69
  128.250      -1.066      -1.406     128.235    246.85      0.88
  128.500      -1.069      -1.409     128.485    243.19      0.98
  128.750      -1.071      -1.412     128.735    241.00      0.84
  129.000      -1.073      -1.416     128.985    234.44      1.09
  129.250      -1.075      -1.418     129.235    251.77      0.45
  129.500      -1.077      -1.421     129.485    242.47      0.89
  129.750      -1.078      -1.425     129.735    246.25      0.91
  130.000      -1.081      -1.428     129.985    234.47      0.93
  130.250      -1.083      -1.432     130.235    238.88      1.01
  130.500      -1.085      -1.436     130.485    241.77      0.83
  130.750      -1.087      -1.439     130.735    232.25      0.82
  131.000      -1.089      -1.442     130.985    243.89      0.81
  131.250      -1.090      -1.445     131.235    242.87      0.89
  131.500      -1.089      -1.448     131.485    315.60      0.79
  131.750      -1.087      -1.451     131.735    314.79      0.81
  132.000      -1.084      -1.453     131.985    314.75      0.81
  132.250      -1.082      -1.455     132.234    316.37      0.57
  132.500      -1.080      -1.457     132.484    286.87      0.43
  132.750      -1.080      -1.460     132.734    265.18      0.67
  133.000      -1.080      -1.462     132.984    270.00      0.65
  133.250      -1.080      -1.465     133.234    260.85      0.39
  133.500      -1.082      -1.468     133.484    240.79      0.88
  133.750      -1.083      -1.472     133.734    239.64      1.00
  134.000      -1.086      -1.476     133.984    239.48      1.08
  134.250      -1.088      -1.480     134.234    230.44      0.97
  134.500      -1.092      -1.484     134.484    227.54      1.46
  134.750      -1.097      -1.488     134.734    233.53      1.27
  135.000      -1.099      -1.492     134.984    244.29      0.83
  135.250      -1.100      -1.495     135.234    247.64      0.82
  135.500      -1.102      -1.498     135.484    236.23      0.86
  135.750      -1.104      -1.501     135.734    243.87      1.02
  136.000      -1.106      -1.505     135.984    232.27      0.88
  136.250      -1.107      -1.509     136.234    251.93      0.93
  136.500      -1.108      -1.512     136.484    246.30      0.78
  136.750      -1.109      -1.514     136.734    256.21      0.41
  137.000      -1.108      -1.516     136.984    269.55      0.21
  137.250      -1.108      -1.517     137.234    277.30      0.30
  137.500      -1.108      -1.518     137.484    353.89      0.17
  137.750      -1.108      -1.518     137.734    265.83      0.07
  138.000      -1.108      -1.518     137.984    161.73      0.04
  138.250      -1.111      -1.519     138.234    192.30      1.16
  138.500      -1.116      -1.520     138.484    195.49      1.13
  138.750      -1.121      -1.522     138.734    187.85      1.11
  139.000      -1.126      -1.523     138.984    203.65      1.10
  139.250      -1.131      -1.525     139.234    202.71      1.27
  139.500      -1.136      -1.527     139.484    193.60      1.42
  139.750      -1.141      -1.530     139.734    217.31      1.17
  140.000      -1.145      -1.532     139.983    202.38      1.11
  140.250      -1.150      -1.533     140.233    191.24      1.26
  140.500      -1.154      -1.536     140.483    217.18      1.20
  140.750      -1.160      -1.538     140.733    205.82      1.43
  141.000      -1.165      -1.541     140.983    212.35      1.42
  141.250      -1.171      -1.542     141.233    212.86      1.24
  141.500      -1.175      -1.545     141.483    214.52      1.47
  141.750      -1.181      -1.548     141.733    202.29      1.37
  142.000      -1.185      -1.551     141.983    240.92      1.46
  142.250      -1.189      -1.553     142.233    199.64      0.93
  142.500      -1.194      -1.555     142.483    202.73      1.23
  142.750      -1.199      -1.557     142.733    212.74      1.45
  143.000      -1.204      -1.560     142.983    225.55      1.23
  143.250      -1.208      -1.562     143.233    210.54      0.81
  143.500      -1.214      -1.565     143.483    206.74      1.10
  143.750      -1.218      -1.567     143.733    200.32      1.01
  144.000      -1.222      -1.570     143.983    201.36      1.40
  144.250      -1.227      -1.573     144.232    205.53      1.10
  144.500      -1.231      -1.576     144.482    215.92      1.31
  144.750      -1.235      -1.580     144.732    223.79      1.50
  145.000      -1.239      -1.584     144.982    226.16      1.35
  145.250      -1.242      -1.587     145.232    212.30      0.51
  145.500      -1.245      -1.591     145.482    239.45      1.29
  145.750      -1.249      -1.596     145.732    229.21      1.49
  146.000      -1.252      -1.600     145.982    220.58      1.21
  146.250      -1.256      -1.605     146.232    228.19      1.25
  146.500      -1.260      -1.608     146.482    225.71      1.29
  146.750      -1.263      -1.613     146.732    237.68      1.42
  147.000      -1.266      -1.618     146.982    238.29      1.21
  147.250      -1.270      -1.623     147.232    230.49      1.71
  147.500      -1.273      -1.627     147.482    234.78      1.07
  147.750      -1.277      -1.632     147.732    236.53      1.45
  148.000      -1.281      -1.636     147.981    230.00      1.52
  148.250      -1.283      -1.641     148.231    234.66      1.40
  148.500      -1.288      -1.646     148.481    222.20      1.39
  148.750      -1.291      -1.651     148.731    233.58      1.34
  149.000      -1.295      -1.655     148.981    234.61      1.19
  149.250      -1.299      -1.660     149.231    227.32      1.33
  149.500      -1.302      -1.664     149.481    241.39      1.13
  149.750      -1.305      -1.669     149.731    225.41      1.34
  150.000      -1.308      -1.672     149.981    252.78      1.10
  150.250      -1.312      -1.677     150.231    218.74      1.53
  150.500      -1.316      -1.681     150.481    238.98      1.36
  150.750      -1.319      -1.686     150.731    214.81      1.32
  151.000      -1.322      -1.691     150.981    238.91      1.33
  151.250      -1.325      -1.695     151.231    242.04      1.07
  151.500      -1.329      -1.700     151.481    229.20      1.16
  151.750      -1.333      -1.705     151.730    231.46      1.42
  152.000      -1.337      -1.710     151.980    238.28      1.25
  152.250      -1.340      -1.715     152.230    244.26      1.50
