~VERSION INFORMATION
VERS .     2.0     : CWLS LOG ASCII STANDARD - VERSION 2.0
WRAP .     NO      : ONE LINE PER 1 DEPTH STEPS
~WELL INFORMATION
#MNEM.UNIT       DATA                  DESCRIPTION OF MNEMONIC
#---- ----       ----                  -----------------------
STRT .ft           14.885                  :START DEPTH
STOP .ft          397.185                  :STOP DEPTH
STEP .ft            0.050                  :STEP
NULL .          -999.2500                  :NULL VALUE
COMP .     Eaton Well Surveys              :COMPANY
WELL .     EDC Well                        :WELL
FLD  .     CR-103 & CR-17                  :FIELD
LOC  .                                     :LOCATION
PROV .     United States of America        :COUNTRY
SRVC .                                     :SERVICE COMPANY
DATE .     06 Apr 17                       :LOG DATE
UWI  .     EDC Well                        :UNIQUE WELL ID
~OTHER INFORMATION SECTION
#-------------------------
North ref is Magnetic
Mean deviation: 0.72 to N357.14
End deviation components .....
     North: 4.767
     East : -0.238
     Down : 382.119
Azimuth of end: N357.14
Distance start-end: 4.773ft
Comment1: T
Comment2: B
Comment3: p
Comment4: d
Comment5: g
Comment6: 3rd party winch coax
Comment7: RE,RS,JH
~CURVE INFORMATION
#MNEM.UNIT      API CODES       CURVE DESCRIPTION
#---- ----      ---------       -----------------
DEPT .ft                          : 1 DEPTH
DEVN .ft                          : 2 DEVIATION COMPONENT NORTH
DEVE .ft                          : 3 DEVIATION COMPONENT EAST
DEVD .ft                          : 4 DEVIATION COMPONENT DOWN
AZIM .deg                         : 5 DEVIATION AZIMUTH
DEV  .deg                         : 6 DEVIATION FROM VERTICAL DOWN
~A DEPT         DEVN        DEVE        DEVD      AZIM       DEV
# ...
   88.185       0.382      -0.388      73.193    296.31      0.46
   88.235       0.382      -0.389      73.243    311.03      0.64
   88.285       0.382      -0.389      73.293    311.03      0.64
   88.335       0.383      -0.390      73.343    307.87      1.11
   88.385       0.383      -0.390      73.393    149.20      0.40
   88.435       0.383      -0.390      73.443    296.82      0.46
   88.485       0.383      -0.390      73.493    296.82      0.46
   88.535       0.382      -0.391      73.543    199.13      0.92
   88.585       0.382      -0.391      73.593    252.57      0.52
   88.635       0.383      -0.391      73.643     29.02      1.24
   88.685       0.384      -0.390      73.693     29.02      1.24
   88.735       0.384      -0.391      73.743    293.20      0.63
   88.785       0.384      -0.391      73.793    342.27      0.16
   88.835       0.385      -0.391      73.843    326.02      0.49
   88.885       0.385      -0.391      73.893    269.87      0.52
   88.935       0.385      -0.392      73.943    313.11      0.67
   88.985       0.386      -0.392      73.993    344.08      0.53
   89.035       0.386      -0.391      74.043     40.57      0.76
   89.085       0.387      -0.391      74.093     40.57      0.76
   89.135       0.387      -0.391      74.143    342.92      0.43
   89.185       0.387      -0.392      74.193    291.34      1.22
   89.235       0.388      -0.393      74.243    291.34      1.22
   89.285       0.388      -0.393      74.293    320.73      0.42
   89.335       0.389      -0.394      74.343    341.09      0.94
   89.385       0.389      -0.393      74.393     29.39      0.70
   89.435       0.390      -0.393      74.443     29.39      0.70
   89.485       0.389      -0.393      74.493    168.24      0.39
   89.535       0.390      -0.393      74.543    328.80      0.53
   89.585       0.391      -0.393      74.593    340.87      0.90
   89.635       0.391      -0.394      74.643    340.87      0.90
   89.685       0.392      -0.394      74.693    308.88      0.80
   89.735       0.392      -0.394      74.743     15.09      0.45
   89.785       0.392      -0.394      74.793     45.18      0.07
   89.835       0.392      -0.395      74.843    285.76      0.67
   89.885       0.392      -0.395      74.893    207.27      0.54
   89.935       0.392      -0.395      74.943    207.27      0.54
   89.985       0.393      -0.395      74.993    349.95      1.53
   90.035       0.393      -0.396      75.043    317.33      0.55
   90.085       0.394      -0.396      75.093    317.33      0.55
   90.135       0.394      -0.396      75.143    297.02      0.69
   90.185       0.394      -0.397      75.193    268.75      0.48
   90.235       0.394      -0.397      75.243    153.16      0.14
   90.285       0.394      -0.397      75.293    153.16      0.14
   90.335       0.394      -0.397      75.343    251.38      0.46
   90.385       0.393      -0.397      75.393    177.86      0.15
   90.435       0.394      -0.397      75.443    322.51      0.45
   90.485       0.394      -0.398      75.493    322.51      0.45
   90.535       0.395      -0.398      75.543    343.25      0.96
   90.585       0.395      -0.398      75.593     23.45      0.10
   90.635       0.395      -0.398      75.643    118.45      0.20
   90.685       0.395      -0.398      75.693    297.52      0.74
   90.735       0.396      -0.398      75.743      3.80      0.99
   90.785       0.397      -0.398      75.793      3.80      0.99
   90.835       0.397      -0.398      75.843    316.32      0.11
   90.885       0.397      -0.398      75.893     40.22      0.14
   90.935       0.397      -0.398      75.943    100.62      0.15
   90.985       0.397      -0.398      75.993    100.62      0.15
   91.035       0.398      -0.398      76.043    347.87      1.07
   91.085       0.398      -0.398      76.093    123.27      0.37
   91.135       0.398      -0.398      76.143      9.10      0.70
   91.185       0.399      -0.398      76.193    354.34      0.38
   91.235       0.399      -0.398      76.243    327.80      0.71
   91.285       0.400      -0.398      76.293    333.65      0.65
   91.335       0.400      -0.399      76.343    297.95      0.61
   91.385       0.400      -0.399      76.393    297.95      0.61
   91.435       0.400      -0.400      76.443    297.40      0.40
   91.485       0.400      -0.399      76.493    116.11      0.16
   91.535       0.400      -0.400      76.543    278.34      0.51
   91.585       0.400      -0.400      76.593    278.34      0.51
   91.635       0.401      -0.401      76.643    330.14      0.77
   91.685       0.402      -0.401      76.693    339.67      1.30
   91.735       0.402      -0.401      76.743    341.36      0.46
   91.785       0.403      -0.401      76.793    341.36      0.46
   91.835       0.403      -0.401      76.843    348.39      0.50
   91.885       0.403      -0.402      76.893    310.05      0.45
   91.935       0.404      -0.402      76.943    292.31      0.41
   91.985       0.404      -0.402      76.993    292.31      0.41
   92.035       0.403      -0.402      77.043    127.01      0.71
   92.085       0.404      -0.402      77.093    334.25      1.16
   92.135       0.405      -0.403      77.143    327.72      0.93
   92.185       0.406      -0.403      77.193    327.72      0.93
   92.235       0.405      -0.403      77.243    224.84      0.38
   92.285       0.406      -0.403      77.293     40.96      0.64
   92.335       0.406      -0.403      77.343    332.78      0.87
   92.385       0.407      -0.404      77.393    332.78      0.87
   92.435       0.407      -0.403      77.443     59.25      0.60
   92.485       0.407      -0.403      77.493    153.02      0.29
   92.535       0.407      -0.404      77.543    291.74      0.64
   92.585       0.408      -0.404      77.593    291.74      0.64
   92.635       0.408      -0.405      77.643    264.30      0.78
   92.685       0.407      -0.406      77.693    264.55      0.73
   92.735       0.408      -0.406      77.743    339.80      0.71
   92.785       0.409      -0.406      77.793    339.80      0.71
   92.835       0.409      -0.405      77.843     78.11      0.68
   92.885       0.409      -0.406      77.893    325.43      0.75
   92.935       0.409      -0.406      77.943    148.77      0.32
   92.985       0.409      -0.405      77.993    148.77      0.32
   93.035       0.409      -0.406      78.043    324.89      0.60
   93.085       0.410      -0.406      78.093    338.86      1.47
   93.135       0.410      -0.406      78.143    140.06      0.35
   93.185       0.410      -0.406      78.193    140.06      0.35
   93.235       0.410      -0.407      78.243    273.66      0.87
   93.285       0.411      -0.407      78.293      4.67      0.70
   93.335       0.411      -0.407      78.343    336.30      0.22
   93.385       0.411      -0.406      78.393     41.09      0.54
   93.435       0.412      -0.406      78.443     41.09      0.54
   93.485       0.411      -0.406      78.493    120.53      0.35
   93.535       0.411      -0.405      78.543    120.53      0.35
   93.585       0.411      -0.406      78.593    292.51      0.26
   93.635       0.412      -0.406      78.643    351.64      0.40
   93.685       0.412      -0.406      78.693    316.85      0.80
   93.735       0.413      -0.407      78.743    316.85      0.80
   93.785       0.412      -0.406      78.793    159.28      0.64
   93.835       0.413      -0.407      78.843    325.94      0.62
   93.885       0.413      -0.406      78.893     39.78      0.87
   93.935       0.414      -0.406      78.943     39.78      0.87
   93.985       0.414      -0.405      78.993     53.71      0.62
   94.035       0.415      -0.406      79.043    348.44      0.90
   94.085       0.416      -0.406      79.093    348.44      0.90
   94.135       0.416      -0.406      79.143    312.44      0.77
   94.185       0.417      -0.407      79.193    312.44      0.77
   94.235       0.417      -0.407      79.243    280.47      0.81
