~VERSION INFORMATION
VERS .     2.0     : CWLS LOG ASCII STANDARD - VERSION 2.0
WRAP .     NO      : ONE LINE PER 5 DEPTH STEPS
~WELL INFORMATION
#MNEM.UNIT       DATA                  DESCRIPTION OF MNEMONIC
#---- ----       ----                  -----------------------
STRT .ft            0.000                  :START DEPTH
STOP .ft          265.000                  :STOP DEPTH
STEP .ft            0.050                  :STEP
NULL .          -999.2500                  :NULL VALUE
COMP .     Eaton Well Surveys              :COMPANY
WELL .     Fire supply well                :WELL
FLD  .     Pump house                      :FIELD
LOC  .                                     :LOCATION
PROV .     United States of America        :COUNTRY
SRVC .                                     :SERVICE COMPANY
DATE .     10 Mar 17                       :LOG DATE
UWI  .     Fire supply well                :UNIQUE WELL ID
~OTHER INFORMATION SECTION
#-------------------------
North ref is Magnetic
Mean deviation: 0.96 to N273.86
End deviation components .....
     North: 0.297
     East : -4.412
     Down : 264.902
Azimuth of end: N273.86
Distance start-end: 4.422ft
Comment1: T
Comment2: B
Comment3: p
Comment4: d
Comment5: g
Comment6: 3rd party winch coax
Comment7: RE,RS,JH
~CURVE INFORMATION
#MNEM.UNIT      API CODES       CURVE DESCRIPTION
#---- ----      ---------       -----------------
DEPT .ft                          : 1 DEPTH
DEVN .ft                          : 2 DEVIATION COMPONENT NORTH
DEVE .ft                          : 3 DEVIATION COMPONENT EAST
DEVD .ft                          : 4 DEVIATION COMPONENT DOWN
AZIM .deg                         : 5 DEVIATION AZIMUTH
DEV  .deg                         : 6 DEVIATION FROM VERTICAL DOWN
~A DEPT         DEVN        DEVE        DEVD      AZIM       DEV
# ...
  213.500       0.612      -3.621     213.461    266.97      0.85
  213.750       0.611      -3.624     213.711    240.06      1.03
  214.000       0.610      -3.628     213.961    247.49      1.01
  214.250       0.608      -3.631     214.211    242.04      0.84
  214.500       0.606      -3.636     214.460    251.05      1.48
  214.750       0.604      -3.639     214.710    252.85      0.70
  215.000       0.603      -3.643     214.960    252.15      0.91
  215.250       0.601      -3.647     215.210    247.17      1.17
  215.500       0.599      -3.651     215.460    258.38      1.25
  215.750       0.597      -3.656     215.710    254.27      1.11
  216.000       0.594      -3.661     215.960    245.27      1.41
  216.250       0.593      -3.664     216.210    199.40      0.94
  216.500       0.592      -3.668     216.460    242.48      1.11
  216.750       0.590      -3.672     216.710    242.58      1.27
  217.000       0.588      -3.676     216.960    247.53      1.03
  217.250       0.587      -3.680     217.210    274.33      1.10
  217.500       0.586      -3.685     217.460    254.73      0.99
  217.750       0.584      -3.689     217.710    243.69      1.17
  218.000       0.582      -3.693     217.960    253.58      1.11
  218.250       0.580      -3.696     218.210    218.95      1.01
  218.500       0.579      -3.700     218.460    246.28      0.92
  218.750       0.577      -3.705     218.710    268.45      1.23
  219.000       0.576      -3.709     218.960    246.60      0.99
  219.250       0.574      -3.713     219.210    260.74      1.04
  219.500       0.572      -3.718     219.460    236.49      1.20
  219.750       0.571      -3.723     219.710    261.36      1.09
  220.000       0.569      -3.727     219.959    258.34      1.00
  220.250       0.568      -3.731     220.209    239.68      0.98
  220.500       0.566      -3.734     220.459    222.09      1.03
  220.750       0.565      -3.738     220.709    252.64      0.87
  221.000       0.564      -3.741     220.959    239.73      0.71
  221.250       0.564      -3.744     221.209    264.65      0.65
  221.500       0.562      -3.748     221.459    251.93      1.02
  221.750       0.560      -3.752     221.709    250.13      0.93
  222.000       0.558      -3.756     221.959    246.14      0.98
  222.250       0.557      -3.760     222.209    280.94      0.86
  222.500       0.554      -3.763     222.459    228.24      0.68
  222.750       0.553      -3.767     222.709    269.43      0.92
  223.000       0.552      -3.771     222.959    244.54      0.91
  223.250       0.550      -3.775     223.209    248.31      1.17
  223.500       0.550      -3.779     223.459    256.34      0.90
  223.750       0.548      -3.783     223.709    252.23      1.12
  224.000       0.547      -3.787     223.959    236.76      0.99
  224.250       0.545      -3.791     224.209    221.64      0.96
  224.500       0.543      -3.795     224.459    262.08      1.46
  224.750       0.542      -3.799     224.709    257.53      0.92
  225.000       0.541      -3.803     224.959    241.50      0.86
  225.250       0.540      -3.807     225.209    240.41      1.06
  225.500       0.539      -3.811     225.459    279.24      0.73
  225.750       0.538      -3.815     225.709    258.44      1.22
  226.000       0.536      -3.819     225.959    257.03      0.88
  226.250       0.535      -3.822     226.209    257.99      1.08
  226.500       0.534      -3.827     226.459    251.05      1.38
  226.750       0.533      -3.831     226.708    248.51      1.16
  227.000       0.532      -3.836     226.958    269.41      1.35
  227.250       0.531      -3.841     227.208    257.05      0.97
  227.500       0.529      -3.845     227.458    258.52      1.12
  227.750       0.528      -3.850     227.708    254.46      1.22
  228.000       0.527      -3.854     227.958    264.65      1.03
  228.250       0.526      -3.859     228.208    251.10      0.89
  228.500       0.524      -3.863     228.458    256.45      1.09
  228.750       0.522      -3.866     228.708    238.47      0.80
  229.000       0.521      -3.871     228.958    257.84      1.08
  229.250       0.520      -3.875     229.208    256.79      1.03
  229.500       0.518      -3.879     229.458    254.07      1.17
  229.750       0.516      -3.884     229.708    250.56      1.31
  230.000       0.515      -3.889     229.958    250.71      1.73
  230.250       0.512      -3.892     230.208    241.23      1.24
  230.500       0.510      -3.897     230.458    251.31      1.83
  230.750       0.509      -3.902     230.708    258.62      1.36
  231.000       0.509      -3.905     230.958    267.62      0.90
  231.250       0.507      -3.910     231.208    272.37      0.98
  231.500       0.505      -3.915     231.458    254.39      1.48
  231.750       0.503      -3.919     231.707    273.33      1.13
  232.000       0.502      -3.923     231.957    244.47      1.36
  232.250       0.499      -3.928     232.207    261.83      1.41
  232.500       0.498      -3.932     232.457    281.10      0.92
  232.750       0.495      -3.936     232.707    236.11      1.18
  233.000       0.494      -3.940     232.957    308.16      0.29
  233.250       0.494      -3.943     233.207    215.42      0.51
  233.500       0.492      -3.946     233.457    216.63      0.56
  233.750       0.491      -3.949     233.707    239.72      0.87
  234.000       0.489      -3.953     233.957    255.87      0.94
  234.250       0.489      -3.957     234.207    272.68      0.93
  234.500       0.488      -3.962     234.457    277.19      1.20
  234.750       0.488      -3.966     234.707    268.89      0.87
  235.000       0.487      -3.970     234.957    249.92      0.94
  235.250       0.486      -3.973     235.207    241.82      1.09
  235.500       0.484      -3.977     235.457    243.20      0.92
  235.750       0.482      -3.980     235.707    224.11      1.00
  236.000       0.480      -3.984     235.957    259.24      0.94
  236.250       0.479      -3.988     236.207    214.73      1.07
  236.500       0.476      -3.991     236.457    222.65      1.12
  236.750       0.474      -3.995     236.707    251.22      0.89
  237.000       0.471      -3.999     236.957    252.04      1.08
  237.250       0.469      -4.003     237.207    219.39      1.22
  237.500       0.468      -4.008     237.457    241.35      1.24
  237.750       0.466      -4.011     237.706    235.38      1.14
  238.000       0.465      -4.016     237.956    249.60      1.32
  238.250       0.462      -4.020     238.206    240.58      0.94
  238.500       0.462      -4.024     238.456    277.19      0.63
  238.750       0.461      -4.027     238.706    244.44      1.50
  239.000       0.459      -4.032     238.956    273.14      1.02
  239.250       0.458      -4.037     239.206    245.73      1.64
  239.500       0.456      -4.041     239.456    239.93      1.60
  239.750       0.455      -4.046     239.706    278.11      0.89
  240.000       0.453      -4.051     239.956    269.46      1.71
  240.250       0.451      -4.055     240.206    247.29      1.49
  240.500       0.449      -4.059     240.456    239.36      1.39
  240.750       0.448      -4.064     240.706    250.54      1.48
  241.000       0.445      -4.070     240.956    245.26      1.35
  241.250       0.444      -4.074     241.206    233.65      0.68
  241.500       0.442      -4.078     241.456    246.34      1.59
  241.750       0.441      -4.081     241.706    357.33      0.39
  242.000       0.439      -4.084     241.956    219.32      0.80
  242.250       0.438      -4.088     242.206    264.63      1.20
  242.500       0.435      -4.092     242.455    231.97      1.07
  242.750       0.434      -4.095     242.705    206.11      0.56
  243.000       0.432      -4.097     242.955    241.91      0.71
  243.250       0.430      -4.100     243.205    241.40      0.48
  243.500       0.429      -4.104     243.455    236.56      0.59
  243.750       0.428      -4.107     243.705    227.08      0.98
