~VERSION INFORMATION
VERS .     2.0     : CWLS LOG ASCII STANDARD - VERSION 2.0
WRAP .     NO      : ONE LINE PER 1 DEPTH STEPS
~WELL INFORMATION
#MNEM.UNIT       DATA                  DESCRIPTION OF MNEMONIC
#---- ----       ----                  -----------------------
STRT .ft           14.885                  :START DEPTH
STOP .ft          397.185                  :STOP DEPTH
STEP .ft            0.050                  :STEP
NULL .          -999.2500                  :NULL VALUE
COMP .     Eaton Well Surveys              :COMPANY
WELL .     EDC Well                        :WELL
FLD  .     CR-103 & CR-17                  :FIELD
LOC  .                                     :LOCATION
PROV .     United States of America        :COUNTRY
SRVC .                                     :SERVICE COMPANY
DATE .     06 Apr 17                       :LOG DATE
UWI  .     EDC Well                        :UNIQUE WELL ID
~OTHER INFORMATION SECTION
#-------------------------
North ref is Magnetic
Mean deviation: 0.72 to N357.14
End deviation components .....
     North: 4.767
     East : -0.238
     Down : 382.119
Azimuth of end: N357.14
Distance start-end: 4.773ft
Comment1: T
Comment2: B
Comment3: p
Comment4: d
Comment5: g
Comment6: 3rd party winch coax
Comment7: RE,RS,JH
~CURVE INFORMATION
#MNEM.UNIT      API CODES       CURVE DESCRIPTION
#---- ----      ---------       -----------------
DEPT .ft                          : 1 DEPTH
DEVN .ft                          : 2 DEVIATION COMPONENT NORTH
DEVE .ft                          : 3 DEVIATION COMPONENT EAST
DEVD .ft                          : 4 DEVIATION COMPONENT DOWN
AZIM .deg                         : 5 DEVIATION AZIMUTH
DEV  .deg                         : 6 DEVIATION FROM VERTICAL DOWN
~A DEPT         DEVN        DEVE        DEVD      AZIM       DEV
# ...
  167.485       0.849      -0.612     152.483      3.42      0.31
  167.535       0.850      -0.613     152.533    300.98      1.68
  167.585       0.851      -0.613     152.583     15.28      0.99
  167.635       0.852      -0.614     152.633    332.31      1.11
  167.685       0.853      -0.614     152.683    332.31      1.11
  167.735       0.853      -0.615     152.733    299.32      0.89
  167.785       0.853      -0.614     152.783     72.17      0.42
  167.835       0.852      -0.615     152.833    193.18      1.48
  167.885       0.851      -0.614     152.883    160.03      0.96
  167.935       0.850      -0.614     152.933    160.03      0.96
  167.985       0.851      -0.614     152.983    343.37      0.54
  168.035       0.851      -0.615     153.033    321.09      0.98
  168.085       0.852      -0.615     153.083    321.09      0.98
  168.135       0.852      -0.616     153.133    298.44      0.77
  168.185       0.853      -0.616     153.183      7.25      0.64
  168.235       0.852      -0.616     153.233    153.65      0.52
  168.285       0.852      -0.615     153.283    153.65      0.52
  168.335       0.852      -0.616     153.333    275.19      0.39
  168.385       0.853      -0.615     153.383     59.95      1.18
  168.435       0.853      -0.614     153.433     59.95      1.18
  168.485       0.854      -0.614     153.483      7.86      0.78
  168.535       0.854      -0.614     153.533      7.86      0.78
  168.585       0.854      -0.615     153.583    266.38      1.82
  168.635       0.854      -0.615     153.633    312.62      0.22
  168.685       0.854      -0.617     153.683    270.00      1.20
  168.735       0.855      -0.617     153.733    358.09      0.55
  168.785       0.855      -0.617     153.783    358.09      0.55
  168.835       0.856      -0.617     153.833    339.57      0.28
  168.885       0.856      -0.617     153.883    243.66      0.16
  168.935       0.856      -0.617     153.933      8.18      0.86
  168.985       0.857      -0.616     153.983     36.77      0.51
  169.035       0.856      -0.616     154.033    164.94      0.26
  169.085       0.857      -0.617     154.083    283.17      0.58
  169.135       0.857      -0.617     154.133    283.17      0.58
  169.185       0.858      -0.617     154.183     13.41      1.64
  169.235       0.857      -0.617     154.233    156.43      1.27
  169.285       0.857      -0.618     154.283    250.56      1.32
  169.335       0.856      -0.618     154.333    181.67      0.60
  169.385       0.856      -0.618     154.383    181.67      0.60
  169.435       0.857      -0.617     154.433     18.09      1.77
  169.485       0.856      -0.619     154.483    232.39      2.08
  169.535       0.855      -0.618     154.533    163.86      1.21
  169.585       0.855      -0.619     154.583    314.92      0.64
  169.635       0.856      -0.619     154.633    325.41      0.38
  169.685       0.856      -0.620     154.683    265.50      0.67
  169.735       0.856      -0.620     154.733    265.50      0.67
  169.785       0.856      -0.621     154.783    297.67      0.82
  169.835       0.856      -0.621     154.833    265.07      0.68
  169.885       0.857      -0.620     154.883     55.18      1.39
  169.935       0.857      -0.621     154.933    319.36      1.32
  169.985       0.858      -0.621     154.983     30.88      0.91
  170.035       0.858      -0.621     155.033    285.87      0.75
  170.085       0.859      -0.621     155.083     27.37      0.98
  170.135       0.860      -0.621     155.133     27.37      0.98
  170.185       0.860      -0.620     155.183     74.44      0.67
  170.235       0.860      -0.621     155.233    252.28      0.87
  170.285       0.860      -0.620     155.283     53.62      1.23
  170.335       0.861      -0.619     155.333     48.08      0.80
  170.385       0.862      -0.619     155.382      2.81      1.20
  170.435       0.863      -0.621     155.432    304.35      1.76
  170.485       0.864      -0.622     155.482    304.35      1.76
  170.535       0.864      -0.622     155.532    290.82      0.28
  170.585       0.864      -0.622     155.582     29.11      0.51
  170.635       0.865      -0.622     155.632    320.21      1.20
  170.685       0.865      -0.623     155.682    315.08      0.64
  170.735       0.866      -0.623     155.732    315.08      0.64
  170.785       0.866      -0.623     155.782     17.05      0.71
  170.835       0.866      -0.623     155.832    242.46      0.14
  170.885       0.866      -0.624     155.882    244.56      0.67
  170.935       0.866      -0.624     155.932    244.56      0.67
  170.985       0.866      -0.625     155.982    323.70      0.87
  171.035       0.866      -0.624     156.032    130.98      1.22
  171.085       0.865      -0.623     156.082    130.98      1.22
  171.135       0.865      -0.624     156.132    245.14      0.66
  171.185       0.865      -0.624     156.182    308.52      0.36
  171.235       0.865      -0.624     156.232    238.37      0.44
  171.285       0.866      -0.624     156.282    343.24      1.14
  171.335       0.866      -0.624     156.332     30.92      0.98
  171.385       0.867      -0.625     156.382    292.01      0.61
  171.435       0.867      -0.625     156.432    292.01      0.61
  171.485       0.868      -0.625     156.482      2.83      1.38
  171.535       0.868      -0.625     156.532    155.09      0.42
  171.585       0.868      -0.625     156.582    220.80      0.13
  171.635       0.868      -0.626     156.632    317.04      1.09
  171.685       0.868      -0.626     156.682    280.45      1.03
  171.735       0.869      -0.627     156.732    350.92      1.04
  171.785       0.870      -0.627     156.782    350.92      1.04
  171.835       0.869      -0.626     156.832    165.86      0.96
  171.885       0.869      -0.627     156.882    192.29      0.34
  171.935       0.869      -0.626     156.932     76.50      0.88
  171.985       0.869      -0.626     156.982    282.75      0.55
  172.035       0.869      -0.627     157.032    282.75      0.55
  172.085       0.869      -0.627     157.082    203.23      0.58
  172.135       0.869      -0.626     157.132     99.07      0.71
  172.185       0.870      -0.627     157.182    303.91      1.37
  172.235       0.870      -0.628     157.232    303.91      1.37
  172.285       0.871      -0.628     157.282     15.21      1.17
  172.335       0.872      -0.628     157.332    337.18      1.26
  172.385       0.872      -0.629     157.382    291.20      0.46
  172.435       0.873      -0.629     157.432     41.31      0.35
  172.485       0.873      -0.628     157.482     41.31      0.35
  172.535       0.874      -0.629     157.532    351.94      0.83
  172.585       0.875      -0.628     157.582     17.26      1.84
  172.635       0.876      -0.628     157.632    345.00      0.51
  172.685       0.876      -0.628     157.682     19.16      0.74
  172.735       0.877      -0.628     157.732    331.16      0.90
  172.785       0.877      -0.629     157.782    280.53      0.27
  172.835       0.877      -0.629     157.832    290.39      0.69
  172.885       0.877      -0.630     157.882    290.39      0.69
  172.935       0.877      -0.630     157.932    277.54      0.69
  172.985       0.877      -0.630     157.982     46.70      0.05
  173.035       0.878      -0.629     158.032     69.57      0.97
  173.085       0.878      -0.630     158.082    293.51      0.81
  173.135       0.878      -0.630     158.132    284.30      0.34
  173.185       0.878      -0.630     158.182     55.89      0.68
  173.235       0.879      -0.629     158.232     55.89      0.68
  173.285       0.879      -0.629     158.282     39.60      0.97
  173.335       0.880      -0.629     158.332     27.75      0.65
  173.385       0.879      -0.628     158.382    154.72      0.51
  173.435       0.880      -0.629     158.432    293.13      1.03
  173.485       0.880      -0.630     158.482    293.13      1.03
  173.535       0.881      -0.630     158.532    344.97      0.57
