~VERSION INFORMATION
VERS .     2.0     : CWLS LOG ASCII STANDARD - VERSION 2.0
WRAP .     NO      : ONE LINE PER 5 DEPTH STEPS
~WELL INFORMATION
#MNEM.UNIT       DATA                  DESCRIPTION OF MNEMONIC
#---- ----       ----                  -----------------------
STRT .ft            0.000                  :START DEPTH
STOP .ft          265.000                  :STOP DEPTH
STEP .ft            0.050                  :STEP
NULL .          -999.2500                  :NULL VALUE
COMP .     Eaton Well Surveys              :COMPANY
WELL .     Fire supply well                :WELL
FLD  .     Pump house                      :FIELD
LOC  .                                     :LOCATION
PROV .     United States of America        :COUNTRY
SRVC .                                     :SERVICE COMPANY
DATE .     10 Mar 17                       :LOG DATE
UWI  .     Fire supply well                :UNIQUE WELL ID
~OTHER INFORMATION SECTION
#-------------------------
North ref is Magnetic
Mean deviation: 0.96 to N273.86
End deviation components .....
     North: 0.297
     East : -4.412
     Down : 264.902
Azimuth of end: N273.86
Distance start-end: 4.422ft
Comment1: T
Comment2: B
Comment3: p
Comment4: d
Comment5: g
Comment6: 3rd party winch coax
Comment7: RE,RS,JH
~CURVE INFORMATION
#MNEM.UNIT      API CODES       CURVE DESCRIPTION
#---- ----      ---------       -----------------
DEPT .ft                          : 1 DEPTH
DEVN .ft                          : 2 DEVIATION COMPONENT NORTH
DEVE .ft                          : 3 DEVIATION COMPONENT EAST
DEVD .ft                          : 4 DEVIATION COMPONENT DOWN
AZIM .deg                         : 5 DEVIATION AZIMUTH
DEV  .deg                         : 6 DEVIATION FROM VERTICAL DOWN
~A DEPT         DEVN        DEVE        DEVD      AZIM       DEV
# ...
   91.500       0.701      -1.401      91.484    283.67      0.99
   91.750       0.702      -1.406      91.734    291.50      0.78
   92.000       0.704      -1.410      91.984    287.34      0.80
   92.250       0.705      -1.415      92.234    280.82      1.31
   92.500       0.708      -1.420      92.484    295.06      1.48
   92.750       0.709      -1.425      92.734    299.81      1.20
   93.000       0.710      -1.429      92.984    281.79      1.24
   93.250       0.712      -1.434      93.234    309.69      1.26
   93.500       0.714      -1.438      93.484    303.83      1.16
   93.750       0.715      -1.443      93.734    291.74      1.03
   94.000       0.716      -1.447      93.984    280.66      0.77
   94.250       0.717      -1.452      94.234    283.96      0.78
   94.500       0.719      -1.457      94.484    285.28      1.15
   94.750       0.720      -1.462      94.734    286.40      1.33
   95.000       0.721      -1.466      94.984    285.67      1.30
   95.250       0.723      -1.471      95.234    281.74      0.98
   95.500       0.724      -1.476      95.484    290.16      1.08
   95.750       0.726      -1.481      95.734    298.11      1.16
   96.000       0.727      -1.486      95.984    259.44      0.96
   96.250       0.728      -1.490      96.233    276.68      0.86
   96.500       0.728      -1.495      96.483    269.22      1.45
   96.750       0.729      -1.499      96.733    281.05      1.27
   97.000       0.731      -1.504      96.983    286.16      1.21
   97.250       0.732      -1.508      97.233    277.70      1.09
   97.500       0.734      -1.513      97.483    264.43      1.44
   97.750       0.734      -1.518      97.733    274.49      1.15
   98.000       0.734      -1.523      97.983    279.45      0.59
   98.250       0.735      -1.528      98.233    284.60      1.23
   98.500       0.736      -1.532      98.483    284.43      1.05
   98.750       0.738      -1.537      98.733    286.23      1.18
   99.000       0.739      -1.542      98.983    296.08      1.25
   99.250       0.741      -1.546      99.233    290.36      1.03
   99.500       0.743      -1.551      99.483    299.11      1.01
   99.750       0.744      -1.556      99.733    283.82      1.33
  100.000       0.746      -1.561      99.983    271.32      1.30
  100.250       0.748      -1.566     100.233    287.74      1.50
  100.500       0.748      -1.571     100.483    278.45      0.91
  100.750       0.749      -1.575     100.733    278.09      1.06
  101.000       0.749      -1.580     100.982    276.59      0.92
  101.250       0.750      -1.585     101.232    268.60      0.87
  101.500       0.751      -1.590     101.482    283.96      1.20
  101.750       0.752      -1.594     101.732    279.00      1.00
  102.000       0.752      -1.599     101.982    264.73      1.75
  102.250       0.753      -1.604     102.232    287.30      1.14
  102.500       0.754      -1.608     102.482    281.84      1.03
  102.750       0.755      -1.614     102.732    281.89      1.48
  103.000       0.756      -1.619     102.982    274.22      0.79
  103.250       0.758      -1.624     103.232    283.15      1.06
  103.500       0.759      -1.629     103.482    302.67      1.45
  103.750       0.760      -1.633     103.732    293.25      1.03
  104.000       0.761      -1.638     103.982    267.53      1.52
  104.250       0.762      -1.643     104.232    302.41      1.34
  104.500       0.763      -1.648     104.482    288.80      1.42
  104.750       0.763      -1.654     104.732    275.09      1.41
  105.000       0.765      -1.660     104.982    287.99      1.48
  105.250       0.767      -1.665     105.232    310.68      1.12
  105.500       0.768      -1.670     105.481    282.94      1.12
  105.750       0.769      -1.674     105.731    284.73      1.39
  106.000       0.769      -1.679     105.981    276.23      1.16
  106.250       0.770      -1.684     106.231    276.03      1.20
  106.500       0.772      -1.689     106.481    280.84      1.03
  106.750       0.773      -1.694     106.731    286.52      1.17
  107.000       0.775      -1.699     106.981    291.13      1.15
  107.250       0.776      -1.703     107.231    272.18      1.10
  107.500       0.777      -1.708     107.481    256.38      1.60
  107.750       0.779      -1.713     107.731    299.65      1.49
  108.000       0.780      -1.719     107.981    287.62      1.47
  108.250       0.781      -1.725     108.231    268.46      1.36
  108.500       0.782      -1.729     108.481    281.87      1.27
  108.750       0.783      -1.734     108.731    288.57      1.33
  109.000       0.784      -1.738     108.981    272.92      1.22
  109.250       0.785      -1.743     109.231    277.61      1.39
  109.500       0.786      -1.748     109.481    296.62      1.25
  109.750       0.787      -1.753     109.731    263.63      1.22
  110.000       0.788      -1.758     109.981    278.55      0.72
  110.250       0.790      -1.763     110.230    291.64      1.20
  110.500       0.790      -1.769     110.480    260.98      1.28
  110.750       0.791      -1.774     110.730    275.64      1.22
  111.000       0.792      -1.779     110.980    281.33      1.21
  111.250       0.792      -1.784     111.230    282.15      1.37
  111.500       0.794      -1.789     111.480    290.32      1.68
  111.750       0.795      -1.794     111.730    288.15      0.98
  112.000       0.796      -1.800     111.980    275.09      1.25
  112.250       0.797      -1.804     112.230    273.54      1.08
  112.500       0.798      -1.809     112.480    278.70      1.42
  112.750       0.800      -1.816     112.730    290.26      1.57
  113.000       0.801      -1.821     112.980    284.58      1.34
  113.250       0.802      -1.827     113.230    288.42      1.35
  113.500       0.803      -1.832     113.480    289.17      1.38
  113.750       0.804      -1.837     113.730    288.46      1.51
  114.000       0.806      -1.843     113.979    268.35      1.39
  114.250       0.807      -1.849     114.229    295.36      1.65
  114.500       0.808      -1.855     114.479    282.83      1.19
  114.750       0.810      -1.860     114.729    290.66      1.28
  115.000       0.811      -1.865     114.979    270.13      1.18
  115.250       0.813      -1.871     115.229    293.68      1.59
  115.500       0.814      -1.876     115.479    283.32      1.26
  115.750       0.816      -1.882     115.729    292.22      1.49
  116.000       0.816      -1.887     115.979    278.59      1.00
  116.250       0.817      -1.892     116.229    276.54      1.08
  116.500       0.819      -1.897     116.479    280.47      1.18
  116.750       0.819      -1.903     116.729    284.15      1.22
  117.000       0.820      -1.908     116.979    268.96      1.09
  117.250       0.821      -1.913     117.229    283.13      1.60
  117.500       0.822      -1.918     117.479    294.33      0.91
  117.750       0.823      -1.923     117.729    278.12      1.24
  118.000       0.824      -1.928     117.978    277.00      0.79
  118.250       0.825      -1.934     118.228    282.36      1.26
  118.500       0.826      -1.939     118.478    302.48      1.82
  118.750       0.827      -1.944     118.728    266.10      1.16
  119.000       0.829      -1.949     118.978    293.40      1.61
  119.250       0.830      -1.955     119.228    289.65      1.02
  119.500       0.831      -1.961     119.478    271.95      1.41
  119.750       0.832      -1.966     119.728    292.20      1.13
  120.000       0.833      -1.972     119.978    288.46      1.63
  120.250       0.835      -1.977     120.228    280.65      1.24
  120.500       0.837      -1.983     120.478    277.18      1.17
  120.750       0.839      -1.988     120.728    279.59      1.23
  121.000       0.840      -1.993     120.978    278.38      1.19
  121.250       0.842      -1.998     121.228    308.05      1.57
  121.500       0.843      -2.002     121.478    238.61      0.46
  121.750       0.844      -2.007     121.728    290.36      1.00
