~VERSION INFORMATION
VERS .     2.0     : CWLS LOG ASCII STANDARD - VERSION 2.0
WRAP .     NO      : ONE LINE PER 5 DEPTH STEPS
~WELL INFORMATION
#MNEM.UNIT       DATA                  DESCRIPTION OF MNEMONIC
#---- ----       ----                  -----------------------
STRT .ft            0.000                  :START DEPTH
STOP .ft          252.000                  :STOP DEPTH
STEP .ft            0.050                  :STEP
NULL .          -999.2500                  :NULL VALUE
COMP .     Eaton Well Surveys              :COMPANY
WELL .     15                              :WELL
FLD  .     Gated pumphouse in park         :FIELD
LOC  .                                     :LOCATION
PROV .     United States of America        :COUNTRY
SRVC .                                     :SERVICE COMPANY
DATE .     21 Mar 17                       :LOG DATE
UWI  .     15                              :UNIQUE WELL ID
~OTHER INFORMATION SECTION
#-------------------------
North ref is Magnetic
Mean deviation: 1.02 to N245.93
End deviation components .....
     North: -1.821
     East : -4.078
     Down : 251.897
Azimuth of end: N245.94
Distance start-end: 4.466ft
Comment1: T
Comment2: B
Comment3: p
Comment4: d
Comment5: g
Comment6: 3rd party winch coax
Comment7: RE,RS,JH
~CURVE INFORMATION
#MNEM.UNIT      API CODES       CURVE DESCRIPTION
#---- ----      ---------       -----------------
DEPT .ft                          : 1 DEPTH
DEVN .ft                          : 2 DEVIATION COMPONENT NORTH
DEVE .ft                          : 3 DEVIATION COMPONENT EAST
DEVD .ft                          : 4 DEVIATION COMPONENT DOWN
AZIM .deg                         : 5 DEVIATION AZIMUTH
DEV  .deg                         : 6 DEVIATION FROM VERTICAL DOWN
~A DEPT         DEVN        DEVE        DEVD      AZIM       DEV
# ...
   91.500      -0.739      -0.945      91.490    253.39      0.96
   91.750      -0.741      -0.948      91.740    247.20      1.02
   92.000      -0.743      -0.951      91.990    240.31      0.73
   92.250      -0.744      -0.954      92.240    238.96      0.99
   92.500      -0.747      -0.957      92.490    231.57      0.92
   92.750      -0.750      -0.961      92.740    237.76      1.34
   93.000      -0.752      -0.964      92.990    231.71      0.85
   93.250      -0.754      -0.966      93.240    234.62      0.70
   93.500      -0.756      -0.970      93.490    253.41      0.88
   93.750      -0.758      -0.973      93.740    233.59      0.71
   94.000      -0.759      -0.977      93.990    230.81      0.76
   94.250      -0.760      -0.980      94.240    251.26      1.07
   94.500      -0.762      -0.982      94.490    230.78      1.10
   94.750      -0.764      -0.986      94.740    225.81      0.87
   95.000      -0.766      -0.989      94.990    206.18      0.78
   95.250      -0.768      -0.993      95.240    238.05      1.13
   95.500      -0.771      -0.995      95.490    228.57      0.81
   95.750      -0.774      -0.998      95.740    241.63      1.18
   96.000      -0.776      -1.000      95.989    237.79      0.73
   96.250      -0.778      -1.003      96.239    213.20      0.92
   96.500      -0.780      -1.005      96.489    218.47      0.46
   96.750      -0.782      -1.008      96.739    223.59      0.55
   97.000      -0.785      -1.011      96.989    219.91      1.42
   97.250      -0.788      -1.013      97.239    202.34      0.91
   97.500      -0.789      -1.016      97.489    247.20      1.03
   97.750      -0.791      -1.020      97.739    232.74      1.11
   98.000      -0.794      -1.023      97.989    241.55      1.06
   98.250      -0.796      -1.027      98.239    227.52      1.31
   98.500      -0.799      -1.030      98.489    233.76      0.74
   98.750      -0.801      -1.033      98.739    244.78      0.83
   99.000      -0.803      -1.035      98.989    240.00      0.69
   99.250      -0.805      -1.038      99.239    256.23      0.96
   99.500      -0.807      -1.042      99.489    247.58      1.00
   99.750      -0.809      -1.045      99.739    215.04      0.76
  100.000      -0.812      -1.047      99.989    183.40      0.69
  100.250      -0.814      -1.050     100.239    226.52      1.04
  100.500      -0.817      -1.052     100.489    209.04      0.83
  100.750      -0.819      -1.054     100.739    241.53      0.91
  101.000      -0.821      -1.058     100.989    233.19      0.73
  101.250      -0.824      -1.061     101.239    220.42      1.18
  101.500      -0.826      -1.064     101.489    233.23      1.04
  101.750      -0.828      -1.067     101.739    249.85      0.78
  102.000      -0.830      -1.071     101.989    243.71      1.07
  102.250      -0.832      -1.074     102.239    235.21      0.65
  102.500      -0.834      -1.077     102.489    222.39      1.02
  102.750      -0.836      -1.079     102.739    202.45      0.64
  103.000      -0.839      -1.082     102.989    253.06      1.11
  103.250      -0.841      -1.085     103.239    239.11      0.56
  103.500      -0.844      -1.087     103.489    257.83      0.84
  103.750      -0.845      -1.089     103.739    275.63      0.63
  104.000      -0.848      -1.092     103.988    234.29      0.72
  104.250      -0.850      -1.095     104.238    233.83      1.12
  104.500      -0.853      -1.098     104.488    221.36      0.88
  104.750      -0.855      -1.101     104.738    210.00      0.82
  105.000      -0.857      -1.103     104.988    240.25      0.65
  105.250      -0.859      -1.105     105.238    232.42      0.59
  105.500      -0.861      -1.108     105.488    230.48      0.73
  105.750      -0.864      -1.111     105.738    226.50      1.17
  106.000      -0.867      -1.114     105.988    229.01      0.91
  106.250      -0.869      -1.116     106.238    261.14      0.69
  106.500      -0.871      -1.119     106.488    222.09      0.75
  106.750      -0.873      -1.121     106.738    218.73      0.63
  107.000      -0.876      -1.125     106.988    231.73      0.87
  107.250      -0.879      -1.128     107.238    209.47      1.35
  107.500      -0.882      -1.130     107.488    216.81      0.91
  107.750      -0.884      -1.133     107.738    233.90      0.87
  108.000      -0.886      -1.136     107.988    234.82      0.79
  108.250      -0.888      -1.139     108.238    245.87      0.89
  108.500      -0.891      -1.142     108.488    237.03      1.12
  108.750      -0.893      -1.144     108.738    229.97      0.65
  109.000      -0.896      -1.146     108.988    218.15      0.68
  109.250      -0.899      -1.148     109.238    219.44      0.84
  109.500      -0.901      -1.151     109.488    239.23      0.45
  109.750      -0.903      -1.153     109.738    232.07      0.95
  110.000      -0.906      -1.157     109.988    226.86      1.28
  110.250      -0.909      -1.161     110.238    222.71      1.82
  110.500      -0.912      -1.163     110.488    219.35      0.62
  110.750      -0.913      -1.167     110.738    204.82      0.54
  111.000      -0.915      -1.170     110.988    253.51      0.47
  111.250      -0.917      -1.173     111.238    243.86      1.18
  111.500      -0.920      -1.177     111.488    231.89      1.26
  111.750      -0.923      -1.181     111.737    233.35      0.74
  112.000      -0.926      -1.184     111.987    221.21      1.17
  112.250      -0.927      -1.187     112.237    208.84      0.80
  112.500      -0.929      -1.191     112.487    252.59      0.87
  112.750      -0.930      -1.194     112.737    238.85      1.16
  113.000      -0.933      -1.198     112.987    232.18      1.10
  113.250      -0.935      -1.203     113.237    242.18      1.16
  113.500      -0.937      -1.206     113.487    235.55      0.80
  113.750      -0.940      -1.209     113.737    276.89      1.12
  114.000      -0.941      -1.212     113.987    261.68      0.84
  114.250      -0.944      -1.216     114.237    232.06      0.84
  114.500      -0.946      -1.219     114.487    233.63      1.22
  114.750      -0.948      -1.221     114.737    210.75      0.80
  115.000      -0.950      -1.224     114.987    213.55      0.80
  115.250      -0.952      -1.228     115.237    236.20      1.12
  115.500      -0.954      -1.230     115.487    239.24      1.20
  115.750      -0.957      -1.233     115.737    242.82      0.91
  116.000      -0.958      -1.237     115.987    275.89      0.42
  116.250      -0.961      -1.239     116.237    215.92      0.95
  116.500      -0.962      -1.243     116.487    225.88      0.97
  116.750      -0.964      -1.246     116.737    259.50      0.71
  117.000      -0.966      -1.249     116.987    238.85      0.84
  117.250      -0.968      -1.253     117.237    262.35      1.14
  117.500      -0.971      -1.255     117.487    209.52      1.11
  117.750      -0.974      -1.259     117.737    226.88      1.15
  118.000      -0.976      -1.261     117.987    231.77      1.10
  118.250      -0.978      -1.265     118.237    240.29      1.21
  118.500      -0.981      -1.268     118.486    246.21      0.92
  118.750      -0.983      -1.273     118.736    234.69      1.38
  119.000      -0.986      -1.276     118.986    243.18      0.95
  119.250      -0.989      -1.281     119.236    236.49      1.50
  119.500      -0.992      -1.284     119.486    221.50      1.47
  119.750      -0.994      -1.289     119.736    252.21      1.14
  120.000      -0.996      -1.292     119.986    269.26      1.07
  120.250      -0.999      -1.296     120.236    249.36      0.82
  120.500      -1.000      -1.299     120.486    292.06      0.70
  120.750      -1.002      -1.303     120.736    266.10      0.54
  121.000      -1.004      -1.306     120.986    232.50      0.92
  121.250      -1.006      -1.310     121.236    254.08      0.90
  121.500      -1.008      -1.313     121.486    236.26      1.01
  121.750      -1.010      -1.317     121.736    245.53      0.85
