~VERSION INFORMATION
VERS .     2.0     : CWLS LOG ASCII STANDARD - VERSION 2.0
WRAP .     NO      : ONE LINE PER 1 DEPTH STEPS
~WELL INFORMATION
#MNEM.UNIT       DATA                  DESCRIPTION OF MNEMONIC
#---- ----       ----                  -----------------------
STRT .ft           14.885                  :START DEPTH
STOP .ft          397.185                  :STOP DEPTH
STEP .ft            0.050                  :STEP
NULL .          -999.2500                  :NULL VALUE
COMP .     Eaton Well Surveys              :COMPANY
WELL .     EDC Well                        :WELL
FLD  .     CR-103 & CR-17                  :FIELD
LOC  .                                     :LOCATION
PROV .     United States of America        :COUNTRY
SRVC .                                     :SERVICE COMPANY
DATE .     06 Apr 17                       :LOG DATE
UWI  .     EDC Well                        :UNIQUE WELL ID
~OTHER INFORMATION SECTION
#-------------------------
North ref is Magnetic
Mean deviation: 0.72 to N357.14
End deviation components .....
     North: 4.767
     East : -0.238
     Down : 382.119
Azimuth of end: N357.14
Distance start-end: 4.773ft
Comment1: T
Comment2: B
Comment3: p
Comment4: d
Comment5: g
Comment6: 3rd party winch coax
Comment7: RE,RS,JH
~CURVE INFORMATION
#MNEM.UNIT      API CODES       CURVE DESCRIPTION
#---- ----      ---------       -----------------
DEPT .ft                          : 1 DEPTH
DEVN .ft                          : 2 DEVIATION COMPONENT NORTH
DEVE .ft                          : 3 DEVIATION COMPONENT EAST
DEVD .ft                          : 4 DEVIATION COMPONENT DOWN
AZIM .deg                         : 5 DEVIATION AZIMUTH
DEV  .deg                         : 6 DEVIATION FROM VERTICAL DOWN
~A DEPT         DEVN        DEVE        DEVD      AZIM       DEV
# ...
  143.085       0.688      -0.548     128.087    179.27      1.33
  143.135       0.688      -0.548     128.137    305.18      0.86
  143.185       0.688      -0.548     128.187    169.26      0.71
  143.235       0.687      -0.548     128.237    169.26      0.71
  143.285       0.687      -0.548     128.287    293.62      0.17
  143.335       0.687      -0.548     128.337    293.62      0.17
  143.385       0.688      -0.549     128.387    337.95      1.33
  143.435       0.690      -0.550     128.437    311.64      2.19
  143.485       0.690      -0.550     128.487     25.87      0.66
  143.535       0.690      -0.550     128.537    294.96      0.32
  143.585       0.690      -0.550     128.587    183.44      0.48
  143.635       0.690      -0.551     128.637    286.89      0.49
  143.685       0.690      -0.551     128.687    286.89      0.49
  143.735       0.691      -0.552     128.737    303.92      0.94
  143.785       0.691      -0.551     128.787     39.99      1.16
  143.835       0.693      -0.552     128.837    322.09      1.70
  143.885       0.693      -0.552     128.886    341.15      0.95
  143.935       0.693      -0.552     128.936    163.64      0.59
  143.985       0.692      -0.552     128.986    163.64      0.59
  144.035       0.692      -0.552     129.036    146.84      0.31
  144.085       0.692      -0.552     129.086     60.30      0.24
  144.135       0.692      -0.553     129.136    261.73      1.93
  144.185       0.693      -0.553     129.186    345.13      0.92
  144.235       0.693      -0.554     129.236    345.13      0.92
  144.285       0.692      -0.554     129.286    197.58      1.58
  144.335       0.693      -0.554     129.336      2.57      0.67
  144.385       0.692      -0.555     129.386    244.15      1.15
  144.435       0.692      -0.556     129.436    246.14      1.50
  144.485       0.692      -0.556     129.486    173.62      0.17
  144.535       0.692      -0.556     129.536    297.98      0.42
  144.585       0.692      -0.556     129.586      3.35      0.51
  144.635       0.692      -0.557     129.636    271.78      1.14
  144.685       0.692      -0.558     129.686    271.78      1.14
  144.735       0.693      -0.559     129.736    308.21      0.41
  144.785       0.693      -0.559     129.786    307.01      0.95
  144.835       0.693      -0.559     129.836    303.13      0.17
  144.885       0.693      -0.560     129.886    303.13      0.17
  144.935       0.694      -0.560     129.936    325.61      0.71
  144.985       0.694      -0.560     129.986    346.79      0.17
  145.035       0.694      -0.560     130.036    324.67      0.89
  145.085       0.695      -0.560     130.086     67.65      0.71
  145.135       0.695      -0.559     130.136     67.65      0.71
  145.185       0.696      -0.559     130.186    356.82      0.73
  145.235       0.697      -0.560     130.236    337.82      1.97
  145.285       0.697      -0.560     130.286    117.24      0.21
  145.335       0.697      -0.560     130.336    117.24      0.21
  145.385       0.698      -0.559     130.386     44.29      1.29
  145.435       0.698      -0.560     130.436    259.13      0.87
  145.485       0.699      -0.560     130.486    332.36      1.26
  145.535       0.700      -0.562     130.536    315.89      2.85
  145.585       0.701      -0.562     130.586    331.07      0.22
  145.635       0.701      -0.562     130.636    331.07      0.22
  145.685       0.701      -0.563     130.686    288.87      0.96
  145.735       0.702      -0.563     130.736      7.85      0.81
  145.785       0.702      -0.562     130.786     93.48      0.32
  145.835       0.702      -0.562     130.836     93.48      0.32
  145.885       0.703      -0.561     130.886     42.33      1.87
  145.935       0.704      -0.562     130.936    312.16      1.77
  145.985       0.704      -0.562     130.986     99.50      0.34
  146.035       0.705      -0.563     131.036    295.14      1.93
  146.085       0.704      -0.564     131.086    209.85      1.22
  146.135       0.705      -0.563     131.136     46.87      1.76
  146.185       0.705      -0.563     131.186     15.41      0.43
  146.235       0.705      -0.562     131.236     36.46      0.41
  146.285       0.706      -0.562     131.286     29.43      1.08
  146.335       0.706      -0.562     131.336    278.46      0.47
  146.385       0.706      -0.562     131.386    157.89      0.29
  146.435       0.706      -0.562     131.436    160.04      0.34
  146.485       0.705      -0.562     131.486    160.04      0.34
  146.535       0.706      -0.563     131.536    308.99      0.57
  146.585       0.706      -0.563     131.586    255.60      0.91
  146.635       0.706      -0.562     131.636     53.70      1.39
  146.685       0.707      -0.561     131.686     53.70      1.39
  146.735       0.707      -0.562     131.736    293.71      1.08
  146.785       0.708      -0.563     131.786    293.71      1.08
  146.835       0.708      -0.563     131.836    268.14      0.34
  146.885       0.708      -0.564     131.886    320.78      0.36
  146.935       0.708      -0.563     131.936    135.20      0.86
  146.985       0.707      -0.562     131.986    135.20      0.86
  147.035       0.707      -0.562     132.036    157.21      0.39
  147.085       0.707      -0.563     132.086    341.31      0.90
  147.135       0.708      -0.562     132.136     23.03      0.47
  147.185       0.708      -0.562     132.186     23.03      0.47
  147.235       0.709      -0.562     132.236    342.11      0.47
  147.285       0.709      -0.563     132.286    319.33      1.23
  147.335       0.710      -0.563     132.336    337.40      0.37
  147.385       0.710      -0.563     132.386    337.40      0.37
  147.435       0.710      -0.563     132.436     18.03      0.50
  147.485       0.709      -0.565     132.486    240.55      2.56
  147.535       0.710      -0.566     132.536    307.57      0.50
  147.585       0.710      -0.566     132.586    307.57      0.50
  147.635       0.710      -0.566     132.636    115.53      0.36
  147.685       0.710      -0.565     132.686     76.46      0.16
  147.735       0.710      -0.566     132.736    307.64      0.43
  147.785       0.710      -0.566     132.786    307.64      0.43
  147.835       0.711      -0.566     132.836    312.36      0.60
  147.885       0.711      -0.566     132.886    356.09      0.69
  147.935       0.711      -0.567     132.936    277.49      0.30
  147.985       0.711      -0.567     132.986    277.49      0.30
  148.035       0.711      -0.566     133.036    102.69      1.64
  148.085       0.712      -0.566     133.086    327.04      1.43
  148.135       0.712      -0.567     133.136    227.56      0.38
  148.185       0.711      -0.567     133.186    227.56      0.38
  148.235       0.713      -0.567     133.236    347.78      1.40
  148.285       0.713      -0.567     133.286    348.98      0.59
  148.335       0.714      -0.568     133.336    294.23      1.03
  148.385       0.714      -0.569     133.386    294.23      1.03
  148.435       0.714      -0.570     133.436    272.65      0.99
  148.485       0.716      -0.571     133.486    327.74      2.88
  148.535       0.717      -0.572     133.536    311.79      0.91
  148.585       0.717      -0.572     133.586    311.79      0.91
  148.635       0.718      -0.572     133.636     19.19      0.77
  148.685       0.719      -0.573     133.686    320.78      1.46
  148.735       0.719      -0.573     133.736    317.86      0.48
  148.785       0.719      -0.573     133.786     21.79      0.32
  148.835       0.720      -0.572     133.836     74.30      1.39
  148.885       0.719      -0.571     133.886    133.20      0.36
  148.935       0.719      -0.572     133.936    215.74      0.26
  148.985       0.719      -0.571     133.986    103.22      0.71
  149.035       0.719      -0.570     134.036    103.22      0.71
  149.085       0.720      -0.570     134.086      8.34      1.15
  149.135       0.720      -0.570     134.136    295.22      0.23
