~VERSION INFORMATION
VERS .     2.0     : CWLS LOG ASCII STANDARD - VERSION 2.0
WRAP .     NO      : ONE LINE PER 1 DEPTH STEPS
~WELL INFORMATION
#MNEM.UNIT       DATA                  DESCRIPTION OF MNEMONIC
#---- ----       ----                  -----------------------
STRT .ft           14.885                  :START DEPTH
STOP .ft          397.185                  :STOP DEPTH
STEP .ft            0.050                  :STEP
NULL .          -999.2500                  :NULL VALUE
COMP .     Eaton Well Surveys              :COMPANY
WELL .     EDC Well                        :WELL
FLD  .     CR-103 & CR-17                  :FIELD
LOC  .                                     :LOCATION
PROV .     United States of America        :COUNTRY
SRVC .                                     :SERVICE COMPANY
DATE .     06 Apr 17                       :LOG DATE
UWI  .     EDC Well                        :UNIQUE WELL ID
~OTHER INFORMATION SECTION
#-------------------------
North ref is Magnetic
Mean deviation: 0.72 to N357.14
End deviation components .....
     North: 4.767
     East : -0.238
     Down : 382.119
Azimuth of end: N357.14
Distance start-end: 4.773ft
Comment1: T
Comment2: B
Comment3: p
Comment4: d
Comment5: g
Comment6: 3rd party winch coax
Comment7: RE,RS,JH
~CURVE INFORMATION
#MNEM.UNIT      API CODES       CURVE DESCRIPTION
#---- ----      ---------       -----------------
DEPT .ft                          : 1 DEPTH
DEVN .ft                          : 2 DEVIATION COMPONENT NORTH
DEVE .ft                          : 3 DEVIATION COMPONENT EAST
DEVD .ft                          : 4 DEVIATION COMPONENT DOWN
AZIM .deg                         : 5 DEVIATION AZIMUTH
DEV  .deg                         : 6 DEVIATION FROM VERTICAL DOWN
~A DEPT         DEVN        DEVE        DEVD      AZIM       DEV
# ...
  216.285       1.204      -0.706     201.277    306.65      0.59
  216.335       1.204      -0.707     201.327    306.65      0.59
  216.385       1.205      -0.707     201.377      4.24      1.20
  216.435       1.207      -0.707     201.427    359.44      1.45
  216.485       1.207      -0.706     201.477     25.13      0.94
  216.535       1.208      -0.707     201.527    335.72      0.91
  216.585       1.209      -0.707     201.577    335.72      0.91
  216.635       1.209      -0.707     201.627    349.69      0.32
  216.685       1.210      -0.707     201.677     12.76      0.82
  216.735       1.211      -0.707     201.727    337.44      0.92
  216.785       1.211      -0.707     201.777    352.42      0.22
  216.835       1.211      -0.707     201.827    352.42      0.22
  216.885       1.212      -0.706     201.877     47.25      1.18
  216.935       1.212      -0.705     201.927     47.50      1.35
  216.985       1.213      -0.706     201.977    321.03      1.07
  217.035       1.214      -0.707     202.027    321.03      1.07
  217.085       1.214      -0.707     202.077    350.17      0.34
  217.135       1.215      -0.707     202.127     10.63      0.51
  217.185       1.215      -0.707     202.177    330.34      0.40
  217.235       1.215      -0.708     202.227    297.01      0.95
  217.285       1.216      -0.708     202.277    297.01      0.95
  217.335       1.217      -0.709     202.327    342.89      1.31
  217.385       1.217      -0.709     202.377    325.81      0.63
  217.435       1.218      -0.709     202.427    354.91      1.17
  217.485       1.220      -0.709     202.477      9.42      1.56
  217.535       1.221      -0.709     202.527      9.42      1.56
  217.585       1.221      -0.709     202.577    202.71      0.27
  217.635       1.221      -0.709     202.627    202.71      0.27
  217.685       1.222      -0.710     202.677    306.82      1.96
  217.735       1.222      -0.710     202.727    357.02      0.67
  217.785       1.223      -0.710     202.777    346.17      1.04
  217.835       1.223      -0.711     202.827    287.45      0.42
  217.885       1.224      -0.711     202.877    345.26      1.10
  217.935       1.225      -0.711     202.927    345.26      1.10
  217.985       1.226      -0.711     202.977     27.10      0.99
  218.035       1.227      -0.711     203.027      3.35      1.00
  218.085       1.227      -0.710     203.077     58.89      0.74
  218.135       1.228      -0.711     203.127    339.48      1.02
  218.185       1.229      -0.711     203.177    339.48      1.02
  218.235       1.230      -0.711     203.227     12.91      1.08
  218.285       1.230      -0.712     203.277    313.20      1.43
  218.335       1.231      -0.711     203.327     38.66      0.78
  218.385       1.231      -0.711     203.377     38.66      0.78
  218.435       1.232      -0.711     203.427      2.69      0.89
  218.485       1.233      -0.711     203.477    319.43      0.98
  218.535       1.234      -0.711     203.527      5.76      0.82
  218.585       1.234      -0.712     203.577    317.21      0.95
  218.635       1.235      -0.712     203.627    317.21      0.95
  218.685       1.235      -0.712     203.677     63.51      0.93
  218.735       1.235      -0.712     203.727    346.49      0.19
  218.785       1.236      -0.712     203.777      2.82      1.11
  218.835       1.237      -0.711     203.827      2.82      1.11
  218.885       1.238      -0.711     203.877      6.06      0.64
  218.935       1.238      -0.711     203.927     73.41      0.74
  218.985       1.239      -0.711     203.977      2.91      0.68
  219.035       1.239      -0.711     204.027      2.91      0.68
  219.085       1.240      -0.711     204.077      6.68      0.49
  219.135       1.240      -0.711     204.127    325.77      0.88
  219.185       1.242      -0.711     204.177    356.09      1.54
  219.235       1.242      -0.711     204.227    354.10      0.54
  219.285       1.243      -0.711     204.277    354.10      0.54
  219.335       1.243      -0.712     204.327    328.78      0.98
  219.385       1.244      -0.712     204.377     18.46      0.79
  219.435       1.245      -0.712     204.427    357.90      0.92
  219.485       1.246      -0.712     204.477    357.90      0.92
  219.535       1.246      -0.712     204.527    337.64      1.13
  219.585       1.247      -0.712     204.577    347.67      1.01
  219.635       1.248      -0.712     204.627     13.88      0.40
  219.685       1.249      -0.712     204.677    352.91      1.09
  219.735       1.250      -0.712     204.727    352.91      1.09
  219.785       1.250      -0.713     204.777    327.48      0.46
  219.835       1.250      -0.712     204.827     30.14      0.37
  219.885       1.251      -0.712     204.877      0.80      1.04
  219.935       1.252      -0.712     204.927    349.24      0.90
  219.985       1.253      -0.713     204.977    349.24      0.90
  220.035       1.253      -0.713     205.027    347.39      0.35
  220.085       1.253      -0.712     205.077     54.31      0.93
  220.135       1.254      -0.712     205.127    332.35      0.88
  220.185       1.254      -0.713     205.177    335.03      0.46
  220.235       1.255      -0.713     205.227    335.03      0.46
  220.285       1.255      -0.713     205.277     13.09      0.67
  220.335       1.255      -0.713     205.327    277.88      0.17
  220.385       1.257      -0.713     205.377      6.21      1.39
  220.435       1.257      -0.712     205.427     29.95      0.98
  220.485       1.258      -0.712     205.477     29.95      0.98
  220.535       1.259      -0.711     205.527     28.66      0.75
  220.585       1.260      -0.711     205.577    357.44      1.02
  220.635       1.260      -0.712     205.627    328.74      0.73
  220.685       1.261      -0.712     205.677    328.74      0.73
  220.735       1.262      -0.712     205.727      2.95      1.47
  220.785       1.262      -0.712     205.777     64.69      0.61
  220.835       1.264      -0.711     205.827      7.81      1.76
  220.885       1.264      -0.712     205.877    349.64      0.83
  220.935       1.265      -0.712     205.927    349.64      0.83
  220.985       1.267      -0.711     205.977     10.16      1.84
  221.035       1.267      -0.712     206.027    316.74      1.03
  221.085       1.268      -0.712     206.077    355.29      1.32
  221.135       1.269      -0.713     206.127    301.12      0.84
  221.185       1.269      -0.713     206.177    301.12      0.84
  221.235       1.270      -0.712     206.227     53.39      1.29
  221.285       1.270      -0.712     206.277     54.75      0.44
  221.335       1.271      -0.711     206.327     38.65      1.38
  221.385       1.272      -0.711     206.376     31.33      1.26
  221.435       1.272      -0.710     206.426     40.09      0.62
  221.485       1.273      -0.711     206.476    336.28      1.32
  221.535       1.275      -0.711     206.526    336.28      1.32
  221.585       1.275      -0.711     206.576     14.98      0.48
  221.635       1.276      -0.712     206.626    347.37      1.38
  221.685       1.276      -0.712     206.676    341.70      0.49
  221.735       1.277      -0.712     206.726    341.70      0.49
  221.785       1.278      -0.712     206.776    338.67      1.29
  221.835       1.278      -0.713     206.826    323.69      0.67
  221.885       1.279      -0.713     206.876    347.16      0.71
  221.935       1.279      -0.713     206.926    247.93      0.17
  221.985       1.279      -0.713     206.976    247.93      0.17
  222.035       1.279      -0.713     207.026    350.67      0.58
  222.085       1.280      -0.713     207.076    350.67      0.58
  222.135       1.281      -0.713     207.126    349.29      0.85
  222.185       1.282      -0.713     207.176     25.10      1.08
  222.235       1.282      -0.713     207.226     20.23      0.88
  222.285       1.283      -0.712     207.276     20.23      0.88
  222.335       1.284      -0.712     207.326     27.24      1.09
