~VERSION INFORMATION
VERS .     2.0     : CWLS LOG ASCII STANDARD - VERSION 2.0
WRAP .     NO      : ONE LINE PER 1 DEPTH STEPS
~WELL INFORMATION
#MNEM.UNIT       DATA                  DESCRIPTION OF MNEMONIC
#---- ----       ----                  -----------------------
STRT .ft           14.885                  :START DEPTH
STOP .ft          397.185                  :STOP DEPTH
STEP .ft            0.050                  :STEP
NULL .          -999.2500                  :NULL VALUE
COMP .     Eaton Well Surveys              :COMPANY
WELL .     EDC Well                        :WELL
FLD  .     CR-103 & CR-17                  :FIELD
LOC  .                                     :LOCATION
PROV .     United States of America        :COUNTRY
SRVC .                                     :SERVICE COMPANY
DATE .     06 Apr 17                       :LOG DATE
UWI  .     EDC Well                        :UNIQUE WELL ID
~OTHER INFORMATION SECTION
#-------------------------
North ref is Magnetic
Mean deviation: 0.72 to N357.14
End deviation components .....
     North: 4.767
     East : -0.238
     Down : 382.119
Azimuth of end: N357.14
Distance start-end: 4.773ft
Comment1: T
Comment2: B
Comment3: p
Comment4: d
Comment5: g
Comment6: 3rd party winch coax
Comment7: RE,RS,JH
~CURVE INFORMATION
#MNEM.UNIT      API CODES       CURVE DESCRIPTION
#---- ----      ---------       -----------------
DEPT .ft                          : 1 DEPTH
DEVN .ft                          : 2 DEVIATION COMPONENT NORTH
DEVE .ft                          : 3 DEVIATION COMPONENT EAST
DEVD .ft                          : 4 DEVIATION COMPONENT DOWN
AZIM .deg                         : 5 DEVIATION AZIMUTH
DEV  .deg                         : 6 DEVIATION FROM VERTICAL DOWN
~A DEPT         DEVN        DEVE        DEVD      AZIM       DEV
# ...
  344.385       3.305      -0.563     329.348     15.20      1.74
  344.435       3.306      -0.563     329.398      6.43      1.29
  344.485       3.307      -0.563     329.448      6.43      1.29
  344.535       3.308      -0.563     329.498    358.47      1.48
  344.585       3.310      -0.563     329.548    358.45      2.00
  344.635       3.311      -0.563     329.598      8.10      1.20
  344.685       3.312      -0.563     329.648      8.62      1.44
  344.735       3.312      -0.565     329.698    274.53      2.32
  344.785       3.313      -0.566     329.748    298.51      1.38
  344.835       3.314      -0.566     329.798    339.59      0.64
  344.885       3.315      -0.566     329.848     27.18      1.60
  344.935       3.316      -0.566     329.898      3.57      1.16
  344.985       3.316      -0.566     329.948    253.55      0.78
  345.035       3.315      -0.567     329.998    253.55      0.78
  345.085       3.316      -0.566     330.048     59.28      0.95
  345.135       3.317      -0.566     330.098    358.07      1.17
  345.185       3.318      -0.566     330.148     17.00      1.30
  345.235       3.318      -0.566     330.198    283.53      0.48
  345.285       3.318      -0.567     330.248    283.53      0.48
  345.335       3.319      -0.566     330.298     35.81      1.71
  345.385       3.321      -0.566     330.348      6.80      1.34
  345.435       3.322      -0.566     330.398      3.87      1.38
  345.485       3.323      -0.566     330.448      1.37      1.45
  345.535       3.324      -0.565     330.498      1.86      1.72
  345.585       3.326      -0.564     330.548     32.93      2.12
  345.635       3.327      -0.564     330.598     21.17      1.19
  345.685       3.328      -0.563     330.648     59.69      1.52
  345.735       3.329      -0.563     330.698      2.51      1.21
  345.785       3.330      -0.563     330.748      7.61      1.22
  345.835       3.330      -0.562     330.798     24.09      0.76
  345.885       3.331      -0.562     330.848      4.07      1.08
  345.935       3.332      -0.562     330.898     25.30      1.41
  345.985       3.334      -0.562     330.948    344.89      1.56
  346.035       3.335      -0.561     330.998     52.99      1.74
  346.085       3.336      -0.561     331.048    345.69      1.21
  346.135       3.337      -0.561     331.098    359.05      1.66
  346.185       3.339      -0.561     331.148     24.22      1.71
  346.235       3.340      -0.560     331.198     24.32      2.46
  346.285       3.342      -0.560     331.248      3.76      1.29
  346.335       3.342      -0.561     331.298    317.59      1.39
  346.385       3.344      -0.561     331.348    354.18      1.43
  346.435       3.345      -0.560     331.398     48.46      1.37
  346.485       3.346      -0.560     331.448    348.04      1.43
  346.535       3.347      -0.560     331.498     19.95      1.74
  346.585       3.348      -0.560     331.548    329.71      1.63
  346.635       3.350      -0.560     331.598     23.69      1.40
  346.685       3.350      -0.560     331.648    343.12      0.82
  346.735       3.352      -0.560     331.697    343.38      1.58
  346.785       3.354      -0.559     331.747     40.61      3.14
  346.835       3.358      -0.560     331.797    340.91      4.84
  346.885       3.363      -0.562     331.847    340.89      6.58
  346.935       3.364      -0.561     331.897     24.75      1.46
  346.985       3.365      -0.561     331.947    355.68      1.46
  347.035       3.367      -0.562     331.997    346.00      1.70
  347.085       3.369      -0.561     332.047     16.91      1.95
  347.135       3.370      -0.561     332.097     16.91      1.95
  347.185       3.372      -0.561     332.147    349.96      2.06
  347.235       3.373      -0.561     332.197      8.63      0.96
  347.285       3.374      -0.561     332.247     17.15      1.54
  347.335       3.375      -0.560     332.297     14.31      1.59
  347.385       3.376      -0.560     332.347      1.85      1.14
  347.435       3.378      -0.560     332.397      8.94      1.46
  347.485       3.378      -0.560     332.447     12.01      0.92
  347.535       3.379      -0.560     332.497     12.01      0.92
  347.585       3.381      -0.560     332.547    353.69      1.97
  347.635       3.383      -0.560     332.597    356.03      2.08
  347.685       3.384      -0.560     332.647     11.23      1.60
  347.735       3.386      -0.559     332.697      8.80      2.64
  347.785       3.387      -0.559     332.747      2.40      1.15
  347.835       3.388      -0.559     332.797     69.26      0.82
  347.885       3.389      -0.558     332.847     35.35      1.91
  347.935       3.391      -0.558     332.896    339.45      2.13
  347.985       3.392      -0.559     332.946    339.45      2.13
  348.035       3.394      -0.559     332.996      6.00      1.66
  348.085       3.395      -0.558     333.046     19.96      1.88
  348.135       3.397      -0.558     333.096     19.96      1.88
  348.185       3.398      -0.558     333.146    358.39      0.90
  348.235       3.399      -0.558     333.196    358.39      0.90
  348.285       3.400      -0.557     333.246     21.32      1.22
  348.335       3.401      -0.558     333.296    349.82      1.79
  348.385       3.402      -0.558     333.346      5.82      1.35
  348.435       3.404      -0.557     333.396     26.60      2.12
  348.485       3.405      -0.556     333.446     18.13      0.84
  348.535       3.406      -0.556     333.496      7.72      1.87
  348.585       3.407      -0.556     333.546    357.17      1.18
  348.635       3.409      -0.556     333.596     17.73      1.94
  348.685       3.410      -0.555     333.646     11.50      1.68
  348.735       3.412      -0.555     333.696      8.56      1.58
  348.785       3.413      -0.555     333.746      5.19      1.34
  348.835       3.414      -0.555     333.796     10.16      1.62
  348.885       3.416      -0.555     333.846      7.58      1.53
  348.935       3.417      -0.555     333.896      2.61      1.22
  348.985       3.418      -0.555     333.946      9.25      1.15
  349.035       3.419      -0.555     333.996      0.99      1.38
  349.085       3.420      -0.554     334.046      9.51      1.54
  349.135       3.421      -0.554     334.096     14.45      1.17
  349.185       3.422      -0.554     334.146     15.52      1.67
  349.235       3.424      -0.554     334.196    354.40      1.45
  349.285       3.425      -0.553     334.246     22.12      1.38
  349.335       3.426      -0.553     334.296     17.52      1.67
  349.385       3.427      -0.553     334.346    350.19      1.44
  349.435       3.428      -0.553     334.396    336.14      1.04
  349.485       3.429      -0.554     334.446    346.16      1.15
  349.535       3.431      -0.552     334.496     30.42      2.77
  349.585       3.432      -0.552     334.546     28.88      1.10
  349.635       3.433      -0.552     334.596      9.92      1.13
  349.685       3.435      -0.552     334.646      8.16      1.53
  349.735       3.436      -0.551     334.696     11.82      1.36
  349.785       3.437      -0.552     334.746    352.47      1.50
  349.835       3.438      -0.551     334.796     24.81      1.33
  349.885       3.439      -0.551     334.846    359.84      1.18
  349.935       3.440      -0.551     334.896      8.72      1.41
  349.985       3.441      -0.551     334.946      8.72      1.41
  350.035       3.443      -0.551     334.996      4.30      1.60
  350.085       3.444      -0.551     335.046      4.30      1.60
  350.135       3.445      -0.551     335.096    341.14      0.96
  350.185       3.447      -0.550     335.146     17.11      1.97
  350.235       3.448      -0.550     335.196     17.11      1.97
  350.285       3.450      -0.550     335.246    351.41      1.65
  350.335       3.451      -0.550     335.296     15.18      2.01
  350.385       3.453      -0.549     335.346      8.03      1.75
  350.435       3.454      -0.549     335.396     11.74      1.39
