~VERSION INFORMATION
VERS .     2.0     : CWLS LOG ASCII STANDARD - VERSION 2.0
WRAP .     NO      : ONE LINE PER 1 DEPTH STEPS
~WELL INFORMATION
#MNEM.UNIT       DATA                  DESCRIPTION OF MNEMONIC
#---- ----       ----                  -----------------------
STRT .ft           14.885                  :START DEPTH
STOP .ft          397.185                  :STOP DEPTH
STEP .ft            0.050                  :STEP
NULL .          -999.2500                  :NULL VALUE
COMP .     Eaton Well Surveys              :COMPANY
WELL .     EDC Well                        :WELL
FLD  .     CR-103 & CR-17                  :FIELD
LOC  .                                     :LOCATION
PROV .     United States of America        :COUNTRY
SRVC .                                     :SERVICE COMPANY
DATE .     06 Apr 17                       :LOG DATE
UWI  .     EDC Well                        :UNIQUE WELL ID
~OTHER INFORMATION SECTION
#-------------------------
North ref is Magnetic
Mean deviation: 0.72 to N357.14
End deviation components .....
     North: 4.767
     East : -0.238
     Down : 382.119
Azimuth of end: N357.14
Distance start-end: 4.773ft
Comment1: T
Comment2: B
Comment3: p
Comment4: d
Comment5: g
Comment6: 3rd party winch coax
Comment7: RE,RS,JH
~CURVE INFORMATION
#MNEM.UNIT      API CODES       CURVE DESCRIPTION
#---- ----      ---------       -----------------
DEPT .ft                          : 1 DEPTH
DEVN .ft                          : 2 DEVIATION COMPONENT NORTH
DEVE .ft                          : 3 DEVIATION COMPONENT EAST
DEVD .ft                          : 4 DEVIATION COMPONENT DOWN
AZIM .deg                         : 5 DEVIATION AZIMUTH
DEV  .deg                         : 6 DEVIATION FROM VERTICAL DOWN
~A DEPT         DEVN        DEVE        DEVD      AZIM       DEV
# ...
   63.785       0.275      -0.259      48.796    353.71      0.54
   63.835       0.275      -0.260      48.846    267.78      0.36
   63.885       0.276      -0.260      48.896     20.07      0.33
   63.935       0.276      -0.260      48.946     20.07      0.33
   63.985       0.276      -0.261      48.996    298.00      1.25
   64.035       0.276      -0.261      49.046    288.97      0.39
   64.085       0.277      -0.262      49.096    286.05      1.77
   64.135       0.277      -0.264      49.146    286.05      1.77
   64.185       0.278      -0.264      49.196    309.07      0.36
   64.235       0.278      -0.264      49.246    356.72      0.15
   64.285       0.278      -0.264      49.296    348.01      0.05
   64.335       0.278      -0.264      49.346    348.01      0.05
   64.385       0.278      -0.264      49.396     29.44      0.77
   64.435       0.278      -0.264      49.446    243.09      0.49
   64.485       0.278      -0.265      49.496    298.73      0.70
   64.535       0.279      -0.265      49.546    291.23      0.81
   64.585       0.279      -0.266      49.596    286.73      0.92
   64.635       0.279      -0.267      49.646    286.73      0.92
   64.685       0.279      -0.266      49.696    102.06      0.47
   64.735       0.280      -0.266      49.746     17.55      1.02
   64.785       0.280      -0.266      49.796    359.04      0.41
   64.835       0.280      -0.266      49.846     77.24      0.56
   64.885       0.280      -0.266      49.896    325.39      0.13
   64.935       0.281      -0.266      49.946    337.88      0.36
   64.985       0.281      -0.266      49.996    337.88      0.36
   65.035       0.281      -0.266      50.046    242.46      0.59
   65.085       0.282      -0.267      50.096    342.57      0.97
   65.135       0.282      -0.267      50.146    304.66      0.79
   65.185       0.282      -0.268      50.196    304.66      0.79
   65.235       0.282      -0.268      50.246    289.25      0.16
   65.285       0.283      -0.268      50.296    289.25      0.16
   65.335       0.283      -0.269      50.346    299.93      0.80
   65.385       0.283      -0.269      50.396    179.94      0.32
   65.435       0.283      -0.269      50.446    275.81      0.45
   65.485       0.283      -0.269      50.496    260.12      0.23
   65.535       0.283      -0.270      50.546    265.35      0.97
   65.585       0.282      -0.271      50.596    265.35      0.97
   65.635       0.283      -0.272      50.646    307.04      1.01
   65.685       0.283      -0.272      50.696    265.96      0.40
   65.735       0.283      -0.273      50.746    302.18      1.18
   65.785       0.283      -0.273      50.796    110.85      0.53
   65.835       0.283      -0.272      50.846    110.85      0.53
   65.885       0.283      -0.271      50.896     79.74      0.99
   65.935       0.283      -0.272      50.946    266.29      1.31
   65.985       0.284      -0.273      50.996    303.52      1.22
   66.035       0.283      -0.273      51.046    119.93      0.79
   66.085       0.285      -0.273      51.096    343.77      1.27
   66.135       0.284      -0.273      51.146    136.14      0.22
   66.185       0.284      -0.273      51.196    155.44      0.58
   66.235       0.284      -0.273      51.246    220.17      0.63
   66.285       0.283      -0.273      51.296    117.35      0.41
   66.335       0.283      -0.273      51.346    230.59      1.05
   66.385       0.282      -0.273      51.396    139.78      0.59
   66.435       0.282      -0.273      51.446    139.78      0.59
   66.485       0.283      -0.273      51.496    333.32      1.00
   66.535       0.283      -0.273      51.546    293.69      0.34
   66.585       0.283      -0.274      51.596    283.30      1.20
   66.635       0.283      -0.275      51.646    283.30      1.20
   66.685       0.284      -0.276      51.696    325.99      0.67
   66.735       0.284      -0.276      51.746    325.99      0.67
   66.785       0.285      -0.277      51.796    286.52      0.58
   66.835       0.284      -0.277      51.846    189.65      0.35
   66.885       0.284      -0.277      51.896    296.73      0.60
   66.935       0.285      -0.277      51.946     48.96      0.27
   66.985       0.285      -0.278      51.996    284.71      0.74
   67.035       0.285      -0.278      52.046    284.71      0.74
   67.085       0.285      -0.278      52.096    346.84      0.35
   67.135       0.286      -0.278      52.146    346.37      1.01
   67.185       0.287      -0.279      52.196    303.27      1.38
   67.235       0.287      -0.280      52.246    303.27      1.38
   67.285       0.288      -0.284      52.296    275.95      3.66
   67.335       0.288      -0.284      52.346     14.92      0.27
   67.385       0.288      -0.283      52.396     14.92      0.27
   67.435       0.288      -0.283      52.446     94.07      0.68
   67.485       0.288      -0.283      52.496     93.18      0.29
   67.535       0.288      -0.282      52.546     70.03      0.45
   67.585       0.288      -0.282      52.596     70.03      0.45
   67.635       0.288      -0.282      52.646    234.17      0.27
   67.685       0.288      -0.282      52.696    234.17      0.27
   67.735       0.289      -0.283      52.745    346.81      1.26
   67.785       0.289      -0.283      52.795    318.28      0.07
   67.835       0.290      -0.283      52.845    337.81      1.11
   67.885       0.290      -0.283      52.895    127.39      0.30
   67.935       0.290      -0.283      52.945     45.29      0.14
   67.985       0.290      -0.283      52.995     45.29      0.14
   68.035       0.290      -0.283      53.045    343.54      0.33
   68.085       0.291      -0.283      53.095    351.96      0.75
   68.135       0.291      -0.283      53.145    176.67      0.21
   68.185       0.291      -0.283      53.195    176.67      0.21
   68.235       0.291      -0.283      53.245    287.83      0.89
   68.285       0.291      -0.284      53.295    279.31      0.45
   68.335       0.291      -0.284      53.345    262.67      0.69
   68.385       0.291      -0.285      53.395    312.79      0.91
   68.435       0.292      -0.286      53.445    312.79      0.91
   68.485       0.292      -0.286      53.495    256.50      0.43
   68.535       0.292      -0.286      53.545     39.33      0.30
   68.585       0.292      -0.285      53.595     97.23      0.71
   68.635       0.292      -0.285      53.645     97.23      0.71
   68.685       0.292      -0.285      53.695    317.05      0.49
   68.735       0.292      -0.284      53.745     98.28      0.77
   68.785       0.292      -0.284      53.795    272.76      0.34
   68.835       0.293      -0.285      53.845    320.42      1.31
   68.885       0.294      -0.286      53.895    320.42      1.31
   68.935       0.294      -0.286      53.945    290.73      0.41
   68.985       0.294      -0.286      53.995    282.00      0.21
   69.035       0.294      -0.287      54.045    320.91      0.48
   69.085       0.295      -0.287      54.095    326.28      0.34
   69.135       0.295      -0.287      54.145    317.72      1.02
   69.185       0.295      -0.287      54.195    191.82      0.03
   69.235       0.295      -0.288      54.245    191.82      0.03
   69.285       0.296      -0.288      54.295    294.64      0.70
   69.335       0.295      -0.288      54.345    229.13      0.30
   69.385       0.295      -0.288      54.395     88.27      0.78
   69.435       0.295      -0.288      54.445    265.81      0.46
   69.485       0.295      -0.288      54.495    265.81      0.46
   69.535       0.296      -0.289      54.545    313.14      0.67
   69.585       0.296      -0.288      54.595     42.70      0.97
   69.635       0.297      -0.288      54.645     37.71      0.41
   69.685       0.297      -0.288      54.695    328.71      0.76
   69.735       0.297      -0.288      54.745    158.15      0.40
   69.785       0.297      -0.289      54.795    295.02      1.05
   69.835       0.297      -0.289      54.845    298.36      0.29
