~VERSION INFORMATION
VERS .     2.0     : CWLS LOG ASCII STANDARD - VERSION 2.0
WRAP .     NO      : ONE LINE PER 5 DEPTH STEPS
~WELL INFORMATION
#MNEM.UNIT       DATA                  DESCRIPTION OF MNEMONIC
#---- ----       ----                  -----------------------
STRT .ft            0.000                  :START DEPTH
STOP .ft          265.000                  :STOP DEPTH
STEP .ft            0.050                  :STEP
NULL .          -999.2500                  :NULL VALUE
COMP .     Eaton Well Surveys              :COMPANY
WELL .     Fire supply well                :WELL
FLD  .     Pump house                      :FIELD
LOC  .                                     :LOCATION
PROV .     United States of America        :COUNTRY
SRVC .                                     :SERVICE COMPANY
DATE .     10 Mar 17                       :LOG DATE
UWI  .     Fire supply well                :UNIQUE WELL ID
~OTHER INFORMATION SECTION
#-------------------------
North ref is Magnetic
Mean deviation: 0.96 to N273.86
End deviation components .....
     North: 0.297
     East : -4.412
     Down : 264.902
Azimuth of end: N273.86
Distance start-end: 4.422ft
Comment1: T
Comment2: B
Comment3: p
Comment4: d
Comment5: g
Comment6: 3rd party winch coax
Comment7: RE,RS,JH
~CURVE INFORMATION
#MNEM.UNIT      API CODES       CURVE DESCRIPTION
#---- ----      ---------       -----------------
DEPT .ft                          : 1 DEPTH
DEVN .ft                          : 2 DEVIATION COMPONENT NORTH
DEVE .ft                          : 3 DEVIATION COMPONENT EAST
DEVD .ft                          : 4 DEVIATION COMPONENT DOWN
AZIM .deg                         : 5 DEVIATION AZIMUTH
DEV  .deg                         : 6 DEVIATION FROM VERTICAL DOWN
~A DEPT         DEVN        DEVE        DEVD      AZIM       DEV
# ...
  183.000       0.703      -3.027     182.967    268.70      1.35
  183.250       0.703      -3.033     183.217    269.84      1.19
  183.500       0.703      -3.038     183.467    256.93      1.21
  183.750       0.703      -3.044     183.717    277.33      1.00
  184.000       0.704      -3.050     183.967    281.35      1.31
  184.250       0.704      -3.055     184.217    293.88      1.12
  184.500       0.704      -3.059     184.467    258.76      0.77
  184.750       0.704      -3.065     184.717    260.85      0.89
  185.000       0.704      -3.070     184.967    267.64      1.29
  185.250       0.704      -3.076     185.216    235.26      1.17
  185.500       0.703      -3.082     185.466    263.47      1.28
  185.750       0.703      -3.087     185.716    272.67      1.40
  186.000       0.703      -3.093     185.966    271.72      1.36
  186.250       0.703      -3.099     186.216    260.34      1.48
  186.500       0.702      -3.105     186.466    260.20      1.32
  186.750       0.702      -3.111     186.716    254.76      1.56
  187.000       0.701      -3.117     186.966    283.06      1.38
  187.250       0.701      -3.122     187.216    263.63      1.28
  187.500       0.699      -3.129     187.466    246.07      1.21
  187.750       0.699      -3.134     187.716    257.53      1.30
  188.000       0.699      -3.139     187.966    277.77      1.26
  188.250       0.700      -3.145     188.216    270.82      0.93
  188.500       0.699      -3.150     188.466    263.51      1.04
  188.750       0.700      -3.156     188.716    282.21      1.11
  189.000       0.701      -3.162     188.965    271.15      1.29
  189.250       0.701      -3.167     189.215    267.50      1.43
  189.500       0.701      -3.173     189.465    266.60      1.44
  189.750       0.701      -3.178     189.715    280.10      0.95
  190.000       0.701      -3.183     189.965    275.22      1.32
  190.250       0.701      -3.188     190.215    259.45      0.85
  190.500       0.702      -3.193     190.465    263.89      1.03
  190.750       0.701      -3.198     190.715    268.87      1.10
  191.000       0.701      -3.203     190.965    257.56      1.18
  191.250       0.700      -3.208     191.215    267.39      1.17
  191.500       0.699      -3.214     191.465    267.69      1.37
  191.750       0.698      -3.219     191.715    260.59      1.16
  192.000       0.697      -3.224     191.965    257.28      1.13
  192.250       0.696      -3.229     192.215    265.16      1.28
  192.500       0.696      -3.234     192.465    297.28      1.22
  192.750       0.696      -3.239     192.715    285.78      1.08
  193.000       0.696      -3.245     192.965    271.93      1.17
  193.250       0.695      -3.250     193.214    258.65      1.00
  193.500       0.694      -3.255     193.464    267.98      1.36
  193.750       0.693      -3.261     193.714    258.36      1.18
  194.000       0.693      -3.266     193.964    244.06      0.82
  194.250       0.691      -3.271     194.214    259.17      1.02
  194.500       0.690      -3.277     194.464    262.10      1.57
  194.750       0.689      -3.281     194.714    257.12      1.47
  195.000       0.688      -3.287     194.964    261.29      1.23
  195.250       0.687      -3.292     195.214    256.16      1.23
  195.500       0.686      -3.298     195.464    258.71      1.32
  195.750       0.685      -3.304     195.714    262.74      1.17
  196.000       0.684      -3.309     195.964    265.85      1.58
  196.250       0.684      -3.315     196.214    264.22      1.13
  196.500       0.683      -3.320     196.464    267.53      1.04
  196.750       0.683      -3.325     196.714    275.53      1.27
  197.000       0.682      -3.330     196.964    261.95      1.09
  197.250       0.682      -3.335     197.213    252.60      1.20
  197.500       0.681      -3.340     197.463    264.67      1.11
  197.750       0.681      -3.345     197.713    263.87      1.22
  198.000       0.680      -3.350     197.963    247.30      0.88
  198.250       0.679      -3.355     198.213    268.59      1.30
  198.500       0.678      -3.361     198.463    266.44      1.31
  198.750       0.678      -3.366     198.713    263.56      1.03
  199.000       0.677      -3.370     198.963    254.37      1.20
  199.250       0.676      -3.375     199.213    271.59      1.30
  199.500       0.675      -3.380     199.463    248.84      1.34
  199.750       0.674      -3.385     199.713    254.74      1.34
  200.000       0.673      -3.390     199.963    261.97      1.16
  200.250       0.672      -3.394     200.213    237.52      1.01
  200.500       0.672      -3.399     200.463    282.24      1.27
  200.750       0.671      -3.404     200.713    274.38      1.26
  201.000       0.670      -3.409     200.963    257.96      1.21
  201.250       0.669      -3.414     201.213    274.27      1.25
  201.500       0.668      -3.418     201.463    261.81      1.37
  201.750       0.666      -3.423     201.713    269.13      1.31
  202.000       0.665      -3.428     201.963    253.14      1.35
  202.250       0.663      -3.432     202.212    241.07      1.11
  202.500       0.662      -3.437     202.462    241.79      1.22
  202.750       0.661      -3.442     202.712    258.07      1.07
  203.000       0.660      -3.446     202.962    255.00      1.24
  203.250       0.660      -3.452     203.212    252.96      1.20
  203.500       0.658      -3.457     203.462    266.57      1.08
  203.750       0.657      -3.462     203.712    260.37      1.22
  204.000       0.656      -3.467     203.962    249.54      1.13
  204.250       0.654      -3.472     204.212    241.09      0.97
  204.500       0.654      -3.476     204.462    265.58      1.31
  204.750       0.653      -3.481     204.712    261.38      1.33
  205.000       0.651      -3.485     204.962    236.92      1.34
  205.250       0.650      -3.490     205.212    248.41      1.32
  205.500       0.649      -3.494     205.462    275.48      0.73
  205.750       0.648      -3.499     205.712    255.94      1.17
  206.000       0.646      -3.503     205.962    239.81      1.18
  206.250       0.646      -3.507     206.212    259.39      1.18
  206.500       0.645      -3.512     206.462    274.02      1.41
  206.750       0.645      -3.515     206.712    266.96      0.84
  207.000       0.645      -3.519     206.962    265.13      1.04
  207.250       0.644      -3.524     207.212    272.04      1.01
  207.500       0.643      -3.527     207.461    254.52      0.88
  207.750       0.642      -3.531     207.711    245.95      1.13
  208.000       0.641      -3.535     207.961    264.12      1.08
  208.250       0.640      -3.539     208.211    257.47      1.32
  208.500       0.639      -3.543     208.461    252.79      0.88
  208.750       0.638      -3.547     208.711    244.99      0.75
  209.000       0.636      -3.550     208.961    238.65      0.73
  209.250       0.635      -3.553     209.211    242.24      0.88
  209.500       0.633      -3.557     209.461    253.26      0.84
  209.750       0.632      -3.561     209.711    248.18      1.00
  210.000       0.630      -3.564     209.961    257.40      0.89
  210.250       0.629      -3.568     210.211    269.15      1.38
  210.500       0.627      -3.573     210.461    248.24      1.07
  210.750       0.626      -3.577     210.711    246.68      1.03
  211.000       0.624      -3.581     210.961    261.20      1.26
  211.250       0.623      -3.585     211.211    257.99      0.92
  211.500       0.622      -3.590     211.461    255.27      1.02
  211.750       0.621      -3.594     211.711    269.66      1.46
  212.000       0.619      -3.597     211.961    256.94      1.02
  212.250       0.619      -3.601     212.211    239.12      1.12
  212.500       0.618      -3.605     212.461    253.24      1.12
  212.750       0.616      -3.610     212.711    271.28      1.58
  213.000       0.615      -3.613     212.961    248.65      0.96
  213.250       0.614      -3.617     213.211    216.72      0.53
