~VERSION INFORMATION
VERS .     2.0     : CWLS LOG ASCII STANDARD - VERSION 2.0
WRAP .     NO      : ONE LINE PER 1 DEPTH STEPS
~WELL INFORMATION
#MNEM.UNIT       DATA                  DESCRIPTION OF MNEMONIC
#---- ----       ----                  -----------------------
STRT .ft           14.885                  :START DEPTH
STOP .ft          397.185                  :STOP DEPTH
STEP .ft            0.050                  :STEP
NULL .          -999.2500                  :NULL VALUE
COMP .     Eaton Well Surveys              :COMPANY
WELL .     EDC Well                        :WELL
FLD  .     CR-103 & CR-17                  :FIELD
LOC  .                                     :LOCATION
PROV .     United States of America        :COUNTRY
SRVC .                                     :SERVICE COMPANY
DATE .     06 Apr 17                       :LOG DATE
UWI  .     EDC Well                        :UNIQUE WELL ID
~OTHER INFORMATION SECTION
#-------------------------
North ref is Magnetic
Mean deviation: 0.72 to N357.14
End deviation components .....
     North: 4.767
     East : -0.238
     Down : 382.119
Azimuth of end: N357.14
Distance start-end: 4.773ft
Comment1: T
Comment2: B
Comment3: p
Comment4: d
Comment5: g
Comment6: 3rd party winch coax
Comment7: RE,RS,JH
~CURVE INFORMATION
#MNEM.UNIT      API CODES       CURVE DESCRIPTION
#---- ----      ---------       -----------------
DEPT .ft                          : 1 DEPTH
DEVN .ft                          : 2 DEVIATION COMPONENT NORTH
DEVE .ft                          : 3 DEVIATION COMPONENT EAST
DEVD .ft                          : 4 DEVIATION COMPONENT DOWN
AZIM .deg                         : 5 DEVIATION AZIMUTH
DEV  .deg                         : 6 DEVIATION FROM VERTICAL DOWN
~A DEPT         DEVN        DEVE        DEVD      AZIM       DEV
# ...
  368.785       3.944      -0.429     353.735     18.41      2.28
  368.835       3.945      -0.428     353.785     31.60      1.21
  368.885       3.946      -0.427     353.835     26.65      1.52
  368.935       3.948      -0.427     353.885      6.32      1.50
  368.985       3.948      -0.427     353.935     22.56      0.90
  369.035       3.949      -0.427     353.985     23.50      0.92
  369.085       3.949      -0.426     354.035     69.00      1.09
  369.135       3.951      -0.426     354.085      5.72      1.17
  369.185       3.952      -0.426     354.135      5.72      1.17
  369.235       3.953      -0.426     354.185      2.14      1.21
  369.285       3.954      -0.426     354.235    357.67      1.44
  369.335       3.954      -0.426     354.285    322.26      0.89
  369.385       3.955      -0.426     354.335      2.95      0.95
  369.435       3.956      -0.425     354.385     40.59      1.51
  369.485       3.958      -0.425     354.435     21.06      1.81
  369.535       3.960      -0.424     354.485     12.24      2.16
  369.585       3.961      -0.424     354.535     27.01      1.50
  369.635       3.963      -0.422     354.585     36.61      2.75
  369.685       3.964      -0.422     354.635     20.20      1.88
  369.735       3.966      -0.421     354.685     20.20      1.88
  369.785       3.967      -0.421     354.735      5.59      1.49
  369.835       3.969      -0.421     354.785    348.44      2.41
  369.885       3.970      -0.421     354.835      8.86      1.37
  369.935       3.970      -0.421     354.885     95.71      0.56
  369.985       3.972      -0.421     354.935    357.34      1.98
  370.035       3.974      -0.421     354.985      6.52      1.79
  370.085       3.975      -0.420     355.035     18.23      1.67
  370.135       3.976      -0.420     355.085    355.62      0.79
  370.185       3.977      -0.419     355.135     43.88      2.40
  370.235       3.979      -0.417     355.185     43.88      2.40
  370.285       3.980      -0.416     355.235     38.48      1.73
  370.335       3.980      -0.417     355.285    294.51      0.54
  370.385       3.982      -0.416     355.335     16.29      1.81
  370.435       3.983      -0.416     355.385     17.14      1.94
  370.485       3.985      -0.416     355.435    342.15      1.70
  370.535       3.986      -0.415     355.485     29.09      1.97
  370.585       3.988      -0.416     355.535    358.75      1.69
  370.635       3.989      -0.416     355.585    358.75      1.69
  370.685       3.991      -0.415     355.634     29.65      2.07
  370.735       3.993      -0.413     355.684     24.40      3.50
  370.785       3.994      -0.413     355.734     16.42      1.12
  370.835       3.995      -0.413     355.784      3.58      1.38
  370.885       3.997      -0.412     355.834     46.95      1.82
  370.935       3.999      -0.412     355.884      2.55      2.49
  370.985       3.999      -0.412     355.934    341.54      0.44
  371.035       3.999      -0.412     355.984    341.54      0.44
  371.085       4.001      -0.412     356.034    350.56      1.91
  371.135       4.001      -0.412     356.084     21.00      0.30
  371.185       4.004      -0.411     356.134     16.84      3.11
  371.235       4.005      -0.411     356.184     13.48      1.61
  371.285       4.007      -0.411     356.234    354.63      1.98
  371.335       4.009      -0.411     356.284    354.63      1.98
  371.385       4.011      -0.411     356.334      6.06      2.29
  371.435       4.013      -0.410     356.384     35.92      3.01
  371.485       4.014      -0.410     356.434    353.58      1.68
  371.535       4.015      -0.409     356.484     23.46      1.33
  371.585       4.017      -0.409     356.534      7.36      1.43
  371.635       4.018      -0.409     356.584     11.20      1.73
  371.685       4.020      -0.409     356.634      5.95      1.84
  371.735       4.021      -0.409     356.684      5.95      1.84
  371.785       4.023      -0.409     356.734    355.48      1.66
  371.835       4.024      -0.408     356.784     12.88      1.46
  371.885       4.025      -0.408     356.834      5.44      1.55
  371.935       4.027      -0.408     356.884     10.02      1.83
  371.985       4.027      -0.407     356.934    102.92      1.73
  372.035       4.024      -0.404     356.984    141.97      3.96
  372.085       4.025      -0.404     357.034     14.39      0.95
  372.135       4.026      -0.402     357.084     55.63      2.43
  372.185       4.027      -0.401     357.134     55.63      2.43
  372.235       4.028      -0.400     357.184     23.59      1.24
  372.285       4.030      -0.400     357.234      6.26      2.25
  372.335       4.031      -0.398     357.283     50.70      2.33
  372.385       4.032      -0.399     357.333    338.50      1.37
  372.435       4.035      -0.399     357.383    358.31      2.84
  372.485       4.036      -0.399     357.433     17.46      1.72
  372.535       4.038      -0.398     357.483     23.70      2.01
  372.585       4.039      -0.398     357.533      8.39      1.26
  372.635       4.040      -0.397     357.583      9.65      1.41
  372.685       4.041      -0.398     357.633    347.65      0.94
  372.735       4.042      -0.397     357.683     34.99      1.97
  372.785       4.044      -0.396     357.733     34.99      1.97
  372.835       4.044      -0.395     357.783     25.34      0.43
  372.885       4.045      -0.395     357.833     28.83      1.70
  372.935       4.047      -0.395     357.883      6.87      1.62
  372.985       4.049      -0.394     357.933      6.15      2.53
  373.035       4.049      -0.393     357.983     88.91      1.14
  373.085       4.051      -0.393     358.033      3.70      2.35
  373.135       4.053      -0.392     358.083     27.69      2.58
  373.185       4.055      -0.391     358.133     27.69      2.58
  373.235       4.055      -0.391     358.183    325.14      0.51
  373.285       4.057      -0.391     358.233      8.61      1.20
  373.335       4.058      -0.391     358.283     21.14      1.26
  373.385       4.058      -0.390     358.333     30.72      1.02
  373.435       4.059      -0.390     358.383      9.20      1.27
  373.485       4.061      -0.389     358.433     27.44      1.96
  373.535       4.062      -0.390     358.483    353.59      1.31
  373.585       4.064      -0.388     358.533     36.73      2.49
  373.635       4.065      -0.388     358.583      8.20      1.58
  373.685       4.067      -0.388     358.633     19.88      1.91
  373.735       4.068      -0.387     358.683     15.50      1.87
  373.785       4.070      -0.388     358.733    340.08      1.51
  373.835       4.071      -0.387     358.783     26.17      2.46
  373.885       4.073      -0.387     358.833    345.85      1.55
  373.935       4.074      -0.387     358.883    341.01      2.05
  373.985       4.076      -0.387     358.933     32.07      2.06
  374.035       4.077      -0.386     358.983     10.03      1.22
  374.085       4.078      -0.386     359.033      5.61      1.38
  374.135       4.079      -0.386     359.083      9.30      1.45
  374.185       4.080      -0.386     359.133     25.41      1.08
  374.235       4.082      -0.386     359.183    348.67      1.67
  374.285       4.083      -0.386     359.233    348.67      1.67
  374.335       4.084      -0.386     359.283    344.31      0.40
  374.385       4.086      -0.385     359.333     23.95      2.54
  374.435       4.086      -0.386     359.383    312.48      1.26
  374.485       4.088      -0.384     359.432     60.03      3.21
  374.535       4.089      -0.383     359.482     10.55      1.81
  374.585       4.091      -0.383     359.532      2.20      1.76
  374.635       4.092      -0.385     359.582    297.67      1.85
  374.685       4.092      -0.385     359.632    314.56      0.72
  374.735       4.094      -0.386     359.682    352.52      2.21
  374.785       4.095      -0.385     359.732     41.65      1.40
  374.835       4.096      -0.383     359.782     42.97      2.64
