~VERSION INFORMATION
VERS .     2.0     : CWLS LOG ASCII STANDARD - VERSION 2.0
WRAP .     NO      : ONE LINE PER 5 DEPTH STEPS
~WELL INFORMATION
#MNEM.UNIT       DATA                  DESCRIPTION OF MNEMONIC
#---- ----       ----                  -----------------------
STRT .ft            0.000                  :START DEPTH
STOP .ft          265.000                  :STOP DEPTH
STEP .ft            0.050                  :STEP
NULL .          -999.2500                  :NULL VALUE
COMP .     Eaton Well Surveys              :COMPANY
WELL .     Fire supply well                :WELL
FLD  .     Pump house                      :FIELD
LOC  .                                     :LOCATION
PROV .     United States of America        :COUNTRY
SRVC .                                     :SERVICE COMPANY
DATE .     10 Mar 17                       :LOG DATE
UWI  .     Fire supply well                :UNIQUE WELL ID
~OTHER INFORMATION SECTION
#-------------------------
North ref is Magnetic
Mean deviation: 0.96 to N273.86
End deviation components .....
     North: 0.297
     East : -4.412
     Down : 264.902
Azimuth of end: N273.86
Distance start-end: 4.422ft
Comment1: T
Comment2: B
Comment3: p
Comment4: d
Comment5: g
Comment6: 3rd party winch coax
Comment7: RE,RS,JH
~CURVE INFORMATION
#MNEM.UNIT      API CODES       CURVE DESCRIPTION
#---- ----      ---------       -----------------
DEPT .ft                          : 1 DEPTH
DEVN .ft                          : 2 DEVIATION COMPONENT NORTH
DEVE .ft                          : 3 DEVIATION COMPONENT EAST
DEVD .ft                          : 4 DEVIATION COMPONENT DOWN
AZIM .deg                         : 5 DEVIATION AZIMUTH
DEV  .deg                         : 6 DEVIATION FROM VERTICAL DOWN
~A DEPT         DEVN        DEVE        DEVD      AZIM       DEV
    0.000       0.000       0.000       0.000    346.61      0.57
    0.200       0.002      -0.001       0.200    344.38      0.54
    0.500       0.005      -0.001       0.500    356.08      0.52
    0.750       0.007      -0.002       0.750    338.22      0.70
    1.000       0.010      -0.003       1.000    338.58      0.52
    1.200       0.013      -0.004       1.200    336.20      0.58
    1.450       0.015      -0.005       1.450    332.63      0.72
    1.700       0.018      -0.006       1.700    334.04      0.51
    1.950       0.020      -0.007       1.950    337.01      0.72
    2.200       0.023      -0.008       2.200    295.60      0.72
    2.450       0.025      -0.010       2.450    320.89      0.62
    2.700       0.028      -0.011       2.700    326.49      0.44
    2.950       0.030      -0.012       2.950    307.33      0.78
    3.200       0.032      -0.014       3.200    317.11      0.72
    3.450       0.035      -0.016       3.450    327.57      0.70
    3.700       0.037      -0.017       3.700    344.73      0.55
    3.950       0.039      -0.019       3.950    309.67      0.78
    4.250       0.042      -0.021       4.250    339.74      0.70
    4.500       0.045      -0.023       4.500    323.96      0.90
    4.750       0.047      -0.025       4.750    311.68      0.63
    5.000       0.049      -0.026       5.000    314.26      0.42
    5.250       0.051      -0.028       5.250    335.38      0.96
    5.500       0.052      -0.030       5.500    313.70      0.64
    5.750       0.055      -0.032       5.750    333.80      0.81
    6.000       0.057      -0.034       6.000    311.36      0.54
    6.250       0.060      -0.036       6.250    318.14      0.75
    6.500       0.062      -0.038       6.500    316.90      0.66
    6.750       0.064      -0.040       6.750    336.47      0.84
    7.000       0.066      -0.042       7.000    323.01      0.67
    7.250       0.067      -0.045       7.249    306.32      0.65
    7.500       0.069      -0.047       7.499    303.62      0.61
    7.750       0.071      -0.049       7.749    307.56      0.57
    8.000       0.073      -0.051       7.999    313.34      0.59
    8.250       0.075      -0.054       8.249    307.21      0.72
    8.500       0.077      -0.056       8.499    323.57      0.65
    8.750       0.080      -0.058       8.749    307.63      0.61
    9.000       0.081      -0.060       8.999    305.50      0.58
    9.250       0.083      -0.063       9.249    309.38      0.60
    9.500       0.086      -0.065       9.499    309.85      0.81
    9.750       0.088      -0.068       9.749    320.72      0.92
   10.000       0.090      -0.070       9.999    312.22      0.71
   10.250       0.092      -0.072      10.249    312.34      0.87
   10.500       0.093      -0.075      10.499    306.72      0.69
   10.750       0.095      -0.077      10.749    297.18      0.80
   11.000       0.097      -0.080      10.999    298.80      0.73
   11.250       0.099      -0.083      11.249    299.34      0.82
   11.500       0.101      -0.085      11.499    317.17      0.75
   11.750       0.102      -0.088      11.749    299.49      0.75
   12.000       0.104      -0.091      11.999    316.55      0.76
   12.250       0.106      -0.093      12.249    307.55      0.73
   12.500       0.108      -0.096      12.499    306.44      0.66
   12.750       0.110      -0.099      12.749    297.88      0.75
   13.000       0.111      -0.101      12.999    294.92      0.65
   13.250       0.113      -0.105      13.249    299.11      0.94
   13.500       0.115      -0.108      13.499    309.60      0.97
   13.750       0.116      -0.110      13.749    302.42      0.78
   14.000       0.118      -0.113      13.999    295.07      0.70
   14.250       0.119      -0.116      14.249    297.78      0.66
   14.500       0.121      -0.119      14.499    310.88      0.83
   14.750       0.123      -0.121      14.749    319.39      0.87
   15.000       0.124      -0.124      14.999    313.49      0.97
   15.250       0.126      -0.127      15.249    293.73      0.78
   15.500       0.128      -0.129      15.499    310.83      0.78
   15.750       0.130      -0.132      15.749    290.97      0.75
   16.000       0.131      -0.136      15.999    285.26      0.96
   16.200       0.133      -0.139      16.199    303.79      1.12
   16.450       0.135      -0.142      16.449    324.39      1.13
   16.700       0.136      -0.144      16.699    289.64      0.54
   16.950       0.137      -0.147      16.949    285.51      0.86
   17.200       0.139      -0.150      17.199    295.81      0.83
   17.450       0.140      -0.153      17.449    284.73      0.64
   17.700       0.142      -0.156      17.699    322.26      1.14
   17.950       0.144      -0.159      17.949    304.80      0.72
   18.200       0.147      -0.161      18.199    298.48      0.55
   18.450       0.148      -0.164      18.448    281.95      0.63
   18.700       0.150      -0.167      18.698    296.95      1.07
   18.950       0.152      -0.170      18.948    319.82      0.95
   19.200       0.154      -0.173      19.198    298.51      0.79
   19.450       0.156      -0.176      19.448    296.19      1.14
   19.700       0.158      -0.179      19.698    306.89      0.88
   19.950       0.159      -0.181      19.948    298.64      0.78
   20.200       0.162      -0.185      20.198    319.44      0.79
   20.450       0.163      -0.189      20.448    295.55      0.58
   20.700       0.165      -0.191      20.698    292.41      0.78
   20.950       0.167      -0.194      20.948    312.73      0.90
   21.200       0.169      -0.198      21.198    285.55      0.95
   21.450       0.172      -0.201      21.448    321.98      1.45
   21.700       0.174      -0.204      21.698    305.18      0.62
   21.950       0.176      -0.207      21.948    308.71      1.13
   22.200       0.177      -0.211      22.198    260.97      1.27
   22.450       0.179      -0.213      22.448    323.63      1.31
   22.700       0.181      -0.216      22.698    328.94      1.38
   22.950       0.184      -0.220      22.948    279.23      1.13
   23.200       0.185      -0.224      23.198    294.13      0.58
   23.450       0.185      -0.227      23.448    285.68      0.58
   23.700       0.187      -0.231      23.698    297.04      0.81
   23.950       0.189      -0.234      23.948    311.10      0.91
   24.200       0.190      -0.238      24.198    288.43      0.42
   24.450       0.192      -0.241      24.448    303.90      0.83
   24.700       0.194      -0.244      24.698    300.63      0.75
   24.950       0.196      -0.247      24.948    314.27      0.73
   25.200       0.199      -0.250      25.198    304.42      1.05
   25.450       0.201      -0.253      25.448    277.94      1.48
   25.700       0.203      -0.257      25.698    313.01      1.14
   25.950       0.205      -0.260      25.947    293.37      0.80
   26.200       0.206      -0.264      26.197    295.11      1.14
   26.450       0.209      -0.267      26.447    299.83      0.67
   26.700       0.211      -0.270      26.697    294.90      0.98
   26.950       0.212      -0.273      26.947    313.73      0.69
   27.200       0.215      -0.276      27.197    290.04      0.96
   27.450       0.217      -0.280      27.447    296.60      1.07
   27.700       0.218      -0.283      27.697    290.42      1.14
   27.950       0.219      -0.288      27.947    273.19      0.78
   28.200       0.221      -0.291      28.197    301.50      0.76
   28.450       0.223      -0.295      28.447    269.56      1.03
   28.700       0.224      -0.299      28.697    286.30      1.08
   28.950       0.226      -0.303      28.947    306.66      1.18
   29.200       0.227      -0.306      29.197    271.12      0.60
   29.450       0.230      -0.310      29.447    294.19      0.64
   29.700       0.233      -0.314      29.697    305.01      1.28
   29.950       0.234      -0.317      29.947    303.01      1.43
   30.200       0.237      -0.321      30.197    314.63      1.32
