~VERSION INFORMATION
VERS .     2.0     : CWLS LOG ASCII STANDARD - VERSION 2.0
WRAP .     NO      : ONE LINE PER 5 DEPTH STEPS
~WELL INFORMATION
#MNEM.UNIT       DATA                  DESCRIPTION OF MNEMONIC
#---- ----       ----                  -----------------------
STRT .ft            0.000                  :START DEPTH
STOP .ft          265.000                  :STOP DEPTH
STEP .ft            0.050                  :STEP
NULL .          -999.2500                  :NULL VALUE
COMP .     Eaton Well Surveys              :COMPANY
WELL .     Fire supply well                :WELL
FLD  .     Pump house                      :FIELD
LOC  .                                     :LOCATION
PROV .     United States of America        :COUNTRY
SRVC .                                     :SERVICE COMPANY
DATE .     10 Mar 17                       :LOG DATE
UWI  .     Fire supply well                :UNIQUE WELL ID
~OTHER INFORMATION SECTION
#-------------------------
North ref is Magnetic
Mean deviation: 0.96 to N273.86
End deviation components .....
     North: 0.297
     East : -4.412
     Down : 264.902
Azimuth of end: N273.86
Distance start-end: 4.422ft
Comment1: T
Comment2: B
Comment3: p
Comment4: d
Comment5: g
Comment6: 3rd party winch coax
Comment7: RE,RS,JH
~CURVE INFORMATION
#MNEM.UNIT      API CODES       CURVE DESCRIPTION
#---- ----      ---------       -----------------
DEPT .ft                          : 1 DEPTH
DEVN .ft                          : 2 DEVIATION COMPONENT NORTH
DEVE .ft                          : 3 DEVIATION COMPONENT EAST
DEVD .ft                          : 4 DEVIATION COMPONENT DOWN
AZIM .deg                         : 5 DEVIATION AZIMUTH
DEV  .deg                         : 6 DEVIATION FROM VERTICAL DOWN
~A DEPT         DEVN        DEVE        DEVD      AZIM       DEV
# ...
  152.500       0.845      -2.470     152.473    251.73      1.01
  152.750       0.844      -2.474     152.723    246.16      0.67
  153.000       0.843      -2.477     152.973    253.35      1.04
  153.250       0.842      -2.480     153.223    263.45      0.75
  153.500       0.841      -2.484     153.473    263.84      0.85
  153.750       0.839      -2.487     153.723    211.79      1.06
  154.000       0.837      -2.491     153.973    241.17      0.95
  154.250       0.836      -2.494     154.223    227.38      1.14
  154.500       0.834      -2.498     154.473    242.83      1.13
  154.750       0.831      -2.501     154.723    234.48      0.98
  155.000       0.829      -2.505     154.973    237.74      0.70
  155.250       0.827      -2.508     155.223    241.11      0.53
  155.500       0.824      -2.512     155.473    241.43      1.00
  155.750       0.822      -2.515     155.723    223.71      0.88
  156.000       0.821      -2.521     155.973    244.59      1.06
  156.250       0.819      -2.524     156.223    262.96      1.06
  156.500       0.817      -2.527     156.473    259.23      0.39
  156.750       0.816      -2.530     156.723    246.20      0.95
  157.000       0.814      -2.535     156.972    262.48      1.28
  157.250       0.812      -2.539     157.222    263.87      1.39
  157.500       0.810      -2.542     157.472    235.18      1.20
  157.750       0.808      -2.546     157.722    232.34      0.97
  158.000       0.805      -2.550     157.972    247.78      1.27
  158.250       0.803      -2.554     158.222    254.06      1.13
  158.500       0.802      -2.558     158.472    247.24      0.41
  158.750       0.799      -2.563     158.722    232.10      0.93
  159.000       0.797      -2.566     158.972    239.53      1.17
  159.250       0.794      -2.570     159.222    231.02      0.95
  159.500       0.791      -2.574     159.472    233.71      1.25
  159.750       0.788      -2.578     159.722    229.92      1.25
  160.000       0.786      -2.583     159.972    236.61      1.01
  160.250       0.783      -2.587     160.222    249.07      1.31
  160.500       0.780      -2.591     160.472    224.74      1.25
  160.750       0.778      -2.594     160.722    222.03      1.15
  161.000       0.775      -2.598     160.972    224.04      1.26
  161.250       0.772      -2.603     161.222    238.52      1.14
  161.500       0.769      -2.608     161.472    221.08      1.39
  161.750       0.767      -2.612     161.722    255.53      1.87
  162.000       0.765      -2.617     161.971    240.06      0.87
  162.250       0.762      -2.621     162.221    248.29      1.36
  162.500       0.761      -2.626     162.471    247.99      1.09
  162.750       0.759      -2.631     162.721    233.27      0.89
  163.000       0.757      -2.636     162.971    252.19      1.12
  163.250       0.756      -2.640     163.221    234.08      0.85
  163.500       0.755      -2.646     163.471    277.93      1.42
  163.750       0.754      -2.651     163.721    254.18      1.25
  164.000       0.753      -2.656     163.971    299.14      1.15
  164.250       0.752      -2.660     164.221    254.11      1.00
  164.500       0.751      -2.665     164.471    262.76      0.95
  164.750       0.750      -2.669     164.721    241.74      1.09
  165.000       0.749      -2.673     164.971    250.11      1.06
  165.250       0.748      -2.678     165.221    292.18      1.13
  165.500       0.747      -2.683     165.471    262.45      1.29
  165.750       0.746      -2.687     165.721    251.30      1.04
  166.000       0.745      -2.692     165.971    237.31      0.84
  166.250       0.745      -2.698     166.221    290.48      1.78
  166.500       0.744      -2.703     166.470    268.94      1.28
  166.750       0.743      -2.708     166.720    248.56      1.58
  167.000       0.742      -2.712     166.970    251.20      0.87
  167.250       0.741      -2.716     167.220    255.80      1.02
  167.500       0.739      -2.721     167.470    239.52      1.00
  167.750       0.738      -2.725     167.720    251.49      0.80
  168.000       0.736      -2.730     167.970    256.67      1.10
  168.250       0.736      -2.734     168.220    248.41      1.17
  168.500       0.734      -2.740     168.470    261.23      1.27
  168.750       0.733      -2.746     168.720    261.59      1.09
  169.000       0.733      -2.751     168.970    269.51      1.28
  169.250       0.732      -2.756     169.220    265.94      1.09
  169.500       0.731      -2.761     169.470    254.28      1.10
  169.750       0.730      -2.766     169.720    260.79      1.26
  170.000       0.730      -2.771     169.970    268.12      1.26
  170.250       0.730      -2.776     170.220    268.00      1.17
  170.500       0.729      -2.780     170.470    258.99      1.02
  170.750       0.728      -2.784     170.720    271.69      0.61
  171.000       0.728      -2.788     170.970    268.68      1.13
  171.250       0.727      -2.793     171.220    271.04      1.12
  171.500       0.726      -2.798     171.470    254.83      1.21
  171.750       0.726      -2.803     171.719    271.54      1.16
  172.000       0.724      -2.809     171.969    250.52      1.27
  172.250       0.723      -2.814     172.219    265.33      1.28
  172.500       0.722      -2.819     172.469    261.30      1.23
  172.750       0.722      -2.824     172.719    260.56      1.15
  173.000       0.722      -2.828     172.969    290.70      0.55
  173.250       0.722      -2.833     173.219    265.88      0.57
  173.500       0.721      -2.838     173.469    270.62      1.08
  173.750       0.721      -2.843     173.719    264.56      1.01
  174.000       0.721      -2.848     173.969    276.25      0.97
  174.250       0.720      -2.853     174.219    249.19      1.54
  174.500       0.720      -2.858     174.469    263.88      1.23
  174.750       0.719      -2.863     174.719    257.30      1.27
  175.000       0.719      -2.868     174.969    258.47      1.19
  175.250       0.720      -2.873     175.219    296.71      1.34
  175.500       0.719      -2.878     175.469    276.65      1.22
  175.750       0.719      -2.882     175.719    257.41      0.89
  176.000       0.719      -2.887     175.969    279.48      1.22
  176.250       0.718      -2.892     176.219    271.77      1.06
  176.500       0.718      -2.897     176.468    272.76      0.97
  176.750       0.717      -2.901     176.718    253.96      0.84
  177.000       0.717      -2.906     176.968    260.28      1.31
  177.250       0.717      -2.910     177.218    263.85      1.08
  177.500       0.717      -2.915     177.468    252.74      1.20
  177.750       0.716      -2.920     177.718    248.20      1.10
  178.000       0.715      -2.925     177.968    250.85      1.27
  178.250       0.715      -2.930     178.218    277.16      1.01
  178.500       0.713      -2.935     178.468    246.87      1.07
  178.750       0.713      -2.940     178.718    262.21      1.21
  179.000       0.712      -2.945     178.968    249.30      1.10
  179.250       0.711      -2.950     179.218    270.98      1.21
  179.500       0.710      -2.954     179.468    258.81      1.23
  179.750       0.709      -2.959     179.718    255.14      1.04
  180.000       0.708      -2.964     179.968    263.31      0.80
  180.250       0.707      -2.969     180.218    256.63      1.05
  180.500       0.706      -2.974     180.468    264.61      1.54
  180.750       0.705      -2.978     180.718    257.83      1.06
  181.000       0.704      -2.984     180.968    261.22      1.13
  181.250       0.704      -2.989     181.217    264.22      1.08
  181.500       0.704      -2.994     181.467    258.64      1.05
  181.750       0.703      -2.999     181.717    253.95      1.20
  182.000       0.703      -3.006     181.967    269.32      1.22
  182.250       0.702      -3.011     182.217    260.71      1.26
  182.500       0.703      -3.016     182.467    275.98      1.20
  182.750       0.703      -3.022     182.717    270.66      1.23
