~VERSION INFORMATION
VERS .     2.0     : CWLS LOG ASCII STANDARD - VERSION 2.0
WRAP .     NO      : ONE LINE PER 5 DEPTH STEPS
~WELL INFORMATION
#MNEM.UNIT       DATA                  DESCRIPTION OF MNEMONIC
#---- ----       ----                  -----------------------
STRT .ft            0.000                  :START DEPTH
STOP .ft          252.000                  :STOP DEPTH
STEP .ft            0.050                  :STEP
NULL .          -999.2500                  :NULL VALUE
COMP .     Eaton Well Surveys              :COMPANY
WELL .     15                              :WELL
FLD  .     Gated pumphouse in park         :FIELD
LOC  .                                     :LOCATION
PROV .     United States of America        :COUNTRY
SRVC .                                     :SERVICE COMPANY
DATE .     21 Mar 17                       :LOG DATE
UWI  .     15                              :UNIQUE WELL ID
~OTHER INFORMATION SECTION
#-------------------------
North ref is Magnetic
Mean deviation: 1.02 to N245.93
End deviation components .....
     North: -1.821
     East : -4.078
     Down : 251.897
Azimuth of end: N245.94
Distance start-end: 4.466ft
Comment1: T
Comment2: B
Comment3: p
Comment4: d
Comment5: g
Comment6: 3rd party winch coax
Comment7: RE,RS,JH
~CURVE INFORMATION
#MNEM.UNIT      API CODES       CURVE DESCRIPTION
#---- ----      ---------       -----------------
DEPT .ft                          : 1 DEPTH
DEVN .ft                          : 2 DEVIATION COMPONENT NORTH
DEVE .ft                          : 3 DEVIATION COMPONENT EAST
DEVD .ft                          : 4 DEVIATION COMPONENT DOWN
AZIM .deg                         : 5 DEVIATION AZIMUTH
DEV  .deg                         : 6 DEVIATION FROM VERTICAL DOWN
~A DEPT         DEVN        DEVE        DEVD      AZIM       DEV
# ...
  152.500      -1.344      -1.720     152.480    225.58      0.96
  152.750      -1.348      -1.725     152.730    241.91      1.43
  153.000      -1.352      -1.730     152.980    221.89      1.37
  153.250      -1.356      -1.734     153.230    240.65      1.09
  153.500      -1.359      -1.740     153.480    234.28      1.51
  153.750      -1.363      -1.745     153.730    226.23      1.54
  154.000      -1.367      -1.751     153.980    233.15      1.57
  154.250      -1.370      -1.756     154.230    239.88      1.50
  154.500      -1.374      -1.762     154.479    232.02      1.78
  154.750      -1.378      -1.768     154.729    233.09      1.62
  155.000      -1.382      -1.774     154.979    228.70      1.59
  155.250      -1.385      -1.779     155.229    241.36      1.49
  155.500      -1.389      -1.785     155.479    241.26      1.32
  155.750      -1.392      -1.791     155.729    227.10      1.42
  156.000      -1.396      -1.796     155.979    244.99      1.78
  156.250      -1.399      -1.802     156.229    240.06      1.58
  156.500      -1.403      -1.808     156.479    231.26      1.54
  156.750      -1.407      -1.814     156.729    241.28      1.44
  157.000      -1.410      -1.820     156.979    245.29      2.27
  157.250      -1.415      -1.826     157.228    240.26      1.52
  157.500      -1.419      -1.832     157.478    241.84      1.52
  157.750      -1.422      -1.838     157.728    238.32      1.58
  158.000      -1.426      -1.844     157.978    231.48      1.63
  158.250      -1.430      -1.850     158.228    235.36      1.56
  158.500      -1.434      -1.855     158.478    242.90      1.63
  158.750      -1.438      -1.861     158.728    238.98      1.52
  159.000      -1.441      -1.867     158.978    236.59      1.47
  159.250      -1.445      -1.872     159.228    234.14      1.49
  159.500      -1.448      -1.878     159.478    235.79      1.51
  159.750      -1.452      -1.884     159.727    237.70      1.66
  160.000      -1.456      -1.890     159.977    232.99      1.54
  160.250      -1.459      -1.896     160.227    239.44      1.66
  160.500      -1.463      -1.902     160.477    235.31      1.54
  160.750      -1.466      -1.908     160.727    236.73      1.69
  161.000      -1.470      -1.914     160.977    240.16      1.54
  161.250      -1.473      -1.920     161.227    234.40      1.59
  161.500      -1.477      -1.926     161.477    245.83      1.58
  161.750      -1.480      -1.932     161.727    238.46      1.60
  162.000      -1.483      -1.938     161.977    240.88      1.65
  162.250      -1.486      -1.944     162.227    240.08      1.48
  162.500      -1.490      -1.950     162.476    234.33      1.67
  162.750      -1.494      -1.955     162.726    237.42      1.73
  163.000      -1.498      -1.962     162.976    240.17      1.53
  163.250      -1.501      -1.967     163.226    244.21      1.52
  163.500      -1.504      -1.973     163.476    243.23      1.64
  163.750      -1.508      -1.979     163.726    237.64      1.51
  164.000      -1.511      -1.985     163.976    238.61      1.56
  164.250      -1.515      -1.991     164.226    238.16      1.63
  164.500      -1.519      -1.997     164.476    238.15      1.58
  164.750      -1.522      -2.002     164.726    244.24      1.51
  165.000      -1.525      -2.008     164.975    249.32      1.63
  165.250      -1.528      -2.014     165.225    242.63      1.46
  165.500      -1.532      -2.020     165.475    237.72      1.67
  165.750      -1.535      -2.025     165.725    242.26      1.40
  166.000      -1.539      -2.031     165.975    237.84      1.85
  166.250      -1.542      -2.037     166.225    240.00      1.52
  166.500      -1.545      -2.043     166.475    245.70      1.26
  166.750      -1.548      -2.048     166.725    229.23      1.59
  167.000      -1.552      -2.054     166.975    238.61      1.27
  167.250      -1.555      -2.060     167.225    238.50      1.76
  167.500      -1.558      -2.065     167.475    241.94      1.30
  167.750      -1.561      -2.071     167.725    239.87      1.40
  168.000      -1.564      -2.077     167.974    239.54      1.66
  168.250      -1.566      -2.082     168.224    244.61      1.51
  168.500      -1.569      -2.088     168.474    244.96      1.38
  168.750      -1.572      -2.093     168.724    243.96      1.29
  169.000      -1.574      -2.099     168.974    248.00      1.35
  169.250      -1.577      -2.104     169.224    244.66      1.42
  169.500      -1.580      -2.110     169.474    251.54      1.47
  169.750      -1.583      -2.116     169.724    226.46      1.57
  170.000      -1.585      -2.121     169.974    249.45      1.28
  170.250      -1.587      -2.126     170.224    249.57      1.32
  170.500      -1.589      -2.132     170.474    264.34      1.46
  170.750      -1.591      -2.137     170.724    254.48      0.99
  171.000      -1.593      -2.142     170.974    241.84      1.57
  171.250      -1.596      -2.148     171.223    244.99      1.30
  171.500      -1.598      -2.153     171.473    248.74      1.64
  171.750      -1.600      -2.158     171.723    239.90      1.37
  172.000      -1.601      -2.163     171.973    255.78      1.39
  172.250      -1.603      -2.169     172.223    240.12      1.06
  172.500      -1.605      -2.175     172.473    257.22      2.26
  172.750      -1.608      -2.180     172.723    264.92      1.78
  173.000      -1.610      -2.186     172.973    223.87      1.91
  173.250      -1.614      -2.191     173.223    238.72      1.85
  173.500      -1.615      -2.197     173.473    258.50      1.58
  173.750      -1.616      -2.203     173.723    258.28      1.40
  174.000      -1.618      -2.210     173.973    257.13      1.72
  174.250      -1.619      -2.216     174.223    252.96      1.25
  174.500      -1.620      -2.222     174.472    255.31      1.57
  174.750      -1.621      -2.227     174.722    266.41      1.07
  175.000      -1.622      -2.233     174.972    250.20      1.25
  175.250      -1.623      -2.239     175.222    277.62      1.12
  175.500      -1.624      -2.245     175.472    258.04      1.41
  175.750      -1.625      -2.251     175.722    262.26      1.65
  176.000      -1.625      -2.257     175.972    233.26      1.44
  176.250      -1.628      -2.263     176.222    249.19      1.00
  176.500      -1.629      -2.268     176.472    243.92      1.16
  176.750      -1.628      -2.273     176.722    266.84      1.46
  177.000      -1.629      -2.280     176.972    252.99      1.85
  177.250      -1.630      -2.285     177.222    244.22      1.71
  177.500      -1.631      -2.291     177.472    276.08      1.53
  177.750      -1.632      -2.297     177.721    261.44      1.19
  178.000      -1.632      -2.303     177.971    275.91      1.50
  178.250      -1.633      -2.308     178.221    277.75      1.17
  178.500      -1.634      -2.313     178.471    232.55      1.69
  178.750      -1.635      -2.319     178.721    289.76      1.64
  179.000      -1.636      -2.323     178.971    276.70      1.62
  179.250      -1.637      -2.328     179.221    280.72      1.26
  179.500      -1.638      -2.334     179.471    265.04      1.78
  179.750      -1.639      -2.339     179.721    254.48      1.01
  180.000      -1.640      -2.346     179.971    278.75      0.72
  180.250      -1.640      -2.351     180.221    263.21      1.71
  180.500      -1.640      -2.356     180.471    260.32      1.50
  180.750      -1.640      -2.362     180.721    253.01      1.75
  181.000      -1.641      -2.369     180.971    263.71      1.01
  181.250      -1.641      -2.374     181.220    237.81      0.71
  181.500      -1.642      -2.379     181.470    249.58      1.31
  181.750      -1.643      -2.385     181.720    278.88      1.86
  182.000      -1.644      -2.390     181.970    235.60      0.98
  182.250      -1.644      -2.395     182.220    261.88      1.25
  182.500      -1.643      -2.401     182.470    262.62      2.06
  182.750      -1.645      -2.408     182.720    247.34      1.37
