~VERSION INFORMATION
VERS .     2.0     : CWLS LOG ASCII STANDARD - VERSION 2.0
WRAP .     NO      : ONE LINE PER 5 DEPTH STEPS
~WELL INFORMATION
#MNEM.UNIT       DATA                  DESCRIPTION OF MNEMONIC
#---- ----       ----                  -----------------------
STRT .ft            0.000                  :START DEPTH
STOP .ft          265.000                  :STOP DEPTH
STEP .ft            0.050                  :STEP
NULL .          -999.2500                  :NULL VALUE
COMP .     Eaton Well Surveys              :COMPANY
WELL .     Fire supply well                :WELL
FLD  .     Pump house                      :FIELD
LOC  .                                     :LOCATION
PROV .     United States of America        :COUNTRY
SRVC .                                     :SERVICE COMPANY
DATE .     10 Mar 17                       :LOG DATE
UWI  .     Fire supply well                :UNIQUE WELL ID
~OTHER INFORMATION SECTION
#-------------------------
North ref is Magnetic
Mean deviation: 0.96 to N273.86
End deviation components .....
     North: 0.297
     East : -4.412
     Down : 264.902
Azimuth of end: N273.86
Distance start-end: 4.422ft
Comment1: T
Comment2: B
Comment3: p
Comment4: d
Comment5: g
Comment6: 3rd party winch coax
Comment7: RE,RS,JH
~CURVE INFORMATION
#MNEM.UNIT      API CODES       CURVE DESCRIPTION
#---- ----      ---------       -----------------
DEPT .ft                          : 1 DEPTH
DEVN .ft                          : 2 DEVIATION COMPONENT NORTH
DEVE .ft                          : 3 DEVIATION COMPONENT EAST
DEVD .ft                          : 4 DEVIATION COMPONENT DOWN
AZIM .deg                         : 5 DEVIATION AZIMUTH
DEV  .deg                         : 6 DEVIATION FROM VERTICAL DOWN
~A DEPT         DEVN        DEVE        DEVD      AZIM       DEV
# ...
  244.000       0.427      -4.111     243.955    239.01      1.13
  244.250       0.426      -4.114     244.205    203.74      0.34
  244.500       0.424      -4.118     244.455    223.21      1.06
  244.750       0.422      -4.120     244.705    254.67      0.89
  245.000       0.420      -4.124     244.955    226.52      1.14
  245.250       0.419      -4.127     245.205    272.17      0.67
  245.500       0.419      -4.132     245.455    263.89      1.39
  245.750       0.419      -4.135     245.705    262.46      1.00
  246.000       0.418      -4.138     245.955    240.78      1.46
  246.250       0.416      -4.140     246.205    255.91      0.79
  246.500       0.415      -4.145     246.455    267.47      1.23
  246.750       0.415      -4.149     246.705    242.12      0.63
  247.000       0.413      -4.151     246.955    268.11      0.99
  247.250       0.412      -4.155     247.205    220.60      1.09
  247.500       0.411      -4.158     247.455    173.82      0.62
  247.750       0.410      -4.162     247.705    235.43      1.04
  248.000       0.408      -4.165     247.955    204.30      1.24
  248.250       0.407      -4.169     248.205    240.83      0.73
  248.500       0.405      -4.171     248.455    192.15      0.82
  248.750       0.403      -4.172     248.705    162.79      0.22
  249.000       0.400      -4.175     248.955    233.54      1.34
  249.250       0.397      -4.178     249.205    241.63      1.03
  249.500       0.397      -4.181     249.455    305.37      0.77
  249.750       0.397      -4.184     249.704    260.88      0.77
  250.000       0.394      -4.187     249.954    222.21      0.58
  250.250       0.392      -4.189     250.204    154.43      0.56
  250.500       0.390      -4.192     250.454    271.79      0.98
  250.750       0.388      -4.195     250.704    281.50      0.69
  251.000       0.385      -4.199     250.954    245.17      1.41
  251.250       0.382      -4.204     251.204    226.87      1.27
  251.500       0.380      -4.208     251.454    235.52      0.41
  251.750       0.376      -4.212     251.704    221.37      1.69
  252.000       0.374      -4.216     251.954    255.99      0.92
  252.250       0.372      -4.220     252.204    268.01      0.98
  252.500       0.370      -4.224     252.454    242.00      1.17
  252.750       0.369      -4.227     252.704    237.13      0.28
  253.000       0.368      -4.230     252.954    237.86      0.74
  253.250       0.367      -4.235     253.204    262.98      1.12
  253.500       0.364      -4.238     253.454    266.28      0.90
  253.750       0.363      -4.241     253.704    271.50      1.18
  254.000       0.361      -4.245     253.954    218.27      1.29
  254.250       0.359      -4.249     254.204    240.46      0.36
  254.500       0.358      -4.253     254.454    267.77      1.15
  254.750       0.357      -4.257     254.704    269.92      1.31
  255.000       0.357      -4.262     254.953    267.49      0.74
  255.250       0.355      -4.267     255.203    263.57      1.65
  255.500       0.355      -4.271     255.453    250.02      0.91
  255.750       0.353      -4.274     255.703    234.42      0.48
  256.000       0.354      -4.279     255.953    221.03      0.87
  256.200       0.354      -4.282     256.153    295.06      0.83
  256.450       0.353      -4.286     256.403    298.55      1.16
  256.700       0.352      -4.291     256.653    258.39      1.09
  256.950       0.351      -4.294     256.903    214.16      0.65
  257.200       0.350      -4.297     257.153    219.30      0.54
  257.450       0.349      -4.301     257.403    234.36      0.74
  257.700       0.348      -4.306     257.653    218.21      0.68
  257.950       0.348      -4.310     257.903    263.55      0.90
  258.200       0.346      -4.315     258.153    258.06      1.35
  258.450       0.345      -4.319     258.403    275.16      1.24
  258.700       0.344      -4.322     258.653    257.56      1.27
  258.950       0.342      -4.327     258.903    255.68      1.50
  259.200       0.339      -4.331     259.153    210.51      1.37
  259.450       0.338      -4.335     259.403    245.78      0.80
  259.700       0.337      -4.338     259.653    254.94      1.45
  259.950       0.336      -4.341     259.903    251.07      0.73
  260.200       0.333      -4.345     260.153    224.98      0.99
  260.450       0.330      -4.348     260.403    236.44      1.02
  260.700       0.328      -4.352     260.652    273.97      0.70
  260.950       0.328      -4.355     260.902    274.71      1.23
  261.200       0.326      -4.360     261.152    251.40      1.17
  261.450       0.324      -4.364     261.402    249.88      1.08
  261.700       0.321      -4.368     261.652    263.42      1.20
  261.950       0.320      -4.372     261.902    243.26      0.94
  262.200       0.318      -4.375     262.152    236.12      0.89
  262.450       0.316      -4.379     262.402    248.75      1.28
  262.700       0.313      -4.383     262.652    236.26      1.41
  262.950       0.312      -4.387     262.902    260.47      0.98
  263.200       0.310      -4.390     263.152    226.11      1.13
  263.450       0.309      -4.393     263.402    236.42      0.49
  263.700       0.308      -4.396     263.652    238.95      0.66
  263.950       0.307      -4.399     263.902    277.85      0.69
  264.200       0.305      -4.402     264.152    219.73      1.59
  264.450       0.302      -4.405     264.402    229.27      1.11
  264.700       0.299      -4.409     264.652    241.88      1.00
  264.950       0.297      -4.412     264.902    236.90      0.75
