~VERSION INFORMATION
VERS .     2.0     : CWLS LOG ASCII STANDARD - VERSION 2.0
WRAP .     NO      : ONE LINE PER 1 DEPTH STEPS
~WELL INFORMATION
#MNEM.UNIT       DATA                  DESCRIPTION OF MNEMONIC
#---- ----       ----                  -----------------------
STRT .ft           14.885                  :START DEPTH
STOP .ft          397.185                  :STOP DEPTH
STEP .ft            0.050                  :STEP
NULL .          -999.2500                  :NULL VALUE
COMP .     Eaton Well Surveys              :COMPANY
WELL .     EDC Well                        :WELL
FLD  .     CR-103 & CR-17                  :FIELD
LOC  .                                     :LOCATION
PROV .     United States of America        :COUNTRY
SRVC .                                     :SERVICE COMPANY
DATE .     06 Apr 17                       :LOG DATE
UWI  .     EDC Well                        :UNIQUE WELL ID
~OTHER INFORMATION SECTION
#-------------------------
North ref is Magnetic
Mean deviation: 0.72 to N357.14
End deviation components .....
     North: 4.767
     East : -0.238
     Down : 382.119
Azimuth of end: N357.14
Distance start-end: 4.773ft
Comment1: T
Comment2: B
Comment3: p
Comment4: d
Comment5: g
Comment6: 3rd party winch coax
Comment7: RE,RS,JH
~CURVE INFORMATION
#MNEM.UNIT      API CODES       CURVE DESCRIPTION
#---- ----      ---------       -----------------
DEPT .ft                          : 1 DEPTH
DEVN .ft                          : 2 DEVIATION COMPONENT NORTH
DEVE .ft                          : 3 DEVIATION COMPONENT EAST
DEVD .ft                          : 4 DEVIATION COMPONENT DOWN
AZIM .deg                         : 5 DEVIATION AZIMUTH
DEV  .deg                         : 6 DEVIATION FROM VERTICAL DOWN
~A DEPT         DEVN        DEVE        DEVD      AZIM       DEV
# ...
  118.685       0.553      -0.470     103.691    310.40      0.91
  118.735       0.553      -0.471     103.741    262.79      0.56
  118.785       0.553      -0.471     103.791    262.79      0.56
  118.835       0.553      -0.470     103.841     79.92      0.85
  118.885       0.553      -0.470     103.891     30.88      0.54
  118.935       0.553      -0.470     103.941     74.86      0.17
  118.985       0.554      -0.470     103.991    307.87      0.66
  119.035       0.554      -0.471     104.041    300.78      0.66
  119.085       0.555      -0.471     104.091      9.31      1.36
  119.135       0.556      -0.470     104.140      9.31      1.36
  119.185       0.557      -0.471     104.190    358.01      0.65
  119.235       0.558      -0.471     104.240    358.01      0.65
  119.285       0.558      -0.471     104.290    346.37      1.14
  119.335       0.559      -0.471     104.340      6.62      0.74
  119.385       0.559      -0.471     104.390    162.16      0.65
  119.435       0.558      -0.470     104.440    162.16      0.65
  119.485       0.558      -0.470     104.490    127.71      0.43
  119.535       0.558      -0.470     104.540     72.92      0.64
  119.585       0.558      -0.470     104.590    238.88      0.73
  119.635       0.557      -0.471     104.640    238.88      0.73
  119.685       0.557      -0.470     104.690    137.26      0.58
  119.735       0.556      -0.471     104.740    235.25      1.29
  119.785       0.556      -0.472     104.790    250.47      0.56
  119.835       0.556      -0.472     104.840    250.47      0.56
  119.885       0.556      -0.472     104.890    252.04      0.29
  119.935       0.556      -0.472     104.940    328.17      0.30
  119.985       0.556      -0.473     104.990    267.00      0.38
  120.035       0.556      -0.473     105.040    267.00      0.38
  120.085       0.557      -0.473     105.090     13.44      0.78
  120.135       0.557      -0.473     105.140    346.44      0.34
  120.185       0.557      -0.473     105.190      8.79      0.54
  120.235       0.558      -0.473     105.240      8.79      0.54
  120.285       0.558      -0.473     105.290    303.06      0.38
  120.335       0.558      -0.474     105.340    300.29      0.68
  120.385       0.559      -0.474     105.390     12.83      0.12
  120.435       0.559      -0.474     105.440     12.83      0.12
  120.485       0.560      -0.473     105.490     24.15      1.46
  120.535       0.560      -0.474     105.540    296.24      0.65
  120.585       0.560      -0.474     105.590     13.00      0.31
  120.635       0.561      -0.474     105.640     13.00      0.31
  120.685       0.560      -0.474     105.690    182.82      0.16
  120.735       0.560      -0.474     105.740    221.51      0.14
  120.785       0.561      -0.474     105.790    332.13      0.85
  120.835       0.562      -0.474     105.840    332.13      0.85
  120.885       0.562      -0.474     105.890     35.62      0.87
  120.935       0.564      -0.473     105.940     33.97      1.86
  120.985       0.564      -0.473     105.990    275.55      0.53
  121.035       0.564      -0.473     106.040    141.22      0.13
  121.085       0.564      -0.472     106.090     93.33      0.98
  121.135       0.564      -0.472     106.140      9.98      0.40
  121.185       0.564      -0.472     106.190    108.47      0.15
  121.235       0.564      -0.472     106.240    108.47      0.15
  121.285       0.565      -0.473     106.290    325.89      1.54
  121.335       0.566      -0.472     106.340     23.99      1.24
  121.385       0.567      -0.473     106.390    340.60      1.23
  121.435       0.568      -0.473     106.440    340.60      1.23
  121.485       0.568      -0.473     106.490    127.06      0.56
  121.535       0.569      -0.472     106.540     25.67      2.33
  121.585       0.570      -0.473     106.590    317.86      1.23
  121.635       0.570      -0.473     106.640    203.52      0.72
  121.685       0.569      -0.473     106.690    161.88      0.37
  121.735       0.570      -0.473     106.740    350.42      0.93
  121.785       0.570      -0.473     106.790    316.81      0.30
  121.835       0.571      -0.473     106.840    316.81      0.30
  121.885       0.571      -0.473     106.890    346.44      0.83
  121.935       0.572      -0.473     106.940     54.14      0.68
  121.985       0.572      -0.473     106.990    311.77      0.67
  122.035       0.573      -0.473     107.040     11.20      1.29
  122.085       0.573      -0.474     107.090    253.80      0.41
  122.135       0.573      -0.474     107.140    248.61      0.70
  122.185       0.573      -0.474     107.190     63.79      0.58
  122.235       0.573      -0.473     107.240     63.79      0.58
  122.285       0.574      -0.473     107.290     11.27      0.44
  122.335       0.574      -0.473     107.340    352.17      0.79
  122.385       0.575      -0.474     107.390    327.31      0.61
  122.435       0.576      -0.474     107.440    358.02      1.08
  122.485       0.577      -0.474     107.490    358.02      1.08
  122.535       0.577      -0.474     107.540    351.26      0.68
  122.585       0.578      -0.474     107.590    316.79      0.74
  122.635       0.579      -0.474     107.640     16.23      1.11
  122.685       0.580      -0.474     107.690     16.23      1.11
  122.735       0.580      -0.474     107.740    320.27      0.45
  122.785       0.580      -0.474     107.790    270.58      0.62
  122.835       0.580      -0.475     107.840    331.52      0.78
  122.885       0.581      -0.475     107.890    331.52      0.78
  122.935       0.581      -0.475     107.940    142.40      0.64
  122.985       0.580      -0.475     107.990    180.11      0.37
  123.035       0.581      -0.474     108.040     35.49      1.42
  123.085       0.582      -0.475     108.090    298.26      1.02
  123.135       0.582      -0.475     108.140     72.45      0.16
  123.185       0.582      -0.475     108.190    311.80      1.02
  123.235       0.583      -0.476     108.240    311.79      1.02
  123.285       0.584      -0.475     108.290     36.36      1.31
  123.335       0.584      -0.475     108.340    355.35      0.69
  123.385       0.584      -0.476     108.390    236.39      0.62
  123.435       0.586      -0.475     108.440     14.73      1.66
  123.485       0.585      -0.477     108.490    264.75      1.64
  123.535       0.585      -0.478     108.540    267.51      1.01
  123.585       0.585      -0.477     108.590    159.94      0.84
  123.635       0.584      -0.477     108.640    159.94      0.84
  123.685       0.584      -0.478     108.690    281.00      0.53
  123.735       0.584      -0.478     108.740    281.00      0.53
  123.785       0.584      -0.478     108.790    261.21      0.33
  123.835       0.584      -0.478     108.840    290.38      0.04
  123.885       0.584      -0.480     108.890    269.52      1.52
  123.935       0.584      -0.481     108.940    269.52      1.52
  123.985       0.585      -0.480     108.990     52.40      1.95
  124.035       0.586      -0.479     109.040     40.39      0.88
  124.085       0.586      -0.479     109.090    349.50      0.75
  124.135       0.586      -0.480     109.140    229.18      0.87
  124.185       0.585      -0.481     109.190    229.18      0.87
  124.235       0.586      -0.480     109.240     31.82      0.93
  124.285       0.587      -0.480     109.290     31.82      0.93
  124.335       0.587      -0.480     109.340    279.46      0.24
  124.385       0.587      -0.480     109.390    279.46      0.24
  124.435       0.587      -0.480     109.440    328.46      0.33
  124.485       0.587      -0.480     109.490    101.23      0.32
  124.535       0.587      -0.480     109.540    101.23      0.32
  124.585       0.586      -0.479     109.590    148.77      0.95
  124.635       0.587      -0.479     109.640    330.07      0.31
  124.685       0.587      -0.480     109.690    330.07      0.31
  124.735       0.587      -0.479     109.740     29.68      0.62
