~VERSION INFORMATION
VERS .     2.0     : CWLS LOG ASCII STANDARD - VERSION 2.0
WRAP .     NO      : ONE LINE PER 1 DEPTH STEPS
~WELL INFORMATION
#MNEM.UNIT       DATA                  DESCRIPTION OF MNEMONIC
#---- ----       ----                  -----------------------
STRT .ft           14.885                  :START DEPTH
STOP .ft          397.185                  :STOP DEPTH
STEP .ft            0.050                  :STEP
NULL .          -999.2500                  :NULL VALUE
COMP .     Eaton Well Surveys              :COMPANY
WELL .     EDC Well                        :WELL
FLD  .     CR-103 & CR-17                  :FIELD
LOC  .                                     :LOCATION
PROV .     United States of America        :COUNTRY
SRVC .                                     :SERVICE COMPANY
DATE .     06 Apr 17                       :LOG DATE
UWI  .     EDC Well                        :UNIQUE WELL ID
~OTHER INFORMATION SECTION
#-------------------------
North ref is Magnetic
Mean deviation: 0.72 to N357.14
End deviation components .....
     North: 4.767
     East : -0.238
     Down : 382.119
Azimuth of end: N357.14
Distance start-end: 4.773ft
Comment1: T
Comment2: B
Comment3: p
Comment4: d
Comment5: g
Comment6: 3rd party winch coax
Comment7: RE,RS,JH
~CURVE INFORMATION
#MNEM.UNIT      API CODES       CURVE DESCRIPTION
#---- ----      ---------       -----------------
DEPT .ft                          : 1 DEPTH
DEVN .ft                          : 2 DEVIATION COMPONENT NORTH
DEVE .ft                          : 3 DEVIATION COMPONENT EAST
DEVD .ft                          : 4 DEVIATION COMPONENT DOWN
AZIM .deg                         : 5 DEVIATION AZIMUTH
DEV  .deg                         : 6 DEVIATION FROM VERTICAL DOWN
~A DEPT         DEVN        DEVE        DEVD      AZIM       DEV
# ...
  393.185       4.631      -0.271     378.122    356.02      2.09
  393.235       4.634      -0.270     378.172     10.44      3.93
  393.285       4.636      -0.270     378.222      0.65      2.01
  393.335       4.638      -0.271     378.272    350.19      1.74
  393.385       4.640      -0.271     378.322      0.70      2.69
  393.435       4.641      -0.270     378.372      3.52      1.64
  393.485       4.643      -0.269     378.422     33.26      2.25
  393.535       4.644      -0.269     378.472     19.68      1.80
  393.585       4.646      -0.268     378.522     21.07      1.62
  393.635       4.647      -0.268     378.572     14.62      2.03
  393.685       4.649      -0.267     378.622     29.14      2.02
  393.735       4.651      -0.267     378.672      2.35      1.84
  393.785       4.652      -0.267     378.722      2.61      1.55
  393.835       4.654      -0.267     378.772    349.23      1.85
  393.885       4.655      -0.266     378.822     35.96      2.70
  393.935       4.658      -0.265     378.871     16.94      2.79
  393.985       4.660      -0.265     378.921      8.77      2.58
  394.035       4.662      -0.264     378.971     28.54      2.71
  394.085       4.664      -0.263     379.021     20.33      2.02
  394.135       4.666      -0.262     379.071     30.95      2.70
  394.185       4.668      -0.261     379.121     18.89      2.34
  394.235       4.670      -0.260     379.171     20.47      2.27
  394.285       4.671      -0.260     379.221      8.73      1.89
  394.335       4.673      -0.259     379.271     28.95      1.88
  394.385       4.674      -0.260     379.321    353.49      2.08
  394.435       4.676      -0.260     379.371    353.13      1.55
  394.485       4.676      -0.259     379.421     36.78      1.03
  394.535       4.678      -0.258     379.471     31.08      1.83
  394.585       4.679      -0.258     379.521      9.49      1.70
  394.635       4.681      -0.258     379.571     22.17      1.60
  394.685       4.683      -0.256     379.621     41.14      3.60
  394.735       4.685      -0.255     379.671     23.51      2.15
  394.785       4.687      -0.254     379.721     14.10      2.40
  394.835       4.689      -0.254     379.771     14.60      2.15
  394.885       4.690      -0.254     379.821     10.61      2.13
  394.935       4.692      -0.253     379.871     11.69      1.99
  394.985       4.694      -0.253     379.921     15.94      2.04
  395.035       4.695      -0.252     379.971     17.42      1.32
  395.085       4.696      -0.252     380.021      4.82      1.55
  395.135       4.698      -0.251     380.071     25.92      2.67
  395.185       4.700      -0.251     380.121      8.08      1.67
  395.235       4.701      -0.250     380.171     29.21      1.71
  395.285       4.703      -0.249     380.221     26.21      2.14
  395.335       4.705      -0.249     380.270      1.61      3.02
  395.385       4.708      -0.249     380.320      6.59      2.73
  395.435       4.710      -0.249     380.370     10.95      2.17
  395.485       4.711      -0.248     380.420     12.04      1.57
  395.535       4.713      -0.248     380.470     14.46      2.63
  395.585       4.715      -0.248     380.520    352.39      1.71
  395.635       4.716      -0.248     380.570     12.60      1.81
  395.685       4.718      -0.247     380.620     19.24      1.97
  395.735       4.719      -0.247     380.670     18.45      1.44
  395.785       4.721      -0.246     380.720     17.97      2.13
  395.835       4.722      -0.246     380.770     19.51      1.60
  395.885       4.723      -0.245     380.820     15.04      1.34
  395.935       4.725      -0.245     380.870     10.67      2.08
  395.985       4.727      -0.245     380.920      9.48      2.31
  396.035       4.729      -0.245     380.970      6.50      1.77
  396.085       4.730      -0.244     381.020      3.59      1.43
  396.135       4.731      -0.244     381.070      4.64      1.61
  396.185       4.733      -0.244     381.120      0.50      1.98
  396.235       4.735      -0.244     381.170     19.82      2.41
  396.285       4.737      -0.243     381.220     21.38      2.19
  396.335       4.738      -0.243     381.270     12.69      1.62
  396.385       4.740      -0.242     381.320      7.13      2.13
  396.435       4.741      -0.242     381.370      3.48      1.70
  396.485       4.743      -0.242     381.420     24.04      2.08
  396.535       4.745      -0.241     381.470      8.66      1.74
  396.585       4.746      -0.241     381.520      9.56      1.92
  396.635       4.748      -0.241     381.570    357.95      2.49
  396.685       4.750      -0.241     381.620      1.95      2.43
  396.735       4.752      -0.241     381.670      8.45      1.78
  396.785       4.754      -0.241     381.720      7.14      2.07
  396.835       4.755      -0.240     381.770     10.73      1.92
  396.885       4.757      -0.240     381.820     12.97      1.87
  396.935       4.759      -0.240     381.870     10.59      1.84
  396.985       4.760      -0.239     381.919     12.97      2.01
  397.035       4.762      -0.239     381.969     15.14      1.92
  397.085       4.764      -0.238     382.019     12.37      1.87
  397.135       4.765      -0.238     382.069     11.90      1.82
  397.185       4.767      -0.238     382.119     13.86      1.82
