~VERSION INFORMATION
VERS .     2.0     : CWLS LOG ASCII STANDARD - VERSION 2.0
WRAP .     NO      : ONE LINE PER 1 DEPTH STEPS
~WELL INFORMATION
#MNEM.UNIT       DATA                  DESCRIPTION OF MNEMONIC
#---- ----       ----                  -----------------------
STRT .ft           14.885                  :START DEPTH
STOP .ft          397.185                  :STOP DEPTH
STEP .ft            0.050                  :STEP
NULL .          -999.2500                  :NULL VALUE
COMP .     Eaton Well Surveys              :COMPANY
WELL .     EDC Well                        :WELL
FLD  .     CR-103 & CR-17                  :FIELD
LOC  .                                     :LOCATION
PROV .     United States of America        :COUNTRY
SRVC .                                     :SERVICE COMPANY
DATE .     06 Apr 17                       :LOG DATE
UWI  .     EDC Well                        :UNIQUE WELL ID
~OTHER INFORMATION SECTION
#-------------------------
North ref is Magnetic
Mean deviation: 0.72 to N357.14
End deviation components .....
     North: 4.767
     East : -0.238
     Down : 382.119
Azimuth of end: N357.14
Distance start-end: 4.773ft
Comment1: T
Comment2: B
Comment3: p
Comment4: d
Comment5: g
Comment6: 3rd party winch coax
Comment7: RE,RS,JH
~CURVE INFORMATION
#MNEM.UNIT      API CODES       CURVE DESCRIPTION
#---- ----      ---------       -----------------
DEPT .ft                          : 1 DEPTH
DEVN .ft                          : 2 DEVIATION COMPONENT NORTH
DEVE .ft                          : 3 DEVIATION COMPONENT EAST
DEVD .ft                          : 4 DEVIATION COMPONENT DOWN
AZIM .deg                         : 5 DEVIATION AZIMUTH
DEV  .deg                         : 6 DEVIATION FROM VERTICAL DOWN
~A DEPT         DEVN        DEVE        DEVD      AZIM       DEV
# ...
  240.685       1.531      -0.701     225.674    358.90      1.07
  240.735       1.532      -0.701     225.724    356.20      1.58
  240.785       1.532      -0.701     225.774    244.14      0.42
  240.835       1.533      -0.701     225.824      5.82      1.36
  240.885       1.534      -0.701     225.874    334.11      0.42
  240.935       1.535      -0.701     225.924      8.17      1.14
  240.985       1.535      -0.701     225.974    349.24      0.74
  241.035       1.536      -0.701     226.024    349.24      0.74
  241.085       1.537      -0.702     226.074    309.59      1.25
  241.135       1.537      -0.702     226.124    342.29      0.52
  241.185       1.537      -0.702     226.174     32.40      0.36
  241.235       1.538      -0.702     226.224    344.84      0.56
  241.285       1.538      -0.702     226.274    344.84      0.56
  241.335       1.539      -0.702     226.324    355.19      1.25
  241.385       1.540      -0.702     226.373    350.95      0.57
  241.435       1.541      -0.702     226.423      9.60      1.56
  241.485       1.542      -0.702     226.473     10.59      1.44
  241.535       1.544      -0.702     226.523     10.59      1.44
  241.585       1.545      -0.702     226.573    350.87      1.28
  241.635       1.546      -0.702     226.623    359.51      1.09
  241.685       1.546      -0.702     226.673    346.28      0.93
  241.735       1.547      -0.702     226.723    350.33      0.26
  241.785       1.548      -0.702     226.773    344.23      1.57
  241.835       1.549      -0.703     226.823    330.69      1.18
  241.885       1.550      -0.704     226.873    330.69      1.18
  241.935       1.551      -0.704     226.923    332.69      1.18
  241.985       1.552      -0.703     226.973     45.51      1.44
  242.035       1.552      -0.703     227.023     22.60      0.60
  242.085       1.553      -0.703     227.073     22.60      0.60
  242.135       1.553      -0.703     227.123    335.69      0.88
  242.185       1.554      -0.703     227.173    340.04      1.29
  242.235       1.555      -0.704     227.223    332.46      0.43
  242.285       1.555      -0.704     227.273    337.58      0.23
  242.335       1.556      -0.703     227.323      8.78      1.55
  242.385       1.556      -0.704     227.373    230.51      0.18
  242.435       1.556      -0.704     227.423    230.51      0.18
  242.485       1.556      -0.704     227.473    334.13      0.63
  242.535       1.558      -0.704     227.523      0.86      1.16
  242.585       1.558      -0.704     227.573    330.45      0.90
  242.635       1.559      -0.705     227.623    330.45      0.90
  242.685       1.559      -0.705     227.673     14.05      0.39
  242.735       1.560      -0.705     227.723    353.15      0.91
  242.785       1.560      -0.705     227.773     14.70      0.09
  242.835       1.560      -0.704     227.823     82.97      0.31
  242.885       1.560      -0.704     227.873     65.69      0.45
  242.935       1.561      -0.704     227.923      1.92      1.39
  242.985       1.563      -0.704     227.973      1.92      1.39
  243.035       1.563      -0.705     228.023    300.64      1.47
  243.085       1.564      -0.706     228.073    320.30      1.20
  243.135       1.564      -0.706     228.123     30.76      0.42
  243.185       1.565      -0.706     228.173    328.61      0.60
  243.235       1.566      -0.705     228.223     33.43      1.23
  243.285       1.567      -0.705     228.273     33.43      1.23
  243.335       1.566      -0.704     228.323    133.36      0.71
  243.385       1.567      -0.704     228.373    350.91      1.08
  243.435       1.568      -0.705     228.423    350.12      1.28
  243.485       1.569      -0.704     228.473      9.67      1.33
  243.535       1.570      -0.705     228.523    299.56      0.40
  243.585       1.570      -0.704     228.573     73.58      1.02
  243.635       1.571      -0.704     228.623     15.13      0.97
  243.685       1.571      -0.705     228.673    302.67      1.61
  243.735       1.572      -0.705     228.723    350.73      0.38
  243.785       1.572      -0.705     228.773    294.31      0.82
  243.835       1.573      -0.705     228.823     11.55      0.74
  243.885       1.573      -0.706     228.873    336.30      0.55
  243.935       1.573      -0.706     228.923    325.90      0.43
  243.985       1.574      -0.706     228.973    354.24      0.57
  244.035       1.574      -0.706     229.023    354.24      0.57
  244.085       1.576      -0.706     229.073    356.62      1.45
  244.135       1.577      -0.706     229.123    358.60      1.18
  244.185       1.577      -0.705     229.173     32.72      1.03
  244.235       1.578      -0.705     229.223     23.90      0.45
  244.285       1.578      -0.705     229.273     23.90      0.45
  244.335       1.579      -0.705     229.323    348.27      1.07
  244.385       1.580      -0.705     229.373     13.77      1.03
  244.435       1.581      -0.705     229.423    350.23      0.79
  244.485       1.581      -0.705     229.473    350.23      0.79
  244.535       1.581      -0.705     229.523     51.53      0.27
  244.585       1.583      -0.706     229.573    329.77      1.39
  244.635       1.584      -0.706     229.623      4.29      1.89
  244.685       1.585      -0.706     229.673      2.52      1.17
  244.735       1.586      -0.706     229.723    356.81      0.75
  244.785       1.586      -0.706     229.773    316.77      0.16
  244.835       1.587      -0.706     229.823    313.45      0.99
  244.885       1.587      -0.707     229.873    313.45      0.99
  244.935       1.588      -0.707     229.923    354.97      1.45
  244.985       1.589      -0.707     229.973    356.88      0.80
  245.035       1.589      -0.707     230.023    205.24      0.13
  245.085       1.590      -0.707     230.073     36.92      0.92
  245.135       1.590      -0.706     230.123     56.69      1.50
  245.185       1.591      -0.706     230.173    353.14      0.89
  245.235       1.592      -0.706     230.223    353.14      0.89
  245.285       1.593      -0.706     230.273    346.57      1.00
  245.335       1.593      -0.706     230.323     42.08      0.52
  245.385       1.593      -0.706     230.373    296.46      0.71
  245.435       1.594      -0.707     230.423    296.46      0.71
  245.485       1.594      -0.707     230.473    287.46      0.71
  245.535       1.594      -0.708     230.523    286.28      0.74
  245.585       1.594      -0.708     230.573    245.97      0.12
  245.635       1.594      -0.709     230.623    269.04      0.80
  245.685       1.595      -0.709     230.673      2.65      1.02
  245.735       1.595      -0.709     230.723     15.24      0.42
  245.785       1.595      -0.709     230.773    217.99      0.36
  245.835       1.595      -0.708     230.823     96.67      0.69
  245.885       1.596      -0.709     230.873    317.47      1.24
  245.935       1.596      -0.708     230.923     92.12      0.88
  245.985       1.596      -0.708     230.973    331.29      0.49
  246.035       1.597      -0.709     231.023    338.85      0.65
  246.085       1.597      -0.708     231.073     74.20      0.82
  246.135       1.597      -0.707     231.123     74.20      0.82
  246.185       1.597      -0.707     231.173    293.97      0.30
  246.235       1.599      -0.708     231.223    350.76      2.09
  246.285       1.599      -0.708     231.273    281.77      0.31
  246.335       1.599      -0.708     231.323    310.08      0.39
  246.385       1.599      -0.708     231.373     74.09      0.71
  246.435       1.601      -0.708     231.423      2.43      1.45
  246.485       1.600      -0.708     231.473    250.46      0.47
  246.535       1.601      -0.708     231.523     14.54      0.52
  246.585       1.601      -0.708     231.573     14.54      0.52
  246.635       1.601      -0.708     231.623    305.86      0.29
  246.685       1.602      -0.708     231.673     22.33      1.16
  246.735       1.602      -0.707     231.723     93.61      0.68
