~VERSION INFORMATION
VERS .     2.0     : CWLS LOG ASCII STANDARD - VERSION 2.0
WRAP .     NO      : ONE LINE PER 5 DEPTH STEPS
~WELL INFORMATION
#MNEM.UNIT       DATA                  DESCRIPTION OF MNEMONIC
#---- ----       ----                  -----------------------
STRT .ft            0.000                  :START DEPTH
STOP .ft          252.000                  :STOP DEPTH
STEP .ft            0.050                  :STEP
NULL .          -999.2500                  :NULL VALUE
COMP .     Eaton Well Surveys              :COMPANY
WELL .     15                              :WELL
FLD  .     Gated pumphouse in park         :FIELD
LOC  .                                     :LOCATION
PROV .     United States of America        :COUNTRY
SRVC .                                     :SERVICE COMPANY
DATE .     21 Mar 17                       :LOG DATE
UWI  .     15                              :UNIQUE WELL ID
~OTHER INFORMATION SECTION
#-------------------------
North ref is Magnetic
Mean deviation: 1.02 to N245.93
End deviation components .....
     North: -1.821
     East : -4.078
     Down : 251.897
Azimuth of end: N245.94
Distance start-end: 4.466ft
Comment1: T
Comment2: B
Comment3: p
Comment4: d
Comment5: g
Comment6: 3rd party winch coax
Comment7: RE,RS,JH
~CURVE INFORMATION
#MNEM.UNIT      API CODES       CURVE DESCRIPTION
#---- ----      ---------       -----------------
DEPT .ft                          : 1 DEPTH
DEVN .ft                          : 2 DEVIATION COMPONENT NORTH
DEVE .ft                          : 3 DEVIATION COMPONENT EAST
DEVD .ft                          : 4 DEVIATION COMPONENT DOWN
AZIM .deg                         : 5 DEVIATION AZIMUTH
DEV  .deg                         : 6 DEVIATION FROM VERTICAL DOWN
~A DEPT         DEVN        DEVE        DEVD      AZIM       DEV
# ...
  213.500      -1.722      -3.022     213.463    257.00      1.20
  213.750      -1.721      -3.027     213.712    281.02      0.94
  214.000      -1.721      -3.032     213.962    281.12      1.12
  214.250      -1.721      -3.037     214.212    265.64      1.49
  214.500      -1.721      -3.042     214.462    251.69      0.48
  214.750      -1.721      -3.047     214.712    259.86      1.14
  215.000      -1.721      -3.052     214.962    256.80      1.17
  215.250      -1.721      -3.059     215.212    264.21      1.37
  215.500      -1.722      -3.064     215.462    260.27      1.62
  215.750      -1.723      -3.071     215.712    264.38      1.69
  216.000      -1.724      -3.077     215.962    260.62      1.39
  216.250      -1.725      -3.083     216.212    248.96      1.57
  216.500      -1.726      -3.089     216.462    256.19      1.36
  216.750      -1.727      -3.095     216.712    253.78      1.53
  217.000      -1.727      -3.102     216.962    264.50      1.60
  217.250      -1.728      -3.109     217.211    256.62      1.56
  217.500      -1.729      -3.116     217.461    267.00      1.55
  217.750      -1.730      -3.123     217.711    265.36      1.59
  218.000      -1.731      -3.130     217.961    282.23      1.46
  218.250      -1.731      -3.136     218.211    261.09      1.52
  218.500      -1.732      -3.143     218.461    253.45      1.61
  218.750      -1.732      -3.150     218.711    263.25      1.56
  219.000      -1.733      -3.157     218.961    257.95      1.53
  219.250      -1.733      -3.164     219.211    266.00      1.23
  219.500      -1.734      -3.170     219.461    267.64      1.24
  219.750      -1.734      -3.177     219.710    266.29      1.61
  220.000      -1.735      -3.184     219.960    270.61      1.43
  220.250      -1.736      -3.190     220.210    260.78      1.52
  220.500      -1.736      -3.197     220.460    267.53      1.45
  220.750      -1.737      -3.204     220.710    261.84      1.32
  221.000      -1.737      -3.211     220.960    264.11      1.50
  221.250      -1.738      -3.217     221.210    258.81      1.55
  221.500      -1.739      -3.224     221.460    250.98      1.71
  221.750      -1.740      -3.231     221.710    263.93      1.51
  222.000      -1.741      -3.238     221.960    268.33      1.60
  222.250      -1.742      -3.245     222.210    264.81      1.60
  222.500      -1.742      -3.252     222.459    265.10      1.66
  222.750      -1.743      -3.258     222.709    266.10      1.55
  223.000      -1.743      -3.265     222.959    267.34      1.48
  223.250      -1.744      -3.272     223.209    270.02      1.50
  223.500      -1.745      -3.279     223.459    265.94      1.57
  223.750      -1.745      -3.285     223.709    268.81      1.54
  224.000      -1.746      -3.292     223.959    262.16      1.58
  224.250      -1.746      -3.299     224.209    269.41      1.62
  224.500      -1.747      -3.306     224.459    271.45      1.61
  224.750      -1.747      -3.313     224.709    263.41      1.55
  225.000      -1.747      -3.320     224.958    266.69      1.51
  225.250      -1.748      -3.327     225.208    259.28      1.48
  225.500      -1.749      -3.333     225.458    262.46      1.65
  225.750      -1.749      -3.340     225.708    265.85      1.45
  226.000      -1.749      -3.347     225.958    272.06      1.48
  226.250      -1.750      -3.354     226.208    261.24      1.54
  226.500      -1.750      -3.360     226.458    262.32      1.58
  226.750      -1.751      -3.367     226.708    267.33      1.43
  227.000      -1.751      -3.374     226.958    292.66      1.34
  227.250      -1.752      -3.380     227.208    278.97      1.53
  227.500      -1.751      -3.387     227.458    283.18      1.54
  227.750      -1.752      -3.394     227.707    269.70      1.31
  228.000      -1.752      -3.400     227.957    278.39      1.51
  228.250      -1.752      -3.407     228.207    271.63      1.44
  228.500      -1.751      -3.413     228.457    270.63      1.40
  228.750      -1.751      -3.420     228.707    269.97      1.61
  229.000      -1.751      -3.427     228.957    275.56      1.63
  229.250      -1.750      -3.434     229.207    275.39      1.92
  229.500      -1.750      -3.441     229.457    269.89      1.74
  229.750      -1.750      -3.449     229.707    268.75      1.68
  230.000      -1.749      -3.456     229.957    275.32      1.64
  230.250      -1.748      -3.463     230.206    274.96      1.64
  230.500      -1.747      -3.470     230.456    271.52      1.68
  230.750      -1.747      -3.478     230.706    284.08      1.77
  231.000      -1.746      -3.485     230.956    271.65      1.89
  231.250      -1.746      -3.493     231.206    277.33      1.97
  231.500      -1.744      -3.502     231.456    287.72      1.87
  231.750      -1.744      -3.509     231.706    271.89      1.62
  232.000      -1.745      -3.517     231.956    270.07      1.68
  232.250      -1.745      -3.525     232.206    271.86      1.71
  232.500      -1.744      -3.533     232.455    272.56      1.70
  232.750      -1.744      -3.540     232.705    273.98      1.80
  233.000      -1.744      -3.548     232.955    268.24      1.79
  233.250      -1.744      -3.555     233.205    275.02      1.63
  233.500      -1.744      -3.562     233.455    257.39      1.52
  233.750      -1.743      -3.568     233.705    276.99      1.46
  234.000      -1.743      -3.575     233.955    271.25      1.43
  234.250      -1.742      -3.583     234.205    279.02      1.52
  234.500      -1.742      -3.589     234.455    276.14      1.40
  234.750      -1.742      -3.596     234.704    280.94      1.48
  235.000      -1.741      -3.603     234.954    273.95      1.57
  235.250      -1.741      -3.609     235.204    275.68      1.49
  235.500      -1.741      -3.616     235.454    280.46      1.57
  235.750      -1.741      -3.623     235.704    260.69      1.50
  236.000      -1.741      -3.630     235.954    281.71      1.44
  236.250      -1.741      -3.636     236.204    273.43      1.52
  236.500      -1.741      -3.643     236.454    268.01      1.26
  236.750      -1.740      -3.648     236.704    274.34      1.38
  237.000      -1.740      -3.654     236.954    268.48      1.46
  237.250      -1.740      -3.662     237.204    270.74      1.90
  237.500      -1.740      -3.667     237.454    292.44      1.00
  237.750      -1.739      -3.674     237.703    280.56      1.87
  238.000      -1.740      -3.682     237.953    261.90      1.76
  238.250      -1.741      -3.688     238.203    262.98      1.79
  238.500      -1.741      -3.695     238.453    272.90      1.69
  238.750      -1.742      -3.702     238.703    260.64      1.72
  239.000      -1.743      -3.709     238.953    259.93      1.88
  239.250      -1.743      -3.716     239.203    267.05      1.54
  239.500      -1.744      -3.723     239.453    269.98      1.68
  239.750      -1.745      -3.730     239.703    261.88      1.85
  240.000      -1.746      -3.738     239.952    258.50      1.75
  240.250      -1.746      -3.746     240.202    266.14      1.72
  240.500      -1.747      -3.754     240.452    260.11      1.85
  240.750      -1.748      -3.761     240.702    268.97      1.64
  241.000      -1.750      -3.769     240.952    257.02      1.82
  241.250      -1.751      -3.777     241.202    263.75      1.76
  241.500      -1.751      -3.784     241.452    257.02      1.66
  241.750      -1.753      -3.792     241.702    260.91      1.96
  242.000      -1.754      -3.799     241.952    259.35      1.77
  242.250      -1.755      -3.807     242.201    256.50      1.85
  242.500      -1.757      -3.815     242.451    259.05      1.83
  242.750      -1.758      -3.823     242.701    259.97      1.87
  243.000      -1.760      -3.830     242.951    264.82      1.82
  243.250      -1.762      -3.838     243.201    260.60      1.70
  243.500      -1.763      -3.845     243.451    257.62      1.80
  243.750      -1.764      -3.853     243.701    262.85      1.79
