~VERSION INFORMATION
VERS .     2.0     : CWLS LOG ASCII STANDARD - VERSION 2.0
WRAP .     NO      : ONE LINE PER 5 DEPTH STEPS
~WELL INFORMATION
#MNEM.UNIT       DATA                  DESCRIPTION OF MNEMONIC
#---- ----       ----                  -----------------------
STRT .ft            0.000                  :START DEPTH
STOP .ft          252.000                  :STOP DEPTH
STEP .ft            0.050                  :STEP
NULL .          -999.2500                  :NULL VALUE
COMP .     Eaton Well Surveys              :COMPANY
WELL .     15                              :WELL
FLD  .     Gated pumphouse in park         :FIELD
LOC  .                                     :LOCATION
PROV .     United States of America        :COUNTRY
SRVC .                                     :SERVICE COMPANY
DATE .     21 Mar 17                       :LOG DATE
UWI  .     15                              :UNIQUE WELL ID
~OTHER INFORMATION SECTION
#-------------------------
North ref is Magnetic
Mean deviation: 1.02 to N245.93
End deviation components .....
     North: -1.821
     East : -4.078
     Down : 251.897
Azimuth of end: N245.94
Distance start-end: 4.466ft
Comment1: T
Comment2: B
Comment3: p
Comment4: d
Comment5: g
Comment6: 3rd party winch coax
Comment7: RE,RS,JH
~CURVE INFORMATION
#MNEM.UNIT      API CODES       CURVE DESCRIPTION
#---- ----      ---------       -----------------
DEPT .ft                          : 1 DEPTH
DEVN .ft                          : 2 DEVIATION COMPONENT NORTH
DEVE .ft                          : 3 DEVIATION COMPONENT EAST
DEVD .ft                          : 4 DEVIATION COMPONENT DOWN
AZIM .deg                         : 5 DEVIATION AZIMUTH
DEV  .deg                         : 6 DEVIATION FROM VERTICAL DOWN
~A DEPT         DEVN        DEVE        DEVD      AZIM       DEV
# ...
   60.950      -0.442      -0.607      60.944    222.18      0.71
   61.200      -0.445      -0.610      61.194    228.07      1.03
   61.450      -0.447      -0.613      61.444    228.32      0.76
   61.700      -0.449      -0.616      61.694    229.70      0.95
   61.950      -0.451      -0.619      61.944    237.01      1.22
   62.200      -0.453      -0.623      62.194    237.23      1.00
   62.450      -0.456      -0.626      62.444    244.51      1.07
   62.700      -0.458      -0.628      62.694    219.99      0.61
   62.950      -0.461      -0.629      62.944    175.08      0.50
   63.200      -0.464      -0.632      63.194    229.09      0.87
   63.450      -0.466      -0.635      63.444    240.72      0.76
   63.700      -0.468      -0.637      63.694    216.16      1.04
   63.950      -0.471      -0.640      63.944    211.58      0.85
   64.250      -0.475      -0.642      64.244    218.40      0.86
   64.500      -0.477      -0.645      64.494    226.73      0.66
   64.750      -0.480      -0.648      64.744    246.98      1.10
   65.000      -0.482      -0.652      64.994    228.44      0.75
   65.250      -0.485      -0.655      65.244    224.26      0.75
   65.500      -0.487      -0.657      65.493    182.08      0.63
   65.750      -0.490      -0.660      65.743    221.08      0.69
   66.000      -0.494      -0.662      65.993    189.14      0.89
   66.250      -0.496      -0.664      66.243    226.41      0.96
   66.500      -0.499      -0.667      66.493    234.94      0.75
   66.750      -0.501      -0.669      66.743    249.84      0.96
   67.000      -0.503      -0.673      66.993    232.18      0.98
   67.250      -0.506      -0.675      67.243    225.67      0.76
   67.500      -0.509      -0.678      67.493    225.83      0.69
   67.750      -0.512      -0.680      67.743    200.16      0.75
   68.000      -0.514      -0.683      67.993    203.42      0.50
   68.250      -0.516      -0.686      68.243    239.81      0.92
   68.500      -0.518      -0.689      68.493    261.82      0.93
   68.750      -0.521      -0.691      68.743    215.53      0.97
   69.000      -0.524      -0.693      68.993    209.52      0.71
   69.250      -0.527      -0.696      69.243    227.35      0.44
   69.500      -0.528      -0.699      69.493    243.75      0.62
   69.750      -0.530      -0.703      69.743    249.68      1.14
   70.000      -0.533      -0.706      69.993    171.55      0.78
   70.250      -0.535      -0.709      70.243    209.01      0.94
   70.500      -0.538      -0.710      70.493    198.83      0.33
   70.750      -0.541      -0.713      70.743    208.78      0.78
   71.000      -0.544      -0.716      70.993    202.25      0.83
   71.250      -0.547      -0.719      71.243    240.03      0.83
   71.500      -0.549      -0.723      71.493    264.69      1.32
   71.750      -0.552      -0.725      71.743    221.92      1.20
   72.000      -0.554      -0.728      71.993    255.15      1.05
   72.250      -0.556      -0.730      72.243    230.59      0.54
   72.500      -0.560      -0.733      72.493    202.18      0.73
   72.750      -0.562      -0.735      72.743    225.37      1.04
   73.000      -0.565      -0.737      72.992    203.32      1.15
   73.250      -0.567      -0.740      73.242    227.04      1.06
   73.500      -0.570      -0.742      73.492    214.47      0.89
   73.750      -0.572      -0.744      73.742    212.14      0.91
   74.000      -0.574      -0.748      73.992    210.83      0.68
   74.250      -0.577      -0.751      74.242    212.95      0.66
   74.500      -0.580      -0.754      74.492    212.58      0.94
   74.750      -0.582      -0.757      74.742    247.99      0.92
   75.000      -0.585      -0.760      74.992    251.81      0.84
   75.250      -0.588      -0.762      75.242    213.59      0.68
   75.500      -0.590      -0.765      75.492    200.36      0.68
   75.750      -0.592      -0.768      75.742    210.94      1.28
   76.000      -0.594      -0.769      75.992    274.29      0.11
   76.250      -0.596      -0.772      76.242    239.42      1.04
   76.500      -0.598      -0.775      76.492    265.60      0.86
   76.750      -0.600      -0.778      76.742    254.11      0.24
   77.000      -0.602      -0.781      76.992    220.31      0.68
   77.250      -0.605      -0.784      77.242    250.86      1.39
   77.500      -0.608      -0.787      77.492    248.88      1.20
   77.750      -0.611      -0.790      77.742    280.33      0.56
   78.000      -0.611      -0.793      77.992    223.21      0.72
   78.250      -0.614      -0.796      78.242    234.72      1.00
   78.500      -0.617      -0.799      78.492    208.64      0.71
   78.750      -0.620      -0.800      78.742    230.13      0.64
   79.000      -0.622      -0.803      78.992    228.96      0.81
   79.250      -0.625      -0.805      79.242    184.22      0.80
   79.500      -0.626      -0.808      79.492    254.57      1.63
   79.750      -0.628      -0.812      79.742    244.15      1.03
   80.000      -0.630      -0.815      79.992    255.43      0.90
   80.250      -0.633      -0.818      80.241    206.93      0.93
   80.500      -0.636      -0.821      80.491    221.24      0.81
   80.750      -0.638      -0.823      80.741    219.86      0.91
   81.000      -0.640      -0.826      80.991    231.67      0.89
   81.250      -0.643      -0.829      81.241    215.70      0.98
   81.500      -0.645      -0.832      81.491    226.00      1.06
   81.750      -0.648      -0.835      81.741    228.11      0.91
   82.000      -0.651      -0.838      81.991    205.19      0.81
   82.250      -0.653      -0.839      82.241    248.29      0.53
   82.500      -0.655      -0.841      82.491    229.04      0.63
   82.750      -0.657      -0.845      82.741    280.02      0.60
   83.000      -0.659      -0.848      82.991    254.53      1.22
   83.250      -0.661      -0.851      83.241    232.06      0.95
   83.500      -0.664      -0.853      83.491    205.90      0.80
   83.750      -0.666      -0.856      83.741    218.86      0.96
   84.000      -0.669      -0.858      83.991    189.91      0.69
   84.250      -0.672      -0.861      84.241    232.95      0.90
   84.500      -0.675      -0.865      84.491    247.87      0.20
   84.750      -0.678      -0.867      84.741    220.17      0.94
   85.000      -0.680      -0.870      84.991    210.87      0.82
   85.250      -0.683      -0.873      85.241    166.05      0.93
   85.500      -0.685      -0.876      85.491    229.96      0.94
   85.750      -0.688      -0.878      85.741    205.66      0.94
   86.000      -0.690      -0.881      85.991    221.60      1.02
   86.250      -0.692      -0.883      86.241    245.69      0.74
   86.500      -0.695      -0.885      86.491    222.98      0.80
   86.750      -0.697      -0.888      86.741    208.55      0.69
   87.000      -0.699      -0.891      86.991    227.92      0.89
   87.250      -0.702      -0.894      87.241    225.99      0.94
   87.500      -0.705      -0.898      87.491    228.74      1.10
   87.750      -0.708      -0.901      87.741    240.87      0.86
   88.000      -0.710      -0.904      87.990    246.58      0.89
   88.250      -0.713      -0.906      88.240    232.50      0.63
   88.500      -0.715      -0.908      88.490    211.84      1.10
   88.750      -0.717      -0.912      88.740    226.78      0.94
   89.000      -0.718      -0.915      88.990    243.46      0.93
   89.250      -0.720      -0.918      89.240    193.69      1.17
   89.500      -0.722      -0.921      89.490    226.64      0.65
   89.750      -0.724      -0.924      89.740    237.46      1.15
   90.000      -0.726      -0.926      89.990    229.04      0.80
   90.250      -0.727      -0.929      90.240    243.41      0.85
   90.500      -0.730      -0.932      90.490    231.13      0.92
   90.750      -0.732      -0.935      90.740    243.51      1.00
   91.000      -0.734      -0.939      90.990    235.74      1.11
   91.250      -0.737      -0.942      91.240    231.20      0.98
